~Version Information
 VERS.                 2.0: 
 WRAP.                 YES: 
 END.                PETRA:GeoPLUS Corporation
~Well Information Block
#MNEM.UNIT       Data Type    Information
#---------    -------------   ---------------------------------
 STRT.F             54.8640:
 STOP.F          11443.3640:
 STEP.F              0.5000:
 NULL.              -999.25:
 COMP.                           : COMPANY
 FLD.       BENEDUM              : FIELD
 LOC.                            : LOCATION
 DATE.      14-OCT-2016          : DATE
 WELL.                           : Well Name
 LABL.      42461338640000                   : Well Label
 APIN.      42461338640000       : API Number
 UWI.       42461338640000       : Unique Well Number
 NUMB.      1                    : Well Number
 OPER.      APACHE CORP          : Operator Name
 LEAS.      UNIVERSITY `4`       : Lease Name
~Parameter Block
#MNEM.UNIT           VALUE            Description
#---------    --------------------   ---------------------------------
 EKB.F                  2672.0 : KB Elevation
~Curve Information Block
#MNEM.UNIT      API CODE      Curve Description
#---------    -------------   ---------------------------------
 DEPT.F                   00 000 00 00: Depth (MD)
 DPLS.FRAC                00 001 00 00: DENSITY POROSITY  LIMESTONE
 DT.US/FT                 00 002 00 00: Delta-T Compressional
 GR.GAPI                  00 003 00 00: GAMMA RAY
 HCAL.IN                  00 004 00 00: HIGH RESOLUTION CALIPER
 HDRA.G/CM3               00 005 00 00: HIGH RESOLUTION DENSITY CORRECTION
 LLD.OHM.M                00 006 00 00: Laterolog Deep
 LLS.OHM.M                00 007 00 00: Laterolog Shallow
 PAY_TOC.                 00 008 00 00: TOC proxy
 PEFZ.B/E                 00 009 00 00: PHOTO ELECTRIC FACTOR - HIGH RESOLUTION
 RHOZ.G/CM3               00 010 00 00: BULK DENSITY - STD RESOLUTION
 RXOZ.OHM.M               00 011 00 00: RESISTIVITY OF FLUSHED ZONE - STD RESOLU
 TENS.LB                  00 012 00 00: Tension
 TNPH.V/V                 00 013 00 00: Thermal Neutron Porosity
 XDPHI.FRAC               00 014 00 00: 
~A
# ...
    6764.864
       0.092      71.154      90.289       8.759       0.011
      18.018      19.729       0.000       3.047       2.572
      30.658    3080.000       0.167       0.080
    6765.364
       0.087      71.369      92.561       8.737       0.013
      16.927      17.687       0.000       3.006       2.578
      27.621    3080.001       0.171       0.076
    6765.864
       0.084      71.798      96.672       8.717       0.030
      16.171      15.826       0.000       2.926       2.586
      18.864    3097.659       0.178       0.072
    6766.364
       0.081      72.122      99.972       8.734       0.052
      16.942      15.046       0.000       2.930       2.595
      13.503    3100.000       0.184       0.067
    6766.864
       0.079      72.015     101.570       8.716       0.075
      18.242      21.645       0.000       3.010       2.603
      13.670    3100.000       0.186       0.062
    6767.364
       0.076      71.347      99.459       8.716       0.080
      25.622      27.354       0.000       3.061       2.612
      15.406    3082.443       0.185       0.057
    6767.864
       0.077      70.709      97.751       8.678       0.059
      31.073      33.065       0.000       3.218       2.612
      24.091    3080.000       0.173       0.057
    6768.364
       0.060      70.559      97.394       8.657       0.035
      35.200      37.458       0.000       3.378       2.612
      40.177    3080.000       0.159       0.057
    6768.864
       0.059      70.367      99.666       8.617       0.021
      32.745      37.644       0.000       3.538       2.612
      50.066    3062.371       0.160       0.057
    6769.364
       0.064      70.361      97.964       8.593       0.021
      29.620      32.941       0.000       3.589       2.600
      32.294    3060.000       0.162       0.066
    6769.864
       0.071      70.360      92.374       8.591       0.019
      25.771      28.612       0.000       3.498       2.584
      29.906    3060.000       0.156       0.074
    6770.364
       0.077      69.697      86.884       8.612       0.016
      24.194      26.105       0.000       3.359       2.583
      37.242    3043.695       0.150       0.074
    6770.864
       0.072      69.290      83.415       8.593       0.014
      23.109      24.659       0.000       3.219       2.583
      28.805    3038.253       0.147       0.074
    6771.364
       0.063      69.283      84.071       8.592       0.012
      22.070      23.548       0.000       3.124       2.583
      17.054    3056.578       0.152       0.074
    6771.864
       0.055      69.224      85.287       8.592       0.014
      21.078      22.299       0.000       3.119       2.596
      16.779    3059.176       0.155       0.065
    6772.364
       0.053      69.270      85.785       8.611       0.016
      20.126      21.487       0.000       3.145       2.610
      16.771    3076.716       0.156       0.057
    6772.864
       0.059      69.526      85.529       8.612       0.015
      19.966      20.047       0.000       3.088       2.612
      17.062    3079.043       0.154       0.057
    6773.364
       0.070      70.276      86.585       8.612       0.015
      18.297      18.305       0.000       3.028       2.611
      15.405    3098.174       0.152       0.059
    6773.864
       0.081      71.174      90.629       8.648       0.017
      16.694      16.674       0.000       2.968       2.591
      13.674    3100.000       0.157       0.072
    6774.364
       0.092      72.074      94.648       8.671       0.026
      14.978      16.363       0.000       2.868       2.566
      13.073    3100.000       0.164       0.086
    6774.864
       0.102      72.364      95.882       8.677       0.036
      13.694      14.509       0.000       2.821       2.539
       9.300    3100.000       0.170       0.101
    6775.364
       0.104      71.792      93.262       8.619       0.053
      13.810      16.846       0.000       2.797       2.538
       9.812    3100.000       0.174       0.101
    6775.864
       0.098      70.540      90.562       8.576       0.066
      17.392      19.896       0.000       2.838       2.538
      13.225    3082.341       0.173       0.101
    6776.364
       0.085      69.282      88.483       8.555       0.041
      23.233      26.741       0.000       2.998       2.557
      19.341    3080.000       0.170       0.087
    6776.864
       0.072      69.128      88.224       8.515       0.013
      25.587      29.471       0.000       3.158       2.580
      25.056    3080.000       0.166       0.074
    6777.364
       0.059      70.578      90.861       8.490       0.006
      25.849      31.199       0.000       3.335       2.603
      26.814    3062.505       0.164       0.061
    6777.864
       0.044      72.786      97.765       8.490       0.012
      26.702      32.385       0.000       3.501       2.628
      27.063    3060.000       0.179       0.047
    6778.364
       0.047      75.109     105.278       8.490       0.018
      23.076      24.851       0.000       3.516       2.630
      21.721    3060.000       0.194       0.047
    6778.864
       0.057      75.902     110.887       8.490       0.023
      19.263      19.778       0.000       3.375       2.633
      16.516    3060.000       0.203       0.046
    6779.364
       0.073      74.224     110.416       8.490       0.022
      18.945      19.153       0.000       3.274       2.620
      14.942    3060.000       0.189       0.054
    6779.864
       0.076      71.455     103.666       8.490       0.022
      21.792      21.140       0.000       3.163       2.606
      19.038    3060.000       0.171       0.062
    6780.364
       0.073      69.034      95.077       8.490       0.018
      26.422      29.052       0.000       3.160       2.592
      25.039    3060.000       0.156       0.070
    6780.864
       0.072      68.715      88.254       8.490       0.012
      32.624      38.794       0.000       3.160       2.577
      31.717    3060.000       0.149       0.079
    6781.364
       0.074      69.937      88.718       8.507       0.009
      30.408      40.178       0.000       3.160       2.562
      33.896    3060.000       0.155       0.088
    6781.864
       0.077      72.084      94.205       8.528       0.015
      22.012      29.732       0.000       3.075       2.558
      22.998    3060.000       0.181       0.089
    6782.364
       0.081      74.014     101.895       8.550       0.022
      19.808      24.783       0.000       2.973       2.558
      16.781    3060.000       0.198       0.089
    6782.864
       0.084      75.074     109.354       8.551       0.028
      20.184      25.621       0.000       2.953       2.557
      17.294    3060.000       0.212       0.090
    6783.364
       0.086      75.667     114.894       8.551       0.020
      21.882      27.914       0.000       2.995       2.554
      19.641    3060.000       0.213       0.091
    6783.864
       0.088      75.666     117.789       8.551       0.012
      23.750      31.755       0.000       3.032       2.557
      22.359    3060.000       0.205       0.089
    6784.364
       0.089      75.197     116.365       8.551       0.009
      26.050      35.885       0.000       3.092       2.564
      25.449    3060.000       0.197       0.085
    6784.864
       0.088      74.596     112.567       8.551       0.012
      28.345      40.952       0.000       3.152       2.568
      28.984    3060.001       0.191       0.083
    6785.364
       0.087      73.802     104.258       8.533       0.013
      29.404      39.580       0.000       3.178       2.578
      30.316    3077.619       0.185       0.076
    6785.864
       0.084      73.125      99.301       8.532       0.014
      29.451      37.425       0.000       3.197       2.585
      26.894    3080.000       0.179       0.073
    6786.364
       0.081      72.464      94.876       8.492       0.015
      30.586      37.678       0.000       3.256       2.589
      32.972    3080.000       0.176       0.070
