~Version Information
 VERS.                 2.0: 
 WRAP.                  NO: 
 END.                PETRA:GeoPLUS Corporation
~Well Information Block
#MNEM.UNIT       Data Type    Information
#---------    -------------   ---------------------------------
 STRT.F              0.0000:
 STOP.F          10696.1560:
 STEP.F              0.5000:
 NULL.              -999.25:
 COMP.                           : COMPANY
 FLD.       FLAT ROCK            : FIELD
 LOC.                            : LOCATION
 DATE.      14-OCT-2016          : DATE
 WELL.                           : Well Name
 LABL.      42461037730000                   : Well Label
 APIN.      42461037730000       : API Number
 UWI.       42461037730000       : Unique Well Number
 NUMB.      3                    : Well Number
 OPER.      OXY U S A INC        : Operator Name
 LEAS.      UNIVERSITY-AQ        : Lease Name
~Parameter Block
#MNEM.UNIT           VALUE            Description
#---------    --------------------   ---------------------------------
~Curve Information Block
#MNEM.UNIT      API CODE      Curve Description
#---------    -------------   ---------------------------------
 DEPT.F                   00 000 00 00: Depth (MD)
 ASN.OHM.M                00 001 00 00: AMPLIFIED SHORT NORMAL
 GR.GAPI                  00 002 00 00: GAMMA RAY
 LAT19.OHM.M              00 003 00 00: 
 LAT32.OHM.M              00 004 00 00: 
 SN.OHM.M                 00 005 00 00: 16-in Short Normal
 SP.MV                    00 006 00 00: Spontaneous Potential
 XGR.API                  00 007 00 00: gamma ray
~A        DEPT         ASN          GR       LAT19       LAT32          SN          SP         XGR
# ...
      9963.000     198.124       2.296    1119.234      99.097     -999.25    -112.867      24.397
      9963.500     197.761       2.434    1102.252     100.171     -999.25    -112.968      25.871
      9964.000     196.835       2.400    1115.176     100.074     -999.25    -112.765      25.509
      9964.500     195.847       2.037    1127.417      99.352     -999.25    -112.706      21.644
      9965.000     194.954       1.761    1145.753      98.633     -999.25    -112.706      18.720
      9965.500     194.061       1.620    1163.618      98.730     -999.25    -112.706      17.221
      9966.000     193.019       1.478    1175.436      99.838     -999.25    -112.842      15.710
      9966.500     191.580       1.358    1187.798     101.103     -999.25    -113.129      14.433
      9967.000     190.304       1.332    1205.952     102.342     -999.25    -113.177      14.159
      9967.500     188.904       1.363    1224.023     101.277     -999.25    -113.177      14.490
      9968.000     187.627       1.404    1242.095      99.472     -999.25    -113.160      14.921
      9968.500     186.267       1.433    1260.168      97.850     -999.25    -113.320      15.229
      9969.000     184.521       1.433    1278.121      96.905     -999.25    -113.565      15.229
      9969.500     182.960       1.433    1282.483      97.443     -999.25    -113.936      15.229
      9970.000     181.464       1.433    1263.983      97.980     -999.25    -114.430      15.229
      9970.500     179.963       1.433    1251.539      98.502     -999.25    -114.674      15.225
      9971.000     178.460       1.432    1233.566      98.078     -999.25    -114.286      15.220
      9971.500     176.958       1.432    1247.558      97.519     -999.25    -114.166      15.215
      9972.000     175.241       1.431    1277.438      96.773     -999.25    -114.002      15.210
      9972.500     173.639       1.431    1300.420      95.645     -999.25    -113.949      15.204
      9973.000     172.118       1.430    1291.224      94.004     -999.25    -113.802      15.202
      9973.500     170.597       1.451    1260.870      92.764     -999.25    -113.757      15.421
      9974.000     169.076       1.493    1230.325      92.260     -999.25    -113.436      15.867
      9974.500     167.555       1.564    1187.439      92.286     -999.25    -113.091      16.617
      9975.000     165.666       1.632    1157.274      92.635     -999.25    -113.063      17.342
      9975.500     163.513       1.503    1115.422      92.987     -999.25    -113.075      15.971
      9976.000     162.673       1.369    1117.803      93.150     -999.25    -113.086      14.549
      9976.500     162.056       1.429    1135.561      93.511     -999.25    -113.097      15.185
      9977.000     161.311       1.489    1153.338      92.996     -999.25    -113.109      15.828
      9977.500     160.000       1.539    1171.116      90.997     -999.25    -112.952      16.358
      9978.000     158.214       1.578    1188.817      88.988     -999.25    -112.897      16.773
      9978.500     156.392       1.577    1177.929      86.784     -999.25    -112.908      16.760
      9979.000     154.915       1.589    1085.846      84.763     -999.25    -112.606      16.886
      9979.500     153.742       1.649    1014.505      82.742     -999.25    -112.418      17.530
      9980.000     152.703       1.709     967.486      80.751     -999.25    -112.623      18.167
      9980.500     151.820       1.770     931.092      80.326     -999.25    -112.859      18.806
      9981.000     150.999       1.830     888.602      80.908     -999.25    -113.097      19.444
      9981.500     150.904       1.805     850.727      81.829     -999.25    -113.058      19.181
      9982.000     150.904       1.745     868.602      82.953     -999.25    -112.788      18.542
      9982.500     151.098       1.684     886.675      84.607     -999.25    -112.553      17.900
      9983.000     151.196       1.602     904.747      86.060     -999.25    -112.467      17.029
      9983.500     151.409       1.533     922.498      87.341     -999.25    -112.316      16.296
      9984.000     151.475       1.578     921.449      88.805     -999.25    -112.246      16.768
      9984.500     151.702       1.649     914.908      90.084     -999.25    -111.982      17.525
      9985.000     152.003       1.698     902.859      91.520     -999.25    -111.137      18.044
      9985.500     152.089       1.686     890.924      91.994     -999.25    -110.557      17.914
      9986.000     152.305       1.644     884.939      91.999     -999.25    -110.868      17.470
      9986.500     152.606       1.572     872.948      92.180     -999.25    -111.593      16.707
      9987.000     152.728       1.491     866.895      92.367     -999.25    -111.476      15.843
      9987.500     153.098       1.409     855.045      92.931     -999.25    -111.154      14.976
      9988.000     152.227       1.308     849.020      93.672     -999.25    -110.744      13.899
      9988.500     151.021       1.292     843.079      94.778     -999.25    -110.430      13.732
      9989.000     150.167       1.333     843.686      96.043     -999.25    -109.897      14.170
      9989.500     149.602       1.384     856.714      97.308     -999.25    -110.340      14.708
      9990.000     149.183       1.425     880.543      98.567     -999.25    -111.053      15.140
      9990.500     148.696       1.475     898.391      99.823     -999.25    -111.323      15.671
      9991.000     147.891       1.461     922.537     101.053     -999.25    -111.463      15.532
      9991.500     146.587       1.420     951.084      99.952     -999.25    -111.729      15.093
      9992.000     144.666       1.412     937.979      97.774     -999.25    -111.800      15.011
      9992.500     141.756       1.517     931.663      95.582     -999.25    -111.801      16.123
      9993.000     139.365       1.657     925.224      92.501     -999.25    -112.127      17.612
      9993.500     137.216       1.650     898.773      90.142     -999.25    -112.267      17.537
      9994.000     135.067       1.568     850.582      87.759     -999.25    -112.450      16.660
      9994.500     132.918       1.476     820.659      85.375     -999.25    -112.719      15.683
      9995.000     130.769       1.384     795.991      83.172     -999.25    -112.789      14.706
      9995.500     128.784       1.293     759.457      80.828     -999.25    -112.791      13.739
      9996.000     128.668       1.348     729.412      79.171     -999.25    -112.799      14.322
      9996.500     128.762       1.408     705.397      77.516     -999.25    -112.806      14.968
      9997.000     128.746       1.425     687.598      75.876     -999.25    -112.813      15.141
      9997.500     128.905       1.339     675.258      76.773     -999.25    -112.821      14.228
      9998.000     129.216       1.221     662.814      78.222     -999.25    -112.998      12.982
      9998.500     129.507       1.253     644.153      79.498     -999.25    -113.073      13.318
      9999.000     129.797       1.293     626.000      80.945     -999.25    -113.083      13.741
      9999.500     130.281       1.268     620.158      82.217     -999.25    -112.939      13.477
     10000.000     130.656       1.186     614.075      83.498     -999.25    -112.861      12.608
     10000.500     131.190       1.115     608.142      84.963     -999.25    -112.686      11.848
     10001.000     131.800       1.039     614.675      86.244     -999.25    -112.798      11.047
     10001.500     132.192       1.100     614.265      87.708     -999.25    -112.871      11.691
     10002.000     132.714       1.161     608.243      88.989     -999.25    -112.884      12.338
     10002.500     133.301       1.221     608.816      90.448     -999.25    -112.739      12.982
     10003.000     134.121       1.186     614.836      91.714     -999.25    -112.492      12.603
