~Version Information
 VERS.                 2.0: 
 WRAP.                  NO: 
 END.                PETRA:GeoPLUS Corporation
~Well Information Block
#MNEM.UNIT       Data Type    Information
#---------    -------------   ---------------------------------
 STRT.F           1828.6476:
 STOP.F           8230.1476:
 STEP.F              0.5000:
 NULL.              -999.25:
 COMP.                           : COMPANY
 FLD.       SPRABERRY            : FIELD
 LOC.                            : LOCATION
 DATE.      14-OCT-2016          : DATE
 WELL.                           : Well Name
 LABL.      42461324180000                   : Well Label
 APIN.      42461324180000       : API Number
 UWI.       42461324180000       : Unique Well Number
 NUMB.      3                    : Well Number
 OPER.      PIONEER NAT RES USA  : Operator Name
 LEAS.      UNIVERSITY `8`       : Lease Name
~Parameter Block
#MNEM.UNIT           VALUE            Description
#---------    --------------------   ---------------------------------
 EKB.F                  2684.0 : KB Elevation
~Curve Information Block
#MNEM.UNIT      API CODE      Curve Description
#---------    -------------   ---------------------------------
 DEPT.F                   00 000 00 00: Depth (MD)
 CALI.IN                  00 001 00 00: Density Caliper
 DPHI.FRAC                00 002 00 00: Density Porosity
 DRHO.G/CM3               00 003 00 00: Density Correction
 GR.GAPI                  00 004 00 00: GAMMA RAY
 LGRD.OHM.M               00 005 00 00: Long Guard Resistivity
 NPHI.FRAC                00 006 00 00: Neutron Porosity
~A        DEPT        CALI        DPHI        DRHO          GR        LGRD        NPHI
# ...
      5232.648       6.312      -5.183      -8.254      91.233    -874.783       0.235
      5233.148       6.313      -5.181      -8.252      91.240    -875.034       0.235
      5233.648       6.315      -5.179      -8.250      91.247    -875.284       0.235
      5234.148       6.316      -5.177      -8.249      91.254    -875.533       0.235
      5234.648       6.317      -5.176      -8.247      91.261    -875.781       0.235
      5235.148       6.318      -5.174      -8.246      91.268    -876.028       0.235
      5235.648       6.320      -5.172      -8.244      91.275    -876.275       0.235
      5236.148       6.321      -5.171      -8.243      91.282    -876.520       0.235
      5236.648       6.322      -5.169      -8.241      91.289    -876.765       0.235
      5237.148       6.323      -5.167      -8.240      91.297    -877.009       0.235
      5237.648       6.325      -5.165      -8.238      91.304    -877.252       0.235
      5238.148       6.326      -5.164      -8.236      91.311    -877.494       0.235
      5238.648       6.327      -5.162      -8.235      91.318    -877.736       0.235
      5239.148       6.328      -5.160      -8.233      91.325    -877.976       0.235
      5239.648       6.330      -5.159      -8.232      91.333    -878.216       0.235
      5240.148       6.331      -5.157      -8.230      91.340    -878.455       0.235
      5240.648       6.332      -5.155      -8.228      91.347    -878.693       0.235
      5241.148       6.333      -5.153      -8.227      91.354    -878.930       0.235
      5241.648       6.335      -5.152      -8.225      91.362    -879.166       0.235
      5242.148       6.336      -5.150      -8.224      91.369    -879.401       0.235
      5242.648       6.337      -5.148      -8.222      91.376    -879.636       0.235
      5243.148       6.338      -5.146      -8.220      91.384    -879.870       0.235
      5243.648       6.340      -5.145      -8.219      91.391    -880.103       0.235
      5244.148       6.341      -5.143      -8.217      91.398    -880.334       0.235
      5244.648       6.342      -5.141      -8.215      91.406    -880.566       0.235
      5245.148       6.343      -5.139      -8.214      91.413    -880.796       0.235
      5245.648       6.345      -5.138      -8.212      91.421    -881.025       0.235
      5246.148       6.346      -5.136      -8.211      91.428    -881.254       0.235
      5246.648       6.347      -5.134      -8.209      91.435    -881.481       0.235
      5247.148       6.348      -5.132      -8.207      91.443    -881.708       0.235
      5247.648       6.350      -5.131      -8.206      91.450    -881.934       0.235
      5248.148       6.351      -5.129      -8.204      91.458    -882.159       0.235
      5248.648       6.352      -5.127      -8.202      91.465    -882.384       0.235
      5249.148       6.353      -5.125      -8.201      91.473    -882.607       0.235
      5249.648       6.355      -5.124      -8.199      91.480    -882.829       0.235
      5250.148       6.356      -5.122      -8.197      91.488    -883.051       0.235
      5250.648       6.357      -5.120      -8.196      91.495    -883.272       0.235
      5251.148       6.359      -5.118      -8.194      91.503    -883.492       0.235
      5251.648       6.360      -5.116      -8.192      91.511    -883.711       0.235
      5252.148       6.361      -5.115      -8.191      91.518    -883.929       0.235
      5252.648       6.362      -5.113      -8.189      91.526    -884.146       0.235
      5253.148       6.364      -5.111      -8.187      91.533    -884.363       0.235
      5253.648       6.365      -5.109      -8.185      91.541    -884.579       0.235
      5254.148       6.366      -5.108      -8.184      91.549    -884.793       0.235
      5254.648       6.367      -5.106      -8.182      91.556    -885.007       0.235
      5255.148       6.369      -5.104      -8.180      91.564    -885.220       0.235
      5255.648       6.370      -5.102      -8.179      91.572    -885.432       0.235
      5256.148       6.371      -5.100      -8.177      91.579    -885.644       0.235
      5256.648       6.372      -5.099      -8.175      91.587    -885.854       0.235
      5257.148       6.374      -5.097      -8.173      91.595    -886.064       0.235
      5257.648       6.375      -5.095      -8.172      91.603    -886.272       0.235
      5258.148       6.376      -5.093      -8.170      91.610    -886.480       0.235
      5258.648       6.378      -5.091      -8.168      91.618    -886.687       0.235
      5259.148       6.379      -5.090      -8.166      91.626    -886.893       0.235
      5259.648       6.380      -5.088      -8.165      91.634    -887.098       0.235
      5260.148       6.381      -5.086      -8.163      91.642    -887.303       0.235
      5260.648       6.383      -5.084      -8.161      91.649    -887.506       0.235
      5261.148       6.384      -5.082      -8.159      91.657    -887.709       0.235
      5261.648       6.385      -5.080      -8.157      91.665    -887.910       0.235
      5262.148       6.386      -5.079      -8.156      91.673    -888.111       0.235
      5262.648       6.388      -5.077      -8.154      91.681    -888.311       0.235
      5263.148       6.389      -5.075      -8.152      91.689    -888.510       0.235
      5263.648       6.390      -5.073      -8.150      91.697    -888.708       0.235
      5264.148       6.392      -5.071      -8.149      91.705    -888.906       0.235
      5264.648       6.393      -5.070      -8.147      91.713    -889.102       0.235
      5265.148       6.394      -5.068      -8.145      91.721    -889.298       0.235
      5265.648       6.395      -5.066      -8.143      91.729    -889.492       0.235
      5266.148       6.397      -5.064      -8.141      91.737    -889.686       0.235
      5266.648       6.398      -5.062      -8.139      91.745    -889.879       0.235
      5267.148       6.399      -5.060      -8.138      91.753    -890.071       0.235
      5267.648       6.401      -5.059      -8.136      91.761    -890.263       0.235
      5268.148       6.402      -5.057      -8.134      91.769    -890.453       0.235
      5268.648       6.403      -5.055      -8.132      91.777    -890.642       0.235
      5269.148       6.404      -5.053      -8.130      91.785    -890.831       0.235
      5269.648       6.406      -5.051      -8.128      91.793    -891.019       0.235
      5270.148       6.407      -5.049      -8.127      91.801    -891.205       0.235
      5270.648       6.408      -5.047      -8.125      91.809    -891.391       0.235
      5271.148       6.410      -5.046      -8.123      91.817    -891.576       0.235
      5271.648       6.411      -5.044      -8.121      91.826    -891.760       0.235
      5272.148       6.412      -5.042      -8.119      91.834    -891.944       0.235
      5272.648       6.413      -5.040      -8.117      91.842    -892.126       0.235
      5273.148       6.415      -5.038      -8.115      91.850    -892.308       0.235
      5273.648       6.416      -5.036      -8.114      91.858    -892.488       0.235
      5274.148       6.417      -5.034      -8.112      91.867    -892.668       0.235
      5274.648       6.419      -5.033      -8.110      91.875    -892.847       0.235
      5275.148       6.420      -5.031      -8.108      91.883    -893.025       0.235
      5275.648       6.421      -5.029      -8.106      91.891    -893.202       0.235
      5276.148       6.423      -5.027      -8.104      91.900    -893.378       0.235
      5276.648       6.424      -5.025      -8.102      91.908    -893.553       0.235
      5277.148       6.425      -5.023      -8.100      91.916    -893.728       0.235
      5277.648       6.426      -5.021      -8.098      91.925    -893.901       0.235
      5278.148       6.428      -5.019      -8.096      91.933    -894.074       0.235
