~Version Information
 VERS.                 2.0: 
 WRAP.                  NO: 
 END.                PETRA:GeoPLUS Corporation
~Well Information Block
#MNEM.UNIT       Data Type    Information
#---------    -------------   ---------------------------------
 STRT.F              0.0000:
 STOP.F          10696.1560:
 STEP.F              0.5000:
 NULL.              -999.25:
 COMP.                           : COMPANY
 FLD.       FLAT ROCK            : FIELD
 LOC.                            : LOCATION
 DATE.      14-OCT-2016          : DATE
 WELL.                           : Well Name
 LABL.      42461037730000                   : Well Label
 APIN.      42461037730000       : API Number
 UWI.       42461037730000       : Unique Well Number
 NUMB.      3                    : Well Number
 OPER.      OXY U S A INC        : Operator Name
 LEAS.      UNIVERSITY-AQ        : Lease Name
~Parameter Block
#MNEM.UNIT           VALUE            Description
#---------    --------------------   ---------------------------------
~Curve Information Block
#MNEM.UNIT      API CODE      Curve Description
#---------    -------------   ---------------------------------
 DEPT.F                   00 000 00 00: Depth (MD)
 ASN.OHM.M                00 001 00 00: AMPLIFIED SHORT NORMAL
 GR.GAPI                  00 002 00 00: GAMMA RAY
 LAT19.OHM.M              00 003 00 00: 
 LAT32.OHM.M              00 004 00 00: 
 SN.OHM.M                 00 005 00 00: 16-in Short Normal
 SP.MV                    00 006 00 00: Spontaneous Potential
 XGR.API                  00 007 00 00: gamma ray
~A        DEPT         ASN          GR       LAT19       LAT32          SN          SP         XGR
# ...
      6439.500       8.852       8.454      13.139      11.389     -999.25    -128.062      89.847
      6440.000       9.098       8.730      14.025      11.387     -999.25    -126.164      92.786
      6440.500       9.409       9.019      14.285      11.584     -999.25    -124.400      95.858
      6441.000       9.710       9.298      14.285      11.945     -999.25    -122.529      98.822
      6441.500       9.907       9.584      14.284      12.305     -999.25    -121.371     101.861
      6442.000       9.389       9.343      14.285      12.486     -999.25    -120.917      99.299
      6442.500       9.123       9.102      14.419      13.042     -999.25    -120.263      96.738
      6443.000       9.249       8.861      15.169      13.761     -999.25    -119.534      94.180
      6443.500       9.571       8.696      16.197      14.105     -999.25    -118.802      92.425
      6444.000       9.885       8.715      17.282      14.286     -999.25    -117.919      92.620
      6444.500      10.225       8.847      18.368      14.464     -999.25    -117.119      94.024
      6445.000      10.578       8.979      19.363      14.467     -999.25    -116.207      95.432
      6445.500      10.931       9.112      19.464      14.647     -999.25    -115.232      96.841
      6446.000      11.389       9.257      19.646      14.832     -999.25    -114.256      98.380
      6446.500      11.642       9.389      19.764      15.198     -999.25    -113.642      99.789
      6447.000      11.818       9.480      19.747      15.561     -999.25    -113.749     100.750
      6447.500      11.995       9.395      19.054      16.119     -999.25    -114.376      99.855
      6448.000      12.092       9.313      18.147      17.009     -999.25    -114.919      98.974
      6448.500      11.984       9.363      17.183      17.170     -999.25    -115.588      99.508
      6449.000      11.866       9.417      16.282      17.166     -999.25    -116.320     100.087
      6449.500      11.749       9.273      15.657      16.971     -999.25    -117.203      98.557
      6450.000      11.589       9.129      15.847      16.422     -999.25    -118.025      97.021
      6450.500      11.451       8.983      15.885      16.051     -999.25    -118.939      95.475
      6451.000      11.330       8.840      15.262      15.683     -999.25    -119.758      93.953
      6451.500      11.210       8.767      14.523      15.496     -999.25    -120.653      93.170
      6452.000      11.044       8.693      13.252      15.124     -999.25    -121.465      92.393
      6452.500      10.969       8.644      12.352      14.950     -999.25    -122.439      91.873
      6453.000      11.019       8.559      11.572      15.136     -999.25    -122.333      90.968
      6453.500      11.075       8.498      11.049      15.495     -999.25    -121.371      90.321
      6454.000      11.131       8.438      10.936      16.031     -999.25    -120.621      89.677
      6454.500      11.186       8.676      10.939      16.166     -999.25    -119.733      92.205
      6455.000      11.242       9.070      11.057      15.424     -999.25    -118.772      96.391
      6455.500      11.341       9.320      11.110      15.056     -999.25    -117.960      99.057
      6456.000      11.167       9.717      10.977      14.688     -999.25    -118.359     103.274
      6456.500      10.929       9.838      10.581      14.690     -999.25    -119.329     104.554
      6457.000      10.691       9.777       9.485      14.505     -999.25    -120.197     103.911
      6457.500      10.452       9.716       8.534      14.496     -999.25    -120.627     103.258
      6458.000      10.133       9.629       8.126      14.483     -999.25    -120.670     102.336
      6458.500       9.854       9.507       7.830      14.088     -999.25    -120.682     101.039
      6459.000       9.610       9.373       7.646      13.178     -999.25    -120.758      99.614
      6459.500       9.404       9.202       7.459      12.803     -999.25    -121.398      97.804
      6460.000       9.183       9.070       7.110      12.083     -999.25    -122.120      96.391
      6460.500       8.983       8.949       7.108      11.536     -999.25    -123.048      95.110
      6461.000       8.760       8.818       7.108      11.033     -999.25    -124.714      93.717
      6461.500       8.554       8.686       7.115      11.214     -999.25    -127.048      92.318
      6462.000       8.408       8.495       7.741      11.394     -999.25    -129.072      90.280
      6462.500       8.360       8.352       8.404      11.574     -999.25    -130.976      88.763
      6463.000       8.426       8.220       9.007      11.556     -999.25    -132.881      87.360
      6463.500       8.689       8.076       9.670      11.206     -999.25    -134.287      85.832
      6464.000       8.949       7.932      10.270      11.205     -999.25    -134.979      84.304
      6464.500       9.190       7.790      10.927      11.205     -999.25    -135.694      82.787
      6465.000       9.431       7.978      10.999      11.394     -999.25    -136.311      84.786
      6465.500       9.706       8.214      10.641      11.577     -999.25    -136.471      87.294
      6466.000      10.061       8.218      10.281      11.960     -999.25    -136.250      87.338
      6466.500       9.831       8.109       9.923      13.047     -999.25    -136.190      86.188
      6467.000       9.416       8.001       9.904      13.770     -999.25    -136.190      85.035
      6467.500       9.540       7.892      10.870      14.488     -999.25    -135.924      83.879
      6468.000       9.929       7.754      11.585      14.621     -999.25    -135.411      82.411
      6468.500      10.249       7.887      12.302      14.260     -999.25    -134.558      83.818
      6469.000      10.577       8.029      12.927      13.897     -999.25    -133.181      85.334
      6469.500      10.893       8.173      12.289      13.752     -999.25    -131.459      86.863
      6470.000      10.918       8.317      11.567      14.108     -999.25    -129.352      88.394
      6470.500      10.800       8.461      10.681      14.458     -999.25    -127.218      89.928
      6471.000      10.726       8.606      10.210      14.619     -999.25    -125.303      91.460
      6471.500      10.622       8.750       9.789      14.607     -999.25    -124.329      92.990
      6472.000      10.500       8.892       9.425      14.773     -999.25    -124.672      94.502
      6472.500      10.416       8.616       8.997      14.379     -999.25    -125.974      91.566
      6473.000      10.312       8.245       8.510      13.829     -999.25    -128.367      87.629
      6473.500      10.235       7.969       7.970      13.279     -999.25    -131.183      84.695
      6474.000      10.174       7.697       7.864      13.115     -999.25    -134.231      81.807
      6474.500      10.153       7.693       7.865      13.104     -999.25    -136.699      81.756
      6475.000      10.109       7.824       7.988      13.097     -999.25    -138.009      83.150
      6475.500      10.038       7.855       8.378      13.271     -999.25    -138.113      83.484
      6476.000      10.023       7.665       9.280      13.268     -999.25    -136.009      81.459
      6476.500      10.020       7.669      10.120      13.440     -999.25    -133.640      81.506
      6477.000      10.171       7.752      10.958      13.613     -999.25    -131.008      82.391
      6477.500      10.533       7.846      11.917      14.163     -999.25    -128.123      83.392
      6478.000      10.883       7.746      13.117      14.697     -999.25    -125.756      82.326
      6478.500      11.198       7.591      15.160      15.399     -999.25    -124.347      80.679
      6479.000      11.520       7.437      17.209      15.752     -999.25    -123.730      79.036
      6479.500      11.995       7.358      19.319      16.104     -999.25    -124.105      78.200
