~Version Information
 VERS.                 2.0: 
 WRAP.                  NO: 
 END.                PETRA:GeoPLUS Corporation
~Well Information Block
#MNEM.UNIT       Data Type    Information
#---------    -------------   ---------------------------------
 STRT.F              0.0000:
 STOP.F          10696.1560:
 STEP.F              0.5000:
 NULL.              -999.25:
 COMP.                           : COMPANY
 FLD.       FLAT ROCK            : FIELD
 LOC.                            : LOCATION
 DATE.      14-OCT-2016          : DATE
 WELL.                           : Well Name
 LABL.      42461037730000                   : Well Label
 APIN.      42461037730000       : API Number
 UWI.       42461037730000       : Unique Well Number
 NUMB.      3                    : Well Number
 OPER.      OXY U S A INC        : Operator Name
 LEAS.      UNIVERSITY-AQ        : Lease Name
~Parameter Block
#MNEM.UNIT           VALUE            Description
#---------    --------------------   ---------------------------------
~Curve Information Block
#MNEM.UNIT      API CODE      Curve Description
#---------    -------------   ---------------------------------
 DEPT.F                   00 000 00 00: Depth (MD)
 ASN.OHM.M                00 001 00 00: AMPLIFIED SHORT NORMAL
 GR.GAPI                  00 002 00 00: GAMMA RAY
 LAT19.OHM.M              00 003 00 00: 
 LAT32.OHM.M              00 004 00 00: 
 SN.OHM.M                 00 005 00 00: 16-in Short Normal
 SP.MV                    00 006 00 00: Spontaneous Potential
 XGR.API                  00 007 00 00: gamma ray
~A        DEPT         ASN          GR       LAT19       LAT32          SN          SP         XGR
# ...
       162.000     -999.25       2.994       0.879       0.695       2.110     -999.25      47.062
       162.500     -999.25       3.028       3.785       0.738       2.169     -999.25      44.073
       163.000     -999.25       3.078       6.850       0.766       2.189     -999.25      42.855
       163.500     -999.25       3.129       9.436       0.738       2.216     -999.25      45.057
       164.000     -999.25       3.171      10.875       0.691       2.316     -999.25      41.632
       164.500     -999.25       3.180      11.059       0.716       2.343     -999.25      36.530
       165.000     -999.25       3.163      10.986       0.723       2.371     -999.25      37.478
       165.500     -999.25       3.095      11.709       0.664       2.410     -999.25      39.241
       166.000     -999.25       3.045      11.859       0.750       2.462     -999.25      38.879
       166.500     -999.25       2.960      14.290       0.836       2.530     -999.25      42.531
       167.000     -999.25       2.926      16.407       0.797       2.542     -999.25      45.290
       167.500     -999.25       2.884      16.373       0.813       2.606     -999.25      42.323
       168.000     -999.25       2.774      17.498       0.839       2.672     -999.25      40.499
       168.500     -999.25       2.690      15.760       0.869       2.737     -999.25      41.710
       169.000     -999.25       2.657      14.713       0.998       2.802     -999.25      45.577
       169.500     -999.25       2.640      17.034       0.904       2.826     -999.25      46.287
       170.000     -999.25       2.682      17.259       0.795       2.867     -999.25      42.916
       170.500     -999.25       2.733      17.621       0.849       2.949     -999.25      38.386
       171.000     -999.25       2.759      19.105       0.973       3.039     -999.25      40.273
       171.500     -999.25       2.784      19.839       1.047       3.123     -999.25      42.030
       172.000     -999.25       2.793      18.467       1.104       3.185     -999.25      42.572
       172.500     -999.25       2.861      18.860       1.092       3.214     -999.25      46.648
       173.000     -999.25       2.887      20.558       0.997       3.238     -999.25      46.474
       173.500     -999.25       2.895      21.796       1.014       3.250     -999.25      47.272
       174.000     -999.25       2.938      21.324       1.112       3.272     -999.25      49.890
       174.500     -999.25       2.964      23.427       1.120       3.272     -999.25      48.677
       175.000     -999.25       2.981      25.294       1.052       3.250     -999.25      50.397
       175.500     -999.25       2.998      24.255       1.071       3.198     -999.25      53.565
       176.000     -999.25       3.007      25.233       1.092       3.120     -999.25      54.201
       176.500     -999.25       3.008      29.735       0.996       3.030     -999.25      52.757
       177.000     -999.25       2.983      31.471       0.976       2.957     -999.25      50.966
       177.500     -999.25       2.899      31.765       1.052       2.876     -999.25      48.092
       178.000     -999.25       2.781      29.508       1.002       2.748     -999.25      37.723
       178.500     -999.25       2.731      23.456       0.884       2.670     -999.25      39.004
       179.000     -999.25       2.698      21.359       0.870       2.601     -999.25      42.923
       179.500     -999.25       2.707      21.506       0.818       2.548     -999.25      45.048
       180.000     -999.25       2.741      19.987       0.790       2.507     -999.25      44.412
       180.500     -999.25       2.775      19.422       0.784       2.456     -999.25      41.540
       181.000     -999.25       2.775      17.620       0.693       2.449     -999.25      39.500
       181.500     -999.25       2.776      14.372       0.697       2.448     -999.25      38.717
       182.000     -999.25       2.768      15.008       0.712       2.447     -999.25      40.408
       182.500     -999.25       2.768      21.417       0.736       2.489     -999.25      44.741
       183.000     -999.25       2.769      23.388       0.902       2.529     -999.25      49.768
       183.500     -999.25       2.778      20.990       1.006       2.530     -999.25      51.238
       184.000     -999.25       2.820      22.816       1.037       2.511     -999.25      47.175
       184.500     -999.25       2.888      25.162       0.987       2.490     -999.25      43.033
       185.000     -999.25       2.956      22.615       0.925       2.434     -999.25      42.512
       185.500     -999.25       3.041      18.736       0.814       2.395     -999.25      44.364
       186.000     -999.25       3.126      15.718       0.798       2.367     -999.25      43.349
       186.500     -999.25       3.219      17.372       0.788       2.349     -999.25      44.125
       187.000     -999.25       3.211      18.194       0.828       2.361     -999.25      52.951
       187.500     -999.25       3.194      18.658       0.872       2.359     -999.25      62.838
       188.000     -999.25       3.178      18.069       0.891       2.316     -999.25      70.471
       188.500     -999.25       3.144      18.860       0.810       2.290     -999.25      70.699
       189.000     -999.25       3.119      17.904       0.740       2.262     -999.25      61.424
       189.500     -999.25       3.137      16.368       0.855       2.278     -999.25      52.984
       190.000     -999.25       3.162      18.319       0.964       2.336     -999.25      53.850
       190.500     -999.25       3.197      20.072       1.035       2.325     -999.25      49.388
       191.000     -999.25       3.222      20.106       0.925       2.317     -999.25      47.308
       191.500     -999.25       3.214      18.316       0.870       2.289     -999.25      48.802
       192.000     -999.25       3.173      16.018       0.924       2.299     -999.25      49.828
       192.500     -999.25       3.131      16.741       0.995       2.363     -999.25      49.196
       193.000     -999.25       3.097      17.393       0.990       2.383     -999.25      54.001
       193.500     -999.25       3.073      15.462       0.957       2.391     -999.25      56.498
       194.000     -999.25       3.031      15.088       0.956       2.430     -999.25      57.960
       194.500     -999.25       2.998      14.855       1.069       2.493     -999.25      58.644
       195.000     -999.25       2.939      16.881       1.159       2.507     -999.25      60.711
       195.500     -999.25       2.889      18.511       1.157       2.498     -999.25      63.247
       196.000     -999.25       2.839      18.706       1.041       2.430     -999.25      60.289
       196.500     -999.25       2.797      17.463       0.926       2.350     -999.25      60.646
       197.000     -999.25       2.747      17.144       0.873       2.323     -999.25      59.503
       197.500     -999.25       2.697      16.616       1.036       2.370     -999.25      63.663
       198.000     -999.25       2.722      18.089       1.212       2.389     -999.25      64.198
       198.500     -999.25       2.748      19.382       1.044       2.345     -999.25      59.435
       199.000     -999.25       2.774      17.524       0.857       2.252     -999.25      54.552
       199.500     -999.25       2.766      14.744       0.797       2.250     -999.25      49.495
       200.000     -999.25       2.749      14.215       0.848       2.325     -999.25      50.734
       200.500     -999.25       2.732      14.847       0.992       2.442     -999.25      53.478
       201.000     -999.25       2.716      15.830       1.135       2.512     -999.25      57.720
       201.500     -999.25       2.690      16.859       1.148       2.551     -999.25      60.560
       202.000     -999.25       2.691      17.255       1.086       2.571     -999.25      62.401
