~Version Information
 VERS.                 2.0: 
 WRAP.                 YES: 
 END.                PETRA:GeoPLUS Corporation
~Well Information Block
#MNEM.UNIT       Data Type    Information
#---------    -------------   ---------------------------------
 STRT.F             57.9120:
 STOP.F          11474.9360:
 STEP.F              0.5000:
 NULL.              -999.25:
 COMP.                           : COMPANY
 FLD.       BENEDUM              : FIELD
 LOC.                            : LOCATION
 DATE.      14-OCT-2016          : DATE
 WELL.                           : Well Name
 LABL.      42461342620000                   : Well Label
 APIN.      42461342620000       : API Number
 UWI.       42461342620000       : Unique Well Number
 NUMB.      1                    : Well Number
 OPER.      W T G EXPLORATION    : Operator Name
 LEAS.      UNIVERSITY `3-4`     : Lease Name
~Parameter Block
#MNEM.UNIT           VALUE            Description
#---------    --------------------   ---------------------------------
 EKB.F                  2682.0 : KB Elevation
~Curve Information Block
#MNEM.UNIT      API CODE      Curve Description
#---------    -------------   ---------------------------------
 DEPT.F                   00 000 00 00: Depth (MD)
 CALI.IN                  00 001 00 00: Density Caliper
 DPLS.FRAC                00 002 00 00: DENSITY POROSITY  LIMESTONE
 DRHO.G/CM3               00 003 00 00: Density Correction
 GRD.GAPI                 00 004 00 00: Guard
 GRR.GAPI                 00 005 00 00: Gamma Ray Resistivity Device
 LLD.OHM.M                00 006 00 00: Laterolog Deep
 LLS.OHM.M                00 007 00 00: Laterolog Shallow
 MSFL.OHM.M               00 008 00 00: MICRO SFL
 NPLS.FRAC                00 009 00 00: NEUTRON POROSITY  LIMESTONE
 PEF.B/E                  00 010 00 00: Photo-Electric Factor
 RHOB.G/CM3               00 011 00 00: Bulk Density
 TENS.LB                  00 012 00 00: Tension
 XDPHI.FRAC               00 013 00 00: 
~A
# ...
    9575.412
       9.388       0.082       0.080     114.761     114.450
      15.144      11.770       7.796       0.240       3.019
       2.575    5676.718       0.076
    9575.912
       9.388       0.117       0.057     115.027     113.336
      13.941      10.820       5.090       0.243       2.996
       2.509    5676.660       0.116
    9576.412
       9.388       0.109       0.087     112.903     112.337
      12.822       9.917       4.986       0.249       2.978
       2.515    5676.208       0.116
    9576.912
       9.374       0.108       0.106     112.677     112.751
      11.786       9.068       5.185       0.251       2.977
       2.531    5654.786       0.105
    9577.412
       9.380       0.096       0.112     113.002     113.400
      10.986       8.411       5.055       0.248       2.954
       2.535    5636.006       0.103
    9577.912
       9.388       0.099       0.076     113.588     113.706
      10.856       8.371       5.442       0.246       2.907
       2.547    5635.947       0.095
    9578.412
       9.422       0.090       0.077     113.891     113.992
      10.894       8.371       6.542       0.251       2.828
       2.547    5635.874       0.095
    9578.912
       9.403       0.091       0.091     114.159     110.764
      11.290       8.371       6.270       0.245       2.824
       2.549    5635.802       0.095
    9579.412
       9.362       0.086       0.092     110.811     105.617
      12.827       8.887       4.801       0.239       2.863
       2.562    5635.730       0.086
    9579.912
       9.321       0.098       0.048     105.433     100.577
      15.509      10.534       6.095       0.221       2.879
       2.540    5635.657       0.100
    9580.412
       9.268       0.086       0.063     100.417      92.513
      19.673      13.979      15.286       0.203       2.906
       2.572    5635.584       0.087
    9580.912
       9.235       0.064       0.069      91.032      83.245
      26.249      20.625      24.603       0.178       3.182
       2.630    5635.498       0.051
    9581.412
       9.174       0.042       0.054      81.129      74.108
      39.082      29.439      25.581       0.148       3.389
       2.641    5635.425       0.039
    9581.912
       9.089       0.046       0.001      73.052      65.549
      57.713      45.588      70.627       0.115       3.616
       2.634    5635.353       0.047
    9582.412
       9.107       0.037      -0.004      61.527      59.141
      78.633      63.655     157.952       0.086       3.863
       2.655    5635.280       0.034
    9582.912
       9.148       0.024      -0.006      56.756      56.331
      78.201      69.361     127.382       0.060       3.993
       2.676    5635.207       0.021
    9583.412
       9.189       0.022      -0.008      56.453      59.413
      57.862      51.485      76.931       0.060       3.794
       2.667    5635.135       0.023
    9583.912
       9.214       0.024      -0.006      62.256      68.975
      39.386      30.635      45.947       0.078       3.568
       2.651    5635.062       0.033
    9584.412
       9.275       0.038       0.007      74.422      82.436
      21.018      14.478      12.626       0.110       3.353
       2.637    5634.749       0.042
    9584.912
       9.344       0.053       0.019      84.594      92.732
      14.756      10.859       6.682       0.150       3.169
       2.630    5613.819       0.046
    9585.412
       9.406       0.052       0.052      93.893      99.925
      11.992       9.378       5.414       0.179       2.997
       2.608    5615.536       0.056
    9585.912
       9.451       0.077       0.072     101.777     105.111
      11.047       8.600       3.711       0.206       2.991
       2.573    5634.768       0.076
    9586.412
       9.532       0.070       0.085     107.861     107.861
      11.323       9.122       3.534       0.224       2.959
       2.555    5634.684       0.091
    9586.912
       9.625       0.089       0.084     108.804     108.815
      11.587       9.603       4.493       0.237       2.959
       2.571    5634.611       0.082
    9587.412
       9.684       0.086       0.080     108.560     109.369
      11.845      10.031       5.154       0.236       2.959
       2.578    5634.260       0.077
    9587.912
       9.699       0.076       0.059     109.762     109.833
      12.135      10.233       5.715       0.235       2.961
       2.577    5614.158       0.077
    9588.412
       9.668       0.069       0.060     109.754     111.089
      11.579       9.505       5.132       0.242       2.979
       2.569    5614.081       0.081
    9588.912
       9.642       0.088       0.099     111.514     115.276
      10.613       8.600       3.720       0.249       2.952
       2.546    5613.711       0.093
    9589.412
       9.691       0.105       0.109     115.410     118.776
       9.802       7.818       4.407       0.262       2.911
       2.513    5592.915       0.111
    9589.912
       9.752       0.138       0.128     119.307     121.504
       9.000       7.085       4.779       0.301       2.870
       2.469    5594.417       0.140
    9590.412
       9.825       0.141       0.166     121.958     122.874
       8.270       6.361       3.726       0.308       2.830
       2.477    5614.409       0.135
    9590.912
       9.908       0.140       0.189     121.690     116.739
       7.763       6.047       2.600       0.328       2.791
       2.449    5614.450       0.148
    9591.412
       9.974       0.170       0.148     114.621     109.950
       7.649       6.176       2.214       0.308       2.798
       2.412    5633.954       0.177
    9591.912
       9.980       0.175       0.092     107.126     103.620
       7.925       6.501       3.290       0.279       2.830
       2.445    5633.866       0.158
    9592.412
       9.980       0.152       0.069      99.904      97.657
       8.390       6.852       4.656       0.250       2.977
       2.476    5634.028       0.140
    9592.912
       9.915       0.130       0.045      96.301      96.178
       8.815       7.221       5.710       0.240       3.111
       2.485    5654.088       0.131
    9593.412
       9.764       0.133       0.030      97.565      98.621
       9.331       7.706       5.074       0.241       3.050
       2.472    5613.711       0.141
    9593.912
       9.711       0.109       0.065     101.241     102.104
       9.893       7.849       5.382       0.250       2.987
       2.516    5636.272       0.121
    9594.412
       9.669       0.087       0.136     104.876     105.077
      10.223       7.849       6.450       0.257       2.999
       2.573    5676.449       0.080
    9594.912
       9.653       0.095       0.161     105.832     105.047
      10.007       7.784       6.846       0.250       3.101
       2.556    5694.511       0.090
    9595.412
       9.653       0.094       0.132     104.950     104.695
       9.818       7.621       5.805       0.248       3.198
       2.558    5694.461       0.089
    9595.912
       9.653       0.105       0.102     104.647     104.296
       9.878       7.459       4.854       0.250       3.172
       2.554    5694.072       0.089
    9596.412
       9.653       0.110       0.100     104.358     104.082
      10.548       7.946       8.077       0.242       3.111
       2.516    5671.709       0.113
    9596.912
       9.642       0.092       0.074     105.097     106.062
      11.148       8.678      10.396       0.234       3.048
       2.540    5630.674       0.103
    9597.412
       9.620       0.077       0.041     108.426     108.141
      11.777       9.502      12.053       0.228       2.966
       2.576    5614.109       0.082
    9597.912
       9.599       0.073       0.011     108.807     107.910
      12.502      10.138      12.773       0.211       2.912
       2.599    5634.407       0.065
    9598.412
       9.562       0.070      -0.007     107.268     105.785
      13.382      10.187      12.719       0.205       2.889
       2.589    5654.728       0.071
