~Version Information
 VERS.                 2.0: 
 WRAP.                  NO: 
 END.                PETRA:GeoPLUS Corporation
~Well Information Block
#MNEM.UNIT       Data Type    Information
#---------    -------------   ---------------------------------
 STRT.F              0.0000:
 STOP.F          10696.1560:
 STEP.F              0.5000:
 NULL.              -999.25:
 COMP.                           : COMPANY
 FLD.       FLAT ROCK            : FIELD
 LOC.                            : LOCATION
 DATE.      14-OCT-2016          : DATE
 WELL.                           : Well Name
 LABL.      42461037730000                   : Well Label
 APIN.      42461037730000       : API Number
 UWI.       42461037730000       : Unique Well Number
 NUMB.      3                    : Well Number
 OPER.      OXY U S A INC        : Operator Name
 LEAS.      UNIVERSITY-AQ        : Lease Name
~Parameter Block
#MNEM.UNIT           VALUE            Description
#---------    --------------------   ---------------------------------
~Curve Information Block
#MNEM.UNIT      API CODE      Curve Description
#---------    -------------   ---------------------------------
 DEPT.F                   00 000 00 00: Depth (MD)
 ASN.OHM.M                00 001 00 00: AMPLIFIED SHORT NORMAL
 GR.GAPI                  00 002 00 00: GAMMA RAY
 LAT19.OHM.M              00 003 00 00: 
 LAT32.OHM.M              00 004 00 00: 
 SN.OHM.M                 00 005 00 00: 16-in Short Normal
 SP.MV                    00 006 00 00: Spontaneous Potential
 XGR.API                  00 007 00 00: gamma ray
~A        DEPT         ASN          GR       LAT19       LAT32          SN          SP         XGR
# ...
      7168.500      17.534       7.884      18.334      27.093     -999.25    -114.348      83.796
      7169.000      17.226       8.066      18.738      27.072     -999.25    -112.339      85.723
      7169.500      16.699       8.231      18.796      25.553     -999.25    -110.335      87.479
      7170.000      16.159       8.165      18.793      23.389     -999.25    -107.912      86.779
      7170.500      15.587       8.085      18.401      21.645     -999.25    -106.597      85.929
      7171.000      14.719       8.379      17.621      21.319     -999.25    -105.655      89.057
      7171.500      13.807       8.584      16.900      20.558     -999.25    -104.357      91.232
      7172.000      12.922       8.726      16.060      18.747     -999.25    -102.879      92.742
      7172.500      12.241       8.772      15.671      17.147     -999.25    -101.510      93.226
      7173.000      11.854       8.772      15.614      16.097     -999.25    -100.864      93.226
      7173.500      11.997       8.760      15.382      15.412     -999.25    -101.033      93.105
      7174.000      12.200       8.834      15.518      15.254     -999.25    -101.103      93.889
      7174.500      12.511       8.868      15.766      15.280     -999.25    -101.537      94.249
      7175.000      13.090       8.728      16.498      16.676     -999.25    -104.293      92.759
      7175.500      13.957       8.405      18.649      19.583     -999.25    -107.287      89.324
      7176.000      15.067       8.105      21.060      22.140     -999.25    -109.905      86.137
      7176.500      16.556       7.862      24.111      26.514     -999.25    -111.927      83.559
      7177.000      17.995       7.862      29.389      29.326     -999.25    -114.370      83.562
      7177.500      19.421       7.857      35.489      30.128     -999.25    -114.449      83.508
      7178.000      20.669       7.292      38.892      29.605     -999.25    -113.954      77.496
      7178.500      21.504       6.843      40.812      29.613     -999.25    -113.263      72.722
      7179.000      21.032       6.790      38.112      29.424     -999.25    -111.556      72.164
      7179.500      19.559       7.184      32.524      28.266     -999.25    -109.896      76.355
      7180.000      17.792       7.628      27.488      26.289     -999.25    -108.540      81.067
      7180.500      16.380       7.583      20.916      24.318     -999.25    -108.742      80.588
      7181.000      15.435       7.486      16.825      23.488     -999.25    -109.276      79.559
      7181.500      15.123       7.441      13.982      22.957     -999.25    -109.271      79.084
      7182.000      14.987       7.707      12.199      22.424     -999.25    -109.002      81.907
      7182.500      15.078       7.609      11.207      21.902     -999.25    -109.035      80.867
      7183.000      15.739       7.575      11.128      22.531     -999.25    -110.627      80.509
      7183.500      16.866       7.686      11.951      24.221     -999.25    -112.337      81.688
      7184.000      18.422       7.734      14.030      26.575     -999.25    -113.159      82.192
      7184.500      19.943       7.680      15.969      28.753     -999.25    -113.306      81.618
      7185.000      21.242       7.498      17.717      30.893     -999.25    -112.977      79.687
      7185.500      22.160       7.328      19.880      30.438     -999.25    -111.450      77.886
      7186.000      22.494       7.231      20.592      29.911     -999.25    -109.763      76.849
      7186.500      21.780       7.561      20.399      29.558     -999.25    -107.954      80.360
      7187.000      20.298       7.861      18.608      29.010     -999.25    -107.865      83.548
      7187.500      18.774       8.078      16.337      28.297     -999.25    -108.106      85.856
      7188.000      17.451       8.295      14.529      27.572     -999.25    -108.143      88.158
      7188.500      17.204       8.548      12.654      26.094     -999.25    -108.501      90.846
      7189.000      17.086       8.738      11.869      24.120     -999.25    -108.983      92.867
      7189.500      16.944       8.731      11.566      23.121     -999.25    -108.987      92.789
      7190.000      16.571       8.508      11.203      22.948     -999.25    -107.867      90.423
      7190.500      15.773       8.159      10.907      22.780     -999.25    -107.089      86.717
      7191.000      15.073       7.836      10.932      22.784     -999.25    -107.013      83.277
      7191.500      14.600       7.674      11.518      22.026     -999.25    -106.532      81.558
      7192.000      14.159       7.653      12.702      20.755     -999.25    -105.592      81.333
      7192.500      14.642       7.703      14.286      18.979     -999.25    -104.739      81.869
      7193.000      15.304       7.827      15.529      18.864     -999.25    -104.355      83.188
      7193.500      15.892       8.033      15.904      19.265     -999.25    -103.777      85.377
      7194.000      16.132       8.190      15.841      20.368     -999.25    -103.387      87.038
      7194.500      16.398       8.382      16.005      21.111     -999.25    -102.795      89.088
      7195.000      16.699       8.597      17.619      22.985     -999.25    -102.134      91.373
      7195.500      17.107       8.496      19.438      25.347     -999.25    -102.034      90.293
      7196.000      18.104       8.570      21.602      27.876     -999.25    -102.021      91.084
      7196.500      19.159       8.565      23.346      28.469     -999.25    -102.009      91.033
      7197.000      20.025       8.372      25.847      27.935     -999.25    -102.631      88.982
      7197.500      20.979       8.158      28.857      27.443     -999.25    -104.621      86.700
      7198.000      21.699       7.943      30.723      29.933     -999.25    -105.260      84.415
      7198.500      22.134       7.853      31.295      32.791     -999.25    -105.490      83.463
      7199.000      22.198       7.939      30.050      33.495     -999.25    -105.435      84.380
      7199.500      21.899       7.974      28.783      31.158     -999.25    -105.398      84.751
      7200.000      21.416       7.925      26.884      29.838     -999.25    -104.836      84.224
      7200.500      20.784       7.856      24.845      30.202     -999.25    -104.101      83.493
      7201.000      20.166       8.248      23.182      30.530     -999.25    -103.816      87.655
      7201.500      19.932       8.580      21.882      30.349     -999.25    -104.637      91.193
      7202.000      19.967       8.782      21.400      30.170     -999.25    -105.793      93.339
      7202.500      20.383       9.022      21.937      29.998     -999.25    -106.848      95.888
      7203.000      20.866       9.211      23.233      30.362     -999.25    -107.639      97.897
      7203.500      21.321       8.859      24.985      30.350     -999.25    -108.211      94.155
      7204.000      21.585       8.372      26.214      30.170     -999.25    -108.293      88.981
      7204.500      21.478       7.998      26.532      30.005     -999.25    -108.632      85.006
      7205.000      20.800       7.767      26.200      30.744     -999.25    -109.101      82.552
      7205.500      19.984       7.524      25.363      30.878     -999.25    -109.319      79.965
      7206.000      18.938       7.452      24.761      29.740     -999.25    -109.085      79.200
      7206.500      18.003       7.711      24.041      27.901     -999.25    -109.150      81.950
      7207.000      17.048       8.004      23.382      25.123     -999.25    -109.068      85.068
      7207.500      15.958       8.177      22.392      20.889     -999.25    -109.169      86.905
      7208.000      14.651       8.152      20.734      19.253     -999.25    -111.220      86.639
      7208.500      12.974       8.216      18.472      17.630     -999.25    -113.499      87.324
