~Version Information
 VERS.                 2.0: 
 WRAP.                 YES: 
 END.                PETRA:GeoPLUS Corporation
~Well Information Block
#MNEM.UNIT       Data Type    Information
#---------    -------------   ---------------------------------
 STRT.F           1066.8000:
 STOP.F           7799.8000:
 STEP.F              0.5000:
 NULL.              -999.25:
 COMP.                           : COMPANY
 FLD.       FLAT ROCK            : FIELD
 LOC.                            : LOCATION
 DATE.      14-OCT-2016          : DATE
 WELL.                           : Well Name
 LABL.      42461318260000                   : Well Label
 APIN.      42461318260000       : API Number
 UWI.       42461318260000       : Unique Well Number
 NUMB.      1                    : Well Number
 OPER.      KIMBARK OIL & GAS CO : Operator Name
 LEAS.      UNIVERSITY `31-3`    : Lease Name
~Parameter Block
#MNEM.UNIT           VALUE            Description
#---------    --------------------   ---------------------------------
 EKB.F                  2786.0 : KB Elevation
~Curve Information Block
#MNEM.UNIT      API CODE      Curve Description
#---------    -------------   ---------------------------------
 DEPT.F                   00 000 00 00: Depth (MD)
 CALI.IN                  00 001 00 00: Density Caliper
 DPHI.FRAC                00 002 00 00: Density Porosity
 DRHO.G/CM3               00 003 00 00: Density Correction
 GR.GAPI                  00 004 00 00: GAMMA RAY
 ILD.OHM.M                00 005 00 00: Induction Deep Resistivity
 NPHI.FRAC                00 006 00 00: Neutron Porosity
 PAY_TOC.                 00 007 00 00: TOC proxy
 SP.MV                    00 008 00 00: Spontaneous Potential
~A
    1066.800
      10.799      -0.075       0.032      35.731      50.591
       0.007     -999.25     -71.996
    1067.300
      10.889      -0.077       0.001      38.734      47.723
       0.023     -999.25     -74.362
    1067.800
      10.894      -0.043      -0.007      43.154      27.600
       0.025     -999.25     -84.950
    1068.300
      10.829      -0.093       0.029      20.922      40.032
       0.003     -999.25     -85.481
    1068.800
      10.846      -0.128       0.041      20.522      36.798
      -0.002     -999.25     -87.536
    1069.300
      10.886       0.033       0.011      51.582       7.415
       0.100     -999.25     -88.949
    1069.800
      10.955       0.045      -0.003      49.790       5.729
       0.090     -999.25     -82.538
    1070.300
      10.993       0.067      -0.008      56.825       5.292
       0.133     -999.25     -70.226
    1070.800
      11.092       0.086      -0.002      52.101       5.154
       0.137     -999.25     -62.555
    1071.300
      11.142       0.073       0.009      55.790       4.745
       0.102     -999.25     -58.675
    1071.800
      11.085      -0.007      -0.003      53.918       6.437
       0.071     -999.25     -55.672
    1072.300
      10.889      -0.093      -0.004      32.954      12.917
       0.004     -999.25     -57.725
    1072.800
      10.647      -0.122       0.015      17.436      50.090
      -0.003     -999.25     -61.405
    1073.300
      10.477      -0.145       0.039       9.165     122.263
      -0.009     -999.25     -64.671
    1073.800
      10.370      -0.150       0.013      10.879     141.648
       0.011     -999.25     -65.563
    1074.300
      10.290      -0.106      -0.006      23.258     149.392
       0.004     -999.25     -67.552
    1074.800
      10.291      -0.111      -0.007      25.522      84.111
       0.037     -999.25     -66.189
    1075.300
      10.313      -0.081       0.015      35.194      58.869
       0.048     -999.25     -62.908
    1075.800
      10.324      -0.096       0.055      33.592      42.784
       0.021     -999.25     -60.558
    1076.300
      10.280      -0.118      -0.015      27.869      34.743
       0.025     -999.25     -59.025
    1076.800
      10.267      -0.081      -0.017      33.099      31.791
       0.023     -999.25     -58.694
    1077.300
      10.229      -0.156      -0.013      16.357      42.679
      -0.006     -999.25     -60.572
    1077.800
      10.186      -0.162       0.006       9.159     114.935
      -0.010     -999.25     -65.274
    1078.300
      10.151      -0.153       0.022       6.786     167.291
      -0.010     -999.25     -69.605
    1078.800
      10.150      -0.119       0.053      28.625     202.567
       0.019     -999.25     -72.480
    1079.300
      10.187      -0.048       0.010      59.963     107.486
       0.074     -999.25     -74.842
    1079.800
      10.186      -0.028       0.009      51.496      77.827
       0.098     -999.25     -76.866
    1080.300
      10.186      -0.028       0.004      37.487      67.170
       0.082     -999.25     -78.909
    1080.800
      10.149      -0.022      -0.005      46.524      57.798
       0.109     -999.25     -80.677
    1081.300
      10.127      -0.035       0.002      40.952      85.776
       0.073     -999.25     -82.201
    1081.800
      10.126      -0.052       0.013      16.568     140.495
       0.096     -999.25     -83.488
    1082.300
      10.140      -0.041       0.024      11.923     170.824
       0.111     -999.25     -84.653
    1082.800
      10.180       0.029       0.014      17.508     126.234
       0.176     -999.25     -86.058
    1083.300
      10.232       0.043       0.004      27.495      52.524
       0.203     -999.25     -87.701
    1083.800
      10.291       0.026       0.021      28.710      41.736
       0.222     -999.25     -89.745
    1084.300
      10.327       0.024       0.003      31.945      41.070
       0.204     -999.25     -93.868
    1084.800
      10.346       0.035       0.042      25.922      46.948
       0.218     -999.25     -98.744
    1085.300
      10.352       0.016       0.059      27.630      42.863
       0.194     -999.25    -100.464
    1085.800
      10.363       0.073       0.065      35.091      27.418
       0.178     -999.25    -100.968
    1086.300
      10.411       0.172       0.013      59.380      10.905
       0.185     -999.25    -100.045
    1086.800
      10.518       0.188       0.022      65.445       6.095
       0.199     -999.25     -98.981
    1087.300
      10.665       0.178       0.005      52.666       5.095
       0.218     -999.25     -99.238
    1087.800
      10.807       0.124       0.021      43.827       5.933
       0.198     -999.25    -100.861
    1088.300
      10.952       0.123       0.045      43.999       6.671
       0.188     -999.25    -102.381
    1088.800
      11.077       0.170       0.049      51.050       6.235
       0.220     -999.25    -102.929
    1089.300
      11.140       0.201       0.047      51.960       5.045
       0.224     -999.25    -102.318
    1089.800
      11.163       0.190       0.066      52.545       4.501
       0.198     -999.25    -100.125
    1090.300
      11.196       0.177       0.023      50.994       4.023
       0.200     -999.25     -96.966
    1090.800
      11.274       0.189       0.014      45.408       3.950
       0.179     -999.25     -96.366
    1091.300
      11.386       0.186       0.014      41.885       4.051
       0.197     -999.25     -98.069
    1091.800
      11.519       0.194       0.011      50.397       4.356
       0.202     -999.25    -100.394
    1092.300
      11.622       0.198       0.009      61.161       5.347
       0.212     -999.25    -101.825
    1092.800
      11.709       0.134       0.022      65.640       6.852
       0.218     -999.25     -98.376
    1093.300
      11.740       0.120       0.026      62.409       8.225
       0.223     -999.25     -94.167
    1093.800
      11.716       0.121       0.025      79.245       8.340
       0.190     -999.25     -92.493
    1094.300
      11.633       0.175       0.016      74.343       6.584
       0.232     -999.25     -95.151
    1094.800
      11.539       0.140       0.025      64.405       6.509
       0.214     -999.25     -99.104
    1095.300
      11.435       0.161       0.001      48.268       7.823
       0.192     -999.25    -100.989
    1095.800
      11.330       0.160       0.000      59.334       8.774
       0.175     -999.25    -100.991
    1096.300
      11.291       0.140       0.020      74.027       8.789
       0.190     -999.25    -100.076
    1096.800
      11.247       0.158       0.028      62.482       7.411
       0.192     -999.25     -98.033
    1097.300
      11.223       0.162       0.031      61.729       6.437
       0.200     -999.25     -96.290
    1097.800
      11.175       0.157       0.018      55.139       5.999
       0.198     -999.25     -94.115
    1098.300
      11.110       0.186       0.034      55.968       5.797
       0.211     -999.25     -91.443
    1098.800
      10.936       0.164       0.047      55.265       5.717
       0.205     -999.25     -89.502
    1099.300
      10.782       0.199       0.045      57.533       5.719
       0.218     -999.25     -87.547
    1099.800
      10.764       0.175       0.009      57.269       5.814
       0.218     -999.25     -87.557
    1100.300
      10.700       0.096       0.021      66.358       6.579
       0.225     -999.25     -91.230
    1100.800
      10.093       0.069       0.040      28.824      10.742
       0.248     -999.25     -95.933
    1101.300
       9.955       0.130       0.051      20.636      14.701
       0.221     -999.25     -99.303
    1101.800
       9.939       0.156       0.044      25.279      16.205
       0.224     -999.25    -101.012
    1102.300
       9.956       0.171       0.027      49.764       9.189
       0.220     -999.25    -100.661
    1102.800
      10.028       0.130       0.046      52.970       7.571
       0.268     -999.25     -97.675
