~Version Information
 VERS.                 2.0: 
 WRAP.                  NO: 
 END.                PETRA:GeoPLUS Corporation
~Well Information Block
#MNEM.UNIT       Data Type    Information
#---------    -------------   ---------------------------------
 STRT.F           1828.6476:
 STOP.F           8230.1476:
 STEP.F              0.5000:
 NULL.              -999.25:
 COMP.                           : COMPANY
 FLD.       SPRABERRY            : FIELD
 LOC.                            : LOCATION
 DATE.      14-OCT-2016          : DATE
 WELL.                           : Well Name
 LABL.      42461324180000                   : Well Label
 APIN.      42461324180000       : API Number
 UWI.       42461324180000       : Unique Well Number
 NUMB.      3                    : Well Number
 OPER.      PIONEER NAT RES USA  : Operator Name
 LEAS.      UNIVERSITY `8`       : Lease Name
~Parameter Block
#MNEM.UNIT           VALUE            Description
#---------    --------------------   ---------------------------------
 EKB.F                  2684.0 : KB Elevation
~Curve Information Block
#MNEM.UNIT      API CODE      Curve Description
#---------    -------------   ---------------------------------
 DEPT.F                   00 000 00 00: Depth (MD)
 CALI.IN                  00 001 00 00: Density Caliper
 DPHI.FRAC                00 002 00 00: Density Porosity
 DRHO.G/CM3               00 003 00 00: Density Correction
 GR.GAPI                  00 004 00 00: GAMMA RAY
 LGRD.OHM.M               00 005 00 00: Long Guard Resistivity
 NPHI.FRAC                00 006 00 00: Neutron Porosity
~A        DEPT        CALI        DPHI        DRHO          GR        LGRD        NPHI
# ...
      6060.648       8.891       0.129       0.028      94.043     249.218       0.208
      6061.148       8.891       0.118       0.029      84.549     211.065       0.210
      6061.648       8.875       0.110       0.029      91.051     159.761       0.212
      6062.148       8.875       0.109       0.031      96.900     136.264       0.213
      6062.648       8.875       0.106       0.035     102.547     142.793       0.213
      6063.148       8.875       0.102       0.036     105.961      35.544       0.215
      6063.648       8.852       0.092       0.036     105.315      30.837       0.215
      6064.148       8.841       0.085       0.036      95.450      27.471       0.214
      6064.648       8.842       0.097       0.035      95.945      25.422       0.214
      6065.148       8.842       0.105       0.028     107.046      28.381       0.218
      6065.648       8.852       0.124       0.021     111.008      31.385       0.221
      6066.148       8.860       0.139       0.016     116.590      36.896       0.224
      6066.648       8.860       0.145       0.010     142.945      41.636       0.228
      6067.148       8.865       0.150       0.008     149.446      52.779       0.232
      6067.648       8.905       0.150       0.008     151.967      61.772       0.236
      6068.148       8.933       0.146       0.012     154.453      66.069       0.239
      6068.648       8.932       0.142       0.017     156.939      37.665       0.237
      6069.148       8.899       0.143       0.021     159.424      30.903       0.235
      6069.648       8.831       0.143       0.027     162.334      25.993       0.233
      6070.148       8.790       0.138       0.032     171.715      24.549       0.230
      6070.648       8.778       0.134       0.035     193.820      24.023       0.228
      6071.148       8.709       0.134       0.037     188.429      24.959       0.228
      6071.648       8.707       0.133       0.032     160.239      34.095       0.227
      6072.148       8.720       0.135       0.025     140.162      43.134       0.227
      6072.648       8.773       0.137       0.019     162.431      63.979       0.226
      6073.148       8.835       0.139       0.016     193.969      83.620       0.226
      6073.648       8.847       0.139       0.015     207.774      84.049       0.225
      6074.148       8.847       0.136       0.015     192.729      61.932       0.225
      6074.648       8.847       0.131       0.018     164.777      42.712       0.226
      6075.148       8.781       0.127       0.021     130.220      40.276       0.226
      6075.648       8.713       0.119       0.026     125.857      44.450       0.226
      6076.148       8.709       0.111       0.029     143.932      46.562       0.227
      6076.648       8.718       0.104       0.030     152.622      48.978       0.228
      6077.148       8.778       0.117       0.030     159.198      52.360       0.229
      6077.648       8.783       0.131       0.029     173.383      56.969       0.231
      6078.148       8.813       0.141       0.027     185.217      61.554       0.233
      6078.648       8.832       0.150       0.024     183.346      67.850       0.235
      6079.148       8.834       0.152       0.019     177.776      85.737       0.237
      6079.648       8.806       0.150       0.014     177.259      89.416       0.242
      6080.148       8.783       0.148       0.010     184.043      68.570       0.253
      6080.648       8.770       0.147       0.008     190.801      59.992       0.255
      6081.148       8.733       0.149       0.008     195.686      57.115       0.250
      6081.648       8.714       0.154       0.008     199.197      53.681       0.244
      6082.148       8.713       0.154       0.008     195.616      47.625       0.236
      6082.648       8.722       0.148       0.008     188.434      43.767       0.230
      6083.148       8.731       0.137       0.009     174.288      39.927       0.222
      6083.648       8.757       0.126       0.012     127.092      37.991       0.217
      6084.148       8.782       0.120       0.014     120.591      51.293       0.214
      6084.648       8.783       0.120       0.017     110.333      58.356       0.212
      6085.148       8.835       0.118       0.020     105.357      45.822       0.211
      6085.648       8.848       0.115       0.025     117.945      29.616       0.217
      6086.148       8.857       0.113       0.028     132.787      32.964       0.220
      6086.648       8.888       0.119       0.029     138.408      36.397       0.224
      6087.148       8.887       0.120       0.029     143.491      18.272       0.227
      6087.648       8.857       0.120       0.028     136.679      20.090       0.231
      6088.148       8.842       0.122       0.024     133.425      24.666       0.234
      6088.648       8.788       0.129       0.018     136.459      31.604       0.237
      6089.148       8.828       0.136       0.013     145.213      38.599       0.238
      6089.648       8.920       0.141       0.010     156.531      43.337       0.238
      6090.148       8.992       0.144       0.005     181.699      46.585       0.235
      6090.648       8.998       0.140       0.005     197.359      36.659       0.231
      6091.148       8.957       0.134       0.008     198.688      24.314       0.229
      6091.648       8.930       0.131       0.012     189.565      27.282       0.228
      6092.148       8.887       0.129       0.019     172.083      33.300       0.227
      6092.648       8.843       0.129       0.025     159.857      36.783       0.231
      6093.148       8.800       0.128       0.029     157.580      39.880       0.237
      6093.648       8.790       0.125       0.033     162.986      42.267       0.240
      6094.148       8.790       0.121       0.036     166.682      43.487       0.242
      6094.648       8.790       0.124       0.039     166.027      26.637       0.243
      6095.148       8.791       0.129       0.038     164.978      24.118       0.243
      6095.648       8.791       0.137       0.030     168.388      33.193       0.241
      6096.148       8.791       0.144       0.023     170.374      43.246       0.238
      6096.648       8.769       0.149       0.017     167.538      49.683       0.229
      6097.148       8.710       0.147       0.014     158.209      58.534       0.214
      6097.648       8.642       0.136       0.019     146.228      68.090       0.169
      6098.148       8.587       0.123       0.021     122.851     104.413       0.114
      6098.648       8.586       0.113       0.021      99.405     236.664       0.094
      6099.148       8.569       0.074       0.021      75.923     288.657       0.085
      6099.648       8.568       0.039       0.019      25.826     429.876       0.086
      6100.148       8.586       0.012       0.011      17.401     587.133       0.089
      6100.648       8.586      -0.005       0.007      15.712     805.792       0.094
      6101.148       8.587       0.012       0.007      22.317     896.748       0.099
      6101.648       8.628       0.024       0.007      35.432     869.916       0.110
      6102.148       8.655       0.091       0.007      71.383     779.311       0.136
      6102.648       8.665       0.145       0.009      92.906     454.497       0.159
      6103.148       8.708       0.154       0.014     107.971      45.230       0.183
      6103.648       8.746       0.157       0.019     121.540      35.956       0.205
      6104.148       8.796       0.157       0.024     131.925      34.020       0.230
      6104.648       8.835       0.153       0.027     130.576      28.480       0.240
      6105.148       8.865       0.149       0.031     127.904      22.585       0.241
      6105.648       8.867       0.146       0.033     124.076      23.818       0.240
      6106.148       8.849       0.143       0.025     124.055      29.433       0.242
