~Version Information
 VERS.                 2.0: 
 WRAP.                  NO: 
 END.                PETRA:GeoPLUS Corporation
~Well Information Block
#MNEM.UNIT       Data Type    Information
#---------    -------------   ---------------------------------
 STRT.F              0.0000:
 STOP.F          10696.1560:
 STEP.F              0.5000:
 NULL.              -999.25:
 COMP.                           : COMPANY
 FLD.       FLAT ROCK            : FIELD
 LOC.                            : LOCATION
 DATE.      14-OCT-2016          : DATE
 WELL.                           : Well Name
 LABL.      42461037730000                   : Well Label
 APIN.      42461037730000       : API Number
 UWI.       42461037730000       : Unique Well Number
 NUMB.      3                    : Well Number
 OPER.      OXY U S A INC        : Operator Name
 LEAS.      UNIVERSITY-AQ        : Lease Name
~Parameter Block
#MNEM.UNIT           VALUE            Description
#---------    --------------------   ---------------------------------
~Curve Information Block
#MNEM.UNIT      API CODE      Curve Description
#---------    -------------   ---------------------------------
 DEPT.F                   00 000 00 00: Depth (MD)
 ASN.OHM.M                00 001 00 00: AMPLIFIED SHORT NORMAL
 GR.GAPI                  00 002 00 00: GAMMA RAY
 LAT19.OHM.M              00 003 00 00: 
 LAT32.OHM.M              00 004 00 00: 
 SN.OHM.M                 00 005 00 00: 16-in Short Normal
 SP.MV                    00 006 00 00: Spontaneous Potential
 XGR.API                  00 007 00 00: gamma ray
~A        DEPT         ASN          GR       LAT19       LAT32          SN          SP         XGR
# ...
      8545.500     112.222       5.522     577.284      96.740     -999.25     -76.626      58.683
      8546.000     110.910       5.681     559.325      95.845     -999.25     -76.626      60.375
      8546.500     109.985       5.978     560.552      94.948     -999.25     -76.507      63.531
      8547.000     108.948       6.448     566.444      93.690     -999.25     -76.067      68.527
      8547.500     107.549       6.797     566.469      92.799     -999.25     -75.703      72.234
      8548.000     106.252       7.142     572.452      91.737     -999.25     -75.663      75.901
      8548.500     105.333       7.716     572.432      92.216     -999.25     -75.663      82.003
      8549.000     104.236       8.113     579.003      93.492     -999.25     -75.729      86.228
      8549.500     103.062       8.114     591.048      94.553     -999.25     -76.370      86.237
      8550.000     102.072       8.011     603.096      92.694     -999.25     -77.127      85.137
      8550.500     101.006       7.898     615.144      89.254     -999.25     -77.646      83.938
      8551.000      99.860       7.786     627.192      85.788     -999.25     -78.116      82.745
      8551.500      99.691       7.673     638.482      84.491     -999.25     -78.586      81.554
      8552.000      99.691       7.565     568.395      84.338     -999.25     -78.771      80.396
      8552.500      99.953       7.728     496.788      84.517     -999.25     -78.924      82.129
      8553.000      99.801       7.984     468.952      84.504     -999.25     -78.657      84.857
      8553.500      99.492       8.180     452.652      84.145     -999.25     -78.318      86.936
      8554.000      99.183       8.384     435.786      84.334     -999.25     -77.710      89.104
      8554.500      99.194       8.575     418.919      84.320     -999.25     -77.446      91.137
      8555.000      99.821       8.767     402.111      83.955     -999.25     -77.792      93.172
      8555.500     100.190       9.019     395.288      83.968     -999.25     -77.073      95.856
      8556.000     100.484       9.089     399.101      84.168     -999.25     -76.098      96.598
      8556.500     100.822       8.924     404.548      84.716     -999.25     -75.241      94.847
      8557.000     100.882       8.694     410.617      85.082     -999.25     -74.669      92.402
      8557.500     100.882       8.473     417.726      85.445     -999.25     -74.329      90.056
      8558.000     101.050       8.242     414.598      85.614     -999.25     -74.233      87.593
      8558.500     101.411       8.008     406.178      85.613     -999.25     -74.382      85.106
      8559.000     101.471       7.743     398.339      85.810     -999.25     -74.807      82.290
      8559.500     101.471       7.469     389.887      86.391     -999.25     -74.943      79.382
      8560.000     101.471       7.205     384.311      87.670     -999.25     -75.108      76.579
      8560.500     101.471       7.017     387.570      88.388     -999.25     -75.174      74.581
      8561.000     101.291       6.829     392.585      88.928     -999.25     -75.359      72.576
      8561.500     101.203       6.629     401.690      89.288     -999.25     -75.422      70.452
      8562.000     100.793       6.357     409.833      89.435     -999.25     -75.422      67.563
      8562.500     100.376       6.256     426.894      88.500     -999.25     -75.117      66.491
      8563.000     100.319       6.446     444.342      87.967     -999.25     -74.784      68.512
      8563.500      99.900       6.807     459.844      87.601     -999.25     -74.543      72.344
      8564.000      99.505       7.065     471.657      87.237     -999.25     -74.265      75.089
      8564.500      98.954       6.921     480.561      87.067     -999.25     -74.217      73.551
      8565.000      98.566       6.876     487.767      87.302     -999.25     -74.217      73.083
      8565.500      98.211       6.948     493.425      88.412     -999.25     -74.093      73.841
      8566.000      98.148       7.047     488.347      89.299     -999.25     -73.645      74.897
      8566.500      98.148       7.146     485.377      89.848     -999.25     -73.461      75.943
      8567.000      97.928       7.138     483.097      90.396     -999.25     -73.603      75.867
      8567.500      97.840       6.925     488.183      91.296     -999.25     -74.369      73.603
      8568.000      97.840       6.659     488.995      91.838     -999.25     -75.057      70.775
      8568.500      97.619       6.523     481.652      92.359     -999.25     -75.336      69.322
      8569.000      97.531       6.444     479.042      91.191     -999.25     -75.577      68.488
      8569.500      97.531       6.449     483.455      89.923     -999.25     -75.545      68.537
      8570.000      97.531       6.539     489.434      89.323     -999.25     -75.266      69.498
      8570.500      97.310       6.619     490.838      90.232     -999.25     -74.853      70.342
      8571.000      97.222       6.627     485.713      91.138     -999.25     -74.543      70.437
      8571.500      97.222       6.690     477.856      92.193     -999.25     -74.302      71.098
      8572.000      97.002       6.811     469.326      89.443     -999.25     -74.061      72.385
      8572.500      96.914       6.970     458.383      90.685     -999.25     -73.856      74.082
      8573.000      96.914       7.149     446.938      93.557     -999.25     -73.424      75.980
      8573.500      96.914       7.328     435.500      94.502     -999.25     -72.942      77.877
      8574.000      96.914       7.506     424.732      93.778     -999.25     -72.157      79.776
      8574.500      96.392       7.689     421.997      93.582     -999.25     -71.400      81.721
      8575.000      95.389       7.873     427.418      92.842     -999.25     -71.484      83.679
      8575.500      94.464       8.124     432.768      91.942     -999.25     -71.555      86.346
      8576.000      93.409       7.926     432.374      91.229     -999.25     -71.730      84.236
      8576.500      91.753       7.941     429.322      90.697     -999.25     -71.801      84.395
      8577.000      89.577       8.072     425.674      90.346     -999.25     -71.969      85.792
      8577.500      87.892       8.133     424.340      90.168     -999.25     -72.023      86.440
      8578.000      86.349       8.246     428.554      89.787     -999.25     -72.204      87.641
      8578.500      84.105       8.398     432.771      88.427     -999.25     -72.482      89.258
      8579.000      81.230       8.385     436.822      84.891     -999.25     -72.530      89.117
      8579.500      78.056       8.142     429.547      73.114     -999.25     -72.530      86.530
      8580.000      74.869       7.888     415.092      67.992     -999.25     -72.666      83.829
      8580.500      71.849       7.633     387.301      62.696     -999.25     -72.927      81.123
      8581.000      68.837       7.374     352.470      57.266     -999.25     -72.996      78.375
      8581.500      65.825       7.278     324.462      50.780     -999.25     -73.168      77.352
      8582.000      63.378       7.169     291.609      48.182     -999.25     -73.409      76.188
      8582.500      62.736       6.927     269.021      49.534     -999.25     -73.650      73.623
      8583.000      63.794       6.439     218.185      51.703     -999.25     -73.891      68.436
      8583.500      65.942       5.957     227.865      55.988     -999.25     -73.961      63.313
      8584.000      70.007       5.465     241.118      60.524     -999.25     -74.132      58.081
      8584.500      74.821       4.962     254.681      71.086     -999.25     -74.373      52.737
      8585.000      79.959       4.444     292.082      78.171     -999.25     -74.614      47.227
      8585.500      83.675       3.932     332.456      91.099     -999.25     -74.711      41.787
