~Version Information
 VERS.                 2.0: 
 WRAP.                 YES: 
 END.                PETRA:GeoPLUS Corporation
~Well Information Block
#MNEM.UNIT       Data Type    Information
#---------    -------------   ---------------------------------
 STRT.F           1066.8000:
 STOP.F           7799.8000:
 STEP.F              0.5000:
 NULL.              -999.25:
 COMP.                           : COMPANY
 FLD.       FLAT ROCK            : FIELD
 LOC.                            : LOCATION
 DATE.      14-OCT-2016          : DATE
 WELL.                           : Well Name
 LABL.      42461318260000                   : Well Label
 APIN.      42461318260000       : API Number
 UWI.       42461318260000       : Unique Well Number
 NUMB.      1                    : Well Number
 OPER.      KIMBARK OIL & GAS CO : Operator Name
 LEAS.      UNIVERSITY `31-3`    : Lease Name
~Parameter Block
#MNEM.UNIT           VALUE            Description
#---------    --------------------   ---------------------------------
 EKB.F                  2786.0 : KB Elevation
~Curve Information Block
#MNEM.UNIT      API CODE      Curve Description
#---------    -------------   ---------------------------------
 DEPT.F                   00 000 00 00: Depth (MD)
 CALI.IN                  00 001 00 00: Density Caliper
 DPHI.FRAC                00 002 00 00: Density Porosity
 DRHO.G/CM3               00 003 00 00: Density Correction
 GR.GAPI                  00 004 00 00: GAMMA RAY
 ILD.OHM.M                00 005 00 00: Induction Deep Resistivity
 NPHI.FRAC                00 006 00 00: Neutron Porosity
 PAY_TOC.                 00 007 00 00: TOC proxy
 SP.MV                    00 008 00 00: Spontaneous Potential
~A
# ...
    4169.300
      10.086       0.220       0.040      85.316       1.469
       0.248       0.000    -125.115
    4169.800
      10.115       0.219       0.037      86.785       1.489
       0.238       0.000    -123.719
    4170.300
      10.154       0.217       0.037      88.684       1.523
       0.227       0.000    -122.215
    4170.800
      10.209       0.214       0.037      90.783       1.558
       0.218       0.000    -120.027
    4171.300
      10.262       0.207       0.037      93.122       1.591
       0.210       0.000    -117.531
    4171.800
      10.286       0.200       0.038      96.613       1.629
       0.216       0.000    -114.038
    4172.300
      10.318       0.195       0.039      99.449       1.675
       0.226       0.000    -110.542
    4172.800
      10.318       0.200       0.037     100.965       1.719
       0.231       0.000    -106.416
    4173.300
      10.337       0.210       0.035     102.149       1.779
       0.231       0.000    -102.248
    4173.800
      10.347       0.205       0.033     103.437       1.848
       0.213       0.000     -98.085
    4174.300
      10.318       0.173       0.033     105.045       1.944
       0.203       0.000     -94.122
    4174.800
      10.308       0.147       0.035     106.390       2.088
       0.189       0.000     -90.538
    4175.300
      10.279       0.130       0.038      97.777       2.215
       0.181       0.000     -86.840
    4175.800
      10.249       0.116       0.039      81.263       2.466
       0.176       0.000     -84.080
    4176.300
      10.220       0.111       0.029      75.695       2.810
       0.172       0.000     -80.644
    4176.800
      10.150       0.106       0.013      71.296       3.234
       0.168       0.000     -78.096
    4177.300
      10.072       0.103       0.003      68.796       3.622
       0.168       0.000     -76.289
    4177.800
       9.910       0.099      -0.002      71.825       4.151
       0.174       0.000     -74.163
    4178.300
       9.716       0.095      -0.002      74.860       5.851
       0.172       0.000     -72.325
    4178.800
       9.532       0.090       0.000      76.379      10.867
       0.167       0.000     -71.441
    4179.300
       9.408       0.084       0.006      74.481      13.634
       0.158       0.000     -70.711
    4179.800
       9.320       0.072       0.012      67.138      15.503
       0.147       0.000     -69.993
    4180.300
       9.242       0.061       0.019      60.601      19.122
       0.125       0.000     -69.601
    4180.800
       9.184       0.056       0.021      57.314      22.467
       0.113       0.000     -69.226
    4181.300
       9.155       0.051       0.015      55.602      25.730
       0.099       0.000     -69.152
    4181.800
       9.125       0.054       0.008      54.460      27.631
       0.090       0.000     -69.529
    4182.300
       9.072       0.057       0.003      53.850      29.816
       0.084       0.000     -69.708
    4182.800
       9.071       0.057      -0.001      52.735      31.543
       0.082       0.000     -70.638
    4183.300
       9.052       0.058      -0.003      51.594      33.020
       0.082       0.000     -71.481
    4183.800
       9.051       0.059      -0.002      54.096      34.615
       0.082       0.000     -72.616
    4184.300
       9.051       0.059      -0.001      59.924      35.382
       0.079       0.000     -74.413
    4184.800
       9.050       0.057       0.000      63.209      36.531
       0.076       0.000     -75.484
    4185.300
       9.050       0.054       0.003      64.444      37.261
       0.072       0.000     -76.087
    4185.800
       9.050       0.050       0.006      65.095      37.305
       0.065       0.000     -76.504
    4186.300
       9.068       0.047       0.010      57.202      37.024
       0.063       0.000     -76.587
    4186.800
       9.068       0.042       0.013      51.607      36.173
       0.062       0.000     -76.221
    4187.300
       9.071       0.038       0.019      50.651      33.658
       0.062       0.000     -75.843
    4187.800
       9.103       0.035       0.022      59.464      30.337
       0.075       0.000     -75.794
    4188.300
       9.113       0.035       0.026      65.281      27.191
       0.085       0.000     -75.836
    4188.800
       9.141       0.034       0.025      66.596      25.296
       0.092       0.000     -76.367
    4189.300
       9.143       0.034       0.018      64.093      24.483
       0.095       0.000     -77.059
    4189.800
       9.165       0.035       0.011      62.053      24.295
       0.100       0.000     -79.005
    4190.300
       9.186       0.040       0.004      69.583      24.388
       0.111       0.000     -81.142
    4190.800
       9.214       0.053      -0.001      75.525      24.936
       0.117       0.000     -84.233
    4191.300
       9.243       0.066      -0.003      82.710      26.015
       0.123       0.000     -87.671
    4191.800
       9.256       0.067      -0.003      87.018      27.562
       0.124       0.000     -91.828
    4192.300
       9.288       0.056      -0.002      81.416      29.703
       0.107       0.000     -95.696
    4192.800
       9.309       0.046       0.002      63.579      30.601
       0.086       0.000     -98.340
    4193.300
       9.327       0.039       0.006      51.093      30.590
       0.068       0.000    -100.753
    4193.800
       9.362       0.040       0.012      48.326      30.142
       0.058       0.000    -102.372
    4194.300
       9.392       0.043       0.017      46.147      29.416
       0.053       0.000    -102.723
    4194.800
       9.425       0.042       0.023      43.489      27.988
       0.049       0.000    -103.119
    4195.300
       9.455       0.041       0.029      40.407      26.069
       0.047       0.000    -102.857
    4195.800
       9.473       0.040       0.034      35.862      22.847
       0.046       0.000    -102.213
    4196.300
       9.493       0.063       0.037      39.651      16.026
       0.059       0.000    -101.053
    4196.800
       9.510       0.094       0.042      50.696       9.304
       0.109       0.000     -99.560
    4197.300
       9.532       0.115       0.045      58.764       7.490
       0.124       0.000     -97.586
    4197.800
       9.547       0.120       0.048      66.247       6.999
       0.173       0.000     -96.024
    4198.300
       9.584       0.125       0.048      67.364       5.982
       0.159       0.000     -94.458
    4198.800
       9.621       0.129       0.048      60.268       4.705
       0.150       0.000     -92.987
    4199.300
       9.646       0.131       0.046      55.082       3.814
       0.142       0.000     -92.410
    4199.800
       9.695       0.129       0.038      52.588       3.543
       0.138       0.000     -92.117
    4200.300
       9.732       0.124       0.030      54.004       3.347
       0.139       0.000     -92.201
    4200.800
       9.770       0.120       0.024      55.986       3.209
       0.149       0.000     -92.767
    4201.300
       9.799       0.120       0.025      57.372       3.104
       0.160       0.000     -93.951
    4201.800
       9.827       0.124       0.032      57.761       3.037
       0.168       0.000     -96.080
    4202.300
       9.856       0.130       0.037      57.530       2.969
       0.166       0.000     -98.429
    4202.800
       9.864       0.139       0.038      56.812       2.919
       0.164       0.000    -101.227
    4203.300
       9.863       0.145       0.038      55.620       2.861
       0.167       0.000    -103.968
    4203.800
       9.863       0.151       0.037      54.680       2.817
       0.172       0.000    -106.388
    4204.300
       9.863       0.157       0.035      54.588       2.757
       0.178       0.000    -109.532
    4204.800
       9.862       0.160       0.034      54.843       2.717
       0.184       0.000    -111.262
    4205.300
       9.862       0.161       0.037      55.688       2.681
       0.190       0.000    -113.058
