~Version Information
 VERS.                 2.0: 
 WRAP.                 YES: 
 END.                PETRA:GeoPLUS Corporation
~Well Information Block
#MNEM.UNIT       Data Type    Information
#---------    -------------   ---------------------------------
 STRT.F           1066.8000:
 STOP.F           7799.8000:
 STEP.F              0.5000:
 NULL.              -999.25:
 COMP.                           : COMPANY
 FLD.       FLAT ROCK            : FIELD
 LOC.                            : LOCATION
 DATE.      14-OCT-2016          : DATE
 WELL.                           : Well Name
 LABL.      42461318260000                   : Well Label
 APIN.      42461318260000       : API Number
 UWI.       42461318260000       : Unique Well Number
 NUMB.      1                    : Well Number
 OPER.      KIMBARK OIL & GAS CO : Operator Name
 LEAS.      UNIVERSITY `31-3`    : Lease Name
~Parameter Block
#MNEM.UNIT           VALUE            Description
#---------    --------------------   ---------------------------------
 EKB.F                  2786.0 : KB Elevation
~Curve Information Block
#MNEM.UNIT      API CODE      Curve Description
#---------    -------------   ---------------------------------
 DEPT.F                   00 000 00 00: Depth (MD)
 CALI.IN                  00 001 00 00: Density Caliper
 DPHI.FRAC                00 002 00 00: Density Porosity
 DRHO.G/CM3               00 003 00 00: Density Correction
 GR.GAPI                  00 004 00 00: GAMMA RAY
 ILD.OHM.M                00 005 00 00: Induction Deep Resistivity
 NPHI.FRAC                00 006 00 00: Neutron Porosity
 PAY_TOC.                 00 007 00 00: TOC proxy
 SP.MV                    00 008 00 00: Spontaneous Potential
~A
# ...
    1504.800
       9.702       0.102       0.013      84.933       8.732
       0.208     -999.25     -83.354
    1505.300
       9.742       0.096       0.035      96.027       9.060
       0.217     -999.25     -81.894
    1505.800
       9.798       0.119       0.036     100.789       8.958
       0.219     -999.25     -80.494
    1506.300
       9.832       0.117       0.007      88.013       7.840
       0.192     -999.25     -81.322
    1506.800
       9.833       0.134       0.015      87.158       6.725
       0.191     -999.25     -82.405
    1507.300
       9.840       0.123       0.013      81.723       6.414
       0.179     -999.25     -82.455
    1507.800
       9.851       0.124       0.002      83.472       6.593
       0.179     -999.25     -82.243
    1508.300
       9.889       0.116       0.002      88.266       7.454
       0.236     -999.25     -81.022
    1508.800
       9.932       0.124       0.001      99.260       8.931
       0.285     -999.25     -80.683
    1509.300
       9.978       0.135       0.017     110.982       9.788
       0.259     -999.25     -80.915
    1509.800
      10.001       0.111       0.030     105.862      10.013
       0.220     -999.25     -82.251
    1510.300
      10.001       0.108       0.037     114.499       8.824
       0.240     -999.25     -83.564
    1510.800
      10.001       0.104       0.003     107.603       8.617
       0.246     -999.25     -83.954
    1511.300
      10.001       0.108       0.013      85.231       7.612
       0.200     -999.25     -83.616
    1511.800
      10.019       0.106       0.018      84.552       6.298
       0.185     -999.25     -83.291
    1512.300
      10.042       0.110       0.011      81.476       6.046
       0.186     -999.25     -82.531
    1512.800
      10.105       0.100       0.006      81.006       6.116
       0.187     -999.25     -82.229
    1513.300
      10.119       0.105       0.014      85.750       6.497
       0.219     -999.25     -82.279
    1513.800
      10.111       0.074       0.018      88.156       7.074
       0.210     -999.25     -82.902
    1514.300
       9.825       0.057       0.015      69.054       7.278
       0.161     -999.25     -84.003
    1514.800
       9.831       0.109       0.005      72.145       6.596
       0.188     -999.25     -84.730
    1515.300
       9.830       0.107       0.005      89.140       5.916
       0.200     -999.25     -84.784
    1515.800
       9.849       0.112       0.012      87.042       5.858
       0.195     -999.25     -83.663
    1516.300
       9.857       0.111       0.009      91.226       6.274
       0.198     -999.25     -82.096
    1516.800
       9.884       0.126      -0.007      97.652       6.961
       0.231     -999.25     -80.648
    1517.300
       9.905       0.115       0.001      90.840       7.481
       0.250     -999.25     -78.416
    1517.800
       9.881       0.109       0.013      90.891       7.462
       0.254     -999.25     -76.964
    1518.300
       9.792       0.097       0.019      85.686       6.940
       0.223     -999.25     -77.302
    1518.800
       9.719       0.102       0.018      82.015       6.361
       0.207     -999.25     -79.548
    1519.300
       9.676       0.095       0.015      88.893       6.523
       0.263     -999.25     -80.128
    1519.800
       9.660       0.118       0.022      95.154       7.268
       0.251     -999.25     -78.819
    1520.300
       9.660       0.114       0.032      95.075       8.109
       0.270     -999.25     -78.362
    1520.800
       9.678       0.117       0.047      99.027       8.920
       0.262     -999.25     -79.182
    1521.300
       9.679       0.123       0.018      97.516       9.047
       0.264     -999.25     -81.439
    1521.800
       9.699       0.106       0.004      83.789       9.206
       0.201     -999.25     -84.104
    1522.300
       9.750       0.089       0.009      87.702      10.180
       0.267     -999.25     -84.702
    1522.800
       9.830       0.069       0.013      79.860      10.439
       0.185     -999.25     -83.956
    1523.300
       9.892       0.107       0.015      84.971       8.569
       0.194     -999.25     -82.535
    1523.800
       9.941       0.123       0.013      74.658       7.075
       0.193     -999.25     -82.546
    1524.300
       9.978       0.117       0.004      82.776       6.643
       0.208     -999.25     -83.363
    1524.800
       9.997       0.111       0.009      84.969       6.841
       0.187     -999.25     -83.413
    1525.300
       9.996       0.122       0.005      77.911       7.437
       0.190     -999.25     -83.275
    1525.800
       9.996       0.110       0.001      82.889       7.698
       0.204     -999.25     -82.743
    1526.300
       9.996       0.111       0.006      90.353       7.678
       0.198     -999.25     -84.146
    1526.800
      10.015       0.116       0.013      96.648       7.407
       0.193     -999.25     -85.913
    1527.300
      10.015       0.116       0.016      98.312       7.257
       0.216     -999.25     -84.805
    1527.800
       9.996       0.115       0.009      95.245       7.514
       0.226     -999.25     -84.544
    1528.300
       9.995       0.116       0.023      90.238       7.648
       0.192     -999.25     -86.242
    1528.800
       9.995       0.117       0.017      88.968       7.112
       0.194     -999.25     -88.821
    1529.300
       9.957       0.118      -0.004      79.653       6.441
       0.188     -999.25     -91.388
    1529.800
       9.899       0.126       0.017      72.653       6.209
       0.208     -999.25     -92.530
    1530.300
       9.812       0.123       0.032      68.788       5.285
       0.189     -999.25     -97.036
    1530.800
       9.768       0.111       0.025      68.365       4.962
       0.174     -999.25     -96.041
    1531.300
       9.807       0.082       0.038      62.097       5.367
       0.151     -999.25     -91.870
    1531.800
       9.825       0.093       0.012      65.568       5.549
       0.144     -999.25     -88.096
    1532.300
       9.825       0.122       0.008      73.610       4.710
       0.199     -999.25     -87.401
    1532.800
       9.825       0.131       0.020      78.305       4.489
       0.226     -999.25     -88.082
    1533.300
       9.806       0.111       0.009      77.574       6.513
       0.254     -999.25     -87.277
    1533.800
       9.738       0.143       0.008      82.847       8.369
       0.234     -999.25     -85.694
    1534.300
       9.483       0.124       0.013      90.816       9.199
       0.239     -999.25     -84.507
    1534.800
       9.242       0.127       0.006      92.752       9.433
       0.242     -999.25     -84.905
    1535.300
       9.185       0.124       0.014      93.791       9.077
       0.259     -999.25     -86.124
    1535.800
       9.179       0.114       0.037      94.149       7.627
       0.258     -999.25     -86.800
    1536.300
       6.827       0.111       0.048      95.749       6.987
       0.276     -999.25     -86.789
    1536.800
       6.004       0.124       0.044      80.388       7.043
       0.343     -999.25     -86.133
    1537.300
       7.799       0.124       0.051      73.806       7.341
       0.329     -999.25     -85.313
    1537.800
       9.267       0.123       0.049      87.915       8.492
       0.325     -999.25     -83.653
    1538.300
       8.266       0.160       0.021     105.999      10.362
       0.297     -999.25     -82.478
    1538.800
       9.834       0.163       0.055     110.149      10.828
       0.256     -999.25     -82.490
    1539.300
       8.935       0.137       0.133      93.654       9.852
       0.243     -999.25     -83.218
    1539.800
       9.363       0.177       0.161      80.333       8.333
       0.230     -999.25     -84.831
    1540.300
       9.265       0.131       0.132      79.655       8.339
       0.194     -999.25     -84.941
    1540.800
      10.039       0.115       0.075      97.205       9.424
       0.214     -999.25     -84.048
