~Version Information
 VERS.                 2.0: 
 WRAP.                  NO: 
 END.                PETRA:GeoPLUS Corporation
~Well Information Block
#MNEM.UNIT       Data Type    Information
#---------    -------------   ---------------------------------
 STRT.F              0.0000:
 STOP.F          10696.1560:
 STEP.F              0.5000:
 NULL.              -999.25:
 COMP.                           : COMPANY
 FLD.       FLAT ROCK            : FIELD
 LOC.                            : LOCATION
 DATE.      14-OCT-2016          : DATE
 WELL.                           : Well Name
 LABL.      42461037730000                   : Well Label
 APIN.      42461037730000       : API Number
 UWI.       42461037730000       : Unique Well Number
 NUMB.      3                    : Well Number
 OPER.      OXY U S A INC        : Operator Name
 LEAS.      UNIVERSITY-AQ        : Lease Name
~Parameter Block
#MNEM.UNIT           VALUE            Description
#---------    --------------------   ---------------------------------
~Curve Information Block
#MNEM.UNIT      API CODE      Curve Description
#---------    -------------   ---------------------------------
 DEPT.F                   00 000 00 00: Depth (MD)
 ASN.OHM.M                00 001 00 00: AMPLIFIED SHORT NORMAL
 GR.GAPI                  00 002 00 00: GAMMA RAY
 LAT19.OHM.M              00 003 00 00: 
 LAT32.OHM.M              00 004 00 00: 
 SN.OHM.M                 00 005 00 00: 16-in Short Normal
 SP.MV                    00 006 00 00: Spontaneous Potential
 XGR.API                  00 007 00 00: gamma ray
~A        DEPT         ASN          GR       LAT19       LAT32          SN          SP         XGR
# ...
      9234.000      14.825       6.452      31.435      16.964     -999.25     -68.421      68.570
      9234.500      14.446       6.651      29.070      16.611     -999.25     -69.144      70.687
      9235.000      13.965       6.718      26.439      16.439     -999.25     -69.571      71.396
      9235.500      13.483       6.757      21.283      16.458     -999.25     -69.961      71.818
      9236.000      13.001       6.797      18.954      17.031     -999.25     -70.323      72.238
      9236.500      12.619       6.826      20.013      18.094     -999.25     -70.361      72.550
      9237.000      12.352       6.779      22.472      18.454     -999.25     -70.361      72.048
      9237.500      12.399       6.600      25.630      18.822     -999.25     -70.361      70.142
      9238.000      12.790       6.419      31.667      19.370     -999.25     -69.970      68.223
      9238.500      13.306       6.249      37.061      19.912     -999.25     -69.036      66.410
      9239.000      14.141       6.068      49.780      20.441     -999.25     -67.626      64.488
      9239.500      14.970       5.942      53.324      20.018     -999.25     -66.916      63.153
      9240.000      15.851       5.913      59.379      19.300     -999.25     -66.434      62.839
      9240.500      16.489       5.895      61.968      18.597     -999.25     -65.952      62.650
      9241.000      15.974       6.146      54.978      19.040     -999.25     -65.572      65.315
      9241.500      15.431       6.466      45.276      19.762     -999.25     -65.703      68.722
      9242.000      14.856       6.637      32.837      20.121     -999.25     -65.778      70.535
      9242.500      14.203       6.604      19.650      20.281     -999.25     -65.959      70.188
      9243.000      13.800       6.545      17.143      20.111     -999.25     -65.853      69.565
      9243.500      13.841       6.600      14.969      19.932     -999.25     -65.783      70.142
      9244.000      13.882       6.700      14.250      18.809     -999.25     -65.783      71.208
      9244.500      13.658       6.777      14.110      17.734     -999.25     -65.921      72.025
      9245.000      13.222       6.713      14.412      16.657     -999.25     -66.180      71.341
      9245.500      12.599       6.603      14.719      16.233     -999.25     -66.630      70.173
      9246.000      11.942       6.512      16.593      16.964     -999.25     -66.747      69.210
      9246.500      11.384       6.304      21.219      17.675     -999.25     -66.747      66.996
      9247.000      10.986       6.003      23.496      17.061     -999.25     -66.747      63.799
      9247.500      10.825       5.703      25.723      15.994     -999.25     -66.539      60.613
      9248.000      11.079       5.984      28.069      15.300     -999.25     -66.662      63.603
      9248.500      11.592       6.088      31.399      14.967     -999.25     -66.903      64.701
      9249.000      12.130       6.131      29.115      15.234     -999.25     -67.335      65.158
      9249.500      13.211       6.030      25.894      16.327     -999.25     -67.319      64.091
      9250.000      14.461       5.930      16.838      17.414     -999.25     -67.206      63.024
      9250.500      15.526       5.832      13.114      18.498     -999.25     -67.358      61.985
      9251.000      15.385       6.000      11.075      19.583     -999.25     -67.755      63.767
      9251.500      15.018       6.161       9.922      20.665     -999.25     -68.427      65.484
      9252.000      14.661       6.465       8.606      21.524     -999.25     -69.009      68.707
      9252.500      14.305       6.555       7.523      20.454     -999.25     -69.361      69.665
      9253.000      13.965       6.367       6.372      20.996     -999.25     -69.284      67.665
      9253.500      14.525       6.440       5.134      21.538     -999.25     -68.835      68.443
      9254.000      15.260       6.550       5.195      22.053     -999.25     -68.526      69.617
      9254.500      16.038       6.670       5.436      20.532     -999.25     -68.113      70.893
      9255.000      16.881       6.611       5.676      19.685     -999.25     -67.821      70.260
      9255.500      18.140       6.460       5.854      19.692     -999.25     -67.398      68.660
      9256.000      18.372       6.310       5.961      19.966     -999.25     -66.916      67.060
      9256.500      17.820       6.159       5.769      21.412     -999.25     -66.777      65.459
      9257.000      17.463       5.998       5.529      22.861     -999.25     -66.434      63.748
      9257.500      17.702       5.837       5.352      24.499     -999.25     -65.952      62.040
      9258.000      18.866       5.677       5.384      26.538     -999.25     -65.536      60.332
      9258.500      20.661       5.516       5.876      29.615     -999.25     -65.698      58.622
      9259.000      23.363       5.294       6.417      32.145     -999.25     -65.939      56.263
      9259.500      27.522       5.202       6.964      34.857     -999.25     -66.007      55.290
      9260.000      30.905       5.253       7.566      37.358     -999.25     -66.180      55.833
      9260.500      31.686       5.311       8.156      39.527     -999.25     -66.421      56.441
      9261.000      31.806       5.197       7.935      41.696     -999.25     -66.662      55.229
      9261.500      30.965       5.076       7.633      43.872     -999.25     -66.903      53.943
      9262.000      29.279       4.954       7.330      44.763     -999.25     -66.856      52.646
      9262.500      27.847       5.043       6.970      40.978     -999.25     -66.806      53.598
      9263.000      26.438       5.136       6.669      37.202     -999.25     -66.434      54.582
      9263.500      25.874       5.328       6.367      35.765     -999.25     -65.952      56.630
      9264.000      26.274       5.519       6.143      35.656     -999.25     -65.470      58.657
      9264.500      26.640       5.711       6.337      33.286     -999.25     -64.989      60.691
      9265.000      27.006       5.961       6.589      30.759     -999.25     -64.334      63.352
      9265.500      26.845       6.152       7.074      29.668     -999.25     -63.784      65.380
      9266.000      26.285       6.342       7.494      31.500     -999.25     -63.302      67.406
      9266.500      25.703       6.398       7.860      31.763     -999.25     -62.904      67.998
      9267.000      25.094       6.208       8.881      31.041     -999.25     -63.201      65.977
      9267.500      24.688       6.017      10.437      30.318     -999.25     -63.499      63.952
      9268.000      24.614       5.915      11.597      29.595     -999.25     -63.927      62.864
      9268.500      24.853       5.986      12.815      28.877     -999.25     -64.409      63.620
      9269.000      25.336       6.033      13.973      29.541     -999.25     -64.891      64.118
      9269.500      26.139       5.856      15.193      30.982     -999.25     -65.220      62.239
      9270.000      28.252       5.644      16.342      32.245     -999.25     -65.622      59.989
      9270.500      30.152       5.424      17.911      33.730     -999.25     -65.967      57.641
      9271.000      32.137       5.203      19.137      36.114     -999.25     -66.071      55.293
      9271.500      34.286       4.982      20.814      38.646     -999.25     -65.868      52.947
      9272.000      37.208       4.762      22.481      41.396     -999.25     -65.627      50.609
      9272.500      40.594       4.689      24.147      45.242     -999.25     -65.386      49.830
      9273.000      43.161       4.673      25.823      49.320     -999.25     -65.145      49.663
      9273.500      45.487       4.533      27.520      53.611     -999.25     -64.904      48.177
      9274.000      48.911       4.392      29.910      58.807     -999.25     -64.217      46.682
