~Version Information
 VERS.                 2.0: 
 WRAP.                 YES: 
 END.                PETRA:GeoPLUS Corporation
~Well Information Block
#MNEM.UNIT       Data Type    Information
#---------    -------------   ---------------------------------
 STRT.F           1066.8000:
 STOP.F           7799.8000:
 STEP.F              0.5000:
 NULL.              -999.25:
 COMP.                           : COMPANY
 FLD.       FLAT ROCK            : FIELD
 LOC.                            : LOCATION
 DATE.      14-OCT-2016          : DATE
 WELL.                           : Well Name
 LABL.      42461318260000                   : Well Label
 APIN.      42461318260000       : API Number
 UWI.       42461318260000       : Unique Well Number
 NUMB.      1                    : Well Number
 OPER.      KIMBARK OIL & GAS CO : Operator Name
 LEAS.      UNIVERSITY `31-3`    : Lease Name
~Parameter Block
#MNEM.UNIT           VALUE            Description
#---------    --------------------   ---------------------------------
 EKB.F                  2786.0 : KB Elevation
~Curve Information Block
#MNEM.UNIT      API CODE      Curve Description
#---------    -------------   ---------------------------------
 DEPT.F                   00 000 00 00: Depth (MD)
 CALI.IN                  00 001 00 00: Density Caliper
 DPHI.FRAC                00 002 00 00: Density Porosity
 DRHO.G/CM3               00 003 00 00: Density Correction
 GR.GAPI                  00 004 00 00: GAMMA RAY
 ILD.OHM.M                00 005 00 00: Induction Deep Resistivity
 NPHI.FRAC                00 006 00 00: Neutron Porosity
 PAY_TOC.                 00 007 00 00: TOC proxy
 SP.MV                    00 008 00 00: Spontaneous Potential
~A
# ...
    6395.800
       9.867       0.095       0.004      88.461       7.557
       0.195       0.000     -99.631
    6396.300
       9.857       0.095      -0.003      84.336       7.546
       0.187       0.000     -99.036
    6396.800
       9.846       0.101      -0.008      77.302       7.507
       0.180       0.000     -98.420
    6397.300
       9.817       0.098      -0.009      74.501       7.515
       0.182       0.000     -97.282
    6397.800
       9.807       0.094      -0.009      74.808       7.544
       0.184       0.000     -96.138
    6398.300
       9.791       0.093      -0.008      82.206       7.544
       0.182       0.000     -95.610
    6398.800
       9.772       0.096      -0.005      86.281       7.607
       0.180       0.000     -95.059
    6399.300
       9.771       0.104      -0.003      89.053       7.608
       0.187       0.000     -94.628
    6399.800
       9.765       0.109      -0.001      91.991       7.626
       0.197       0.000     -94.621
    6400.300
       9.752       0.111       0.001      96.761       7.706
       0.216       0.000     -94.635
    6400.800
       9.733       0.117       0.004      98.754       7.762
       0.224       0.000     -95.182
    6401.300
       9.733       0.118       0.006     100.388       7.806
       0.230       0.000     -95.367
    6401.800
       9.714       0.103       0.009     102.402       7.865
       0.234       0.000     -96.121
    6402.300
       9.695       0.092       0.012     105.598       7.932
       0.241       0.000     -96.255
    6402.800
       9.683       0.086       0.016     108.595       8.001
       0.246       0.000     -96.942
    6403.300
       9.673       0.083       0.018     109.604       8.003
       0.228       0.000     -96.973
    6403.800
       9.657       0.082       0.022     105.820       8.078
       0.211       0.000     -96.980
    6404.300
       9.657       0.103       0.026     101.029       8.145
       0.199       0.000     -96.841
    6404.800
       9.619       0.109       0.028      95.935       8.145
       0.196       0.000     -96.278
    6405.300
       9.618       0.111       0.032      94.384       8.143
       0.208       0.000     -96.054
    6405.800
       9.618       0.111       0.020      97.129       8.142
       0.221       0.000     -95.532
    6406.300
       9.612       0.096       0.007     100.049       8.131
       0.219       0.000     -95.118
    6406.800
       9.599       0.090       0.010      99.031       8.075
       0.209       0.000     -94.418
    6407.300
       9.599       0.088       0.013      91.283       8.003
       0.194       0.000     -93.664
    6407.800
       9.597       0.096       0.014      88.326       8.000
       0.185       0.000     -92.995
    6408.300
       9.580       0.106       0.013      91.475       7.932
       0.197       0.000     -92.158
    6408.800
       9.579       0.111       0.012      95.800       7.861
       0.215       0.000     -91.205
    6409.300
       9.579       0.105       0.010      99.301       7.790
       0.224       0.000     -90.916
    6409.800
       9.579       0.099       0.006      99.851       7.722
       0.212       0.000     -90.177
    6410.300
       9.579       0.098       0.002      97.236       7.644
       0.202       0.000     -90.158
    6410.800
       9.579       0.100       0.000      92.576       7.584
       0.198       0.000     -90.167
    6411.300
       9.579       0.103      -0.001      90.142       7.501
       0.200       0.000     -90.172
    6411.800
       9.560       0.105       0.000      92.152       7.449
       0.229       0.000     -90.180
    6412.300
       9.541       0.104       0.002      94.959       7.378
       0.236       0.000     -90.305
    6412.800
       9.531       0.102       0.003      93.718       7.375
       0.230       0.000     -90.912
    6413.300
       9.503       0.100       0.002      90.994       7.373
       0.220       0.000     -90.948
    6413.800
       9.503       0.097       0.005      87.571       7.372
       0.211       0.000     -91.345
    6414.300
       9.481       0.096       0.016      85.619       7.429
       0.205       0.000     -91.365
    6414.800
       9.465       0.098       0.015      88.284       7.443
       0.233       0.000     -91.372
    6415.300
       9.441       0.103       0.008      98.099       7.547
       0.248       0.000     -91.011
    6415.800
       9.426       0.109       0.000     105.497       7.694
       0.256       0.000     -91.001
    6416.300
       9.426       0.113      -0.002     109.744       7.872
       0.262       0.000     -91.009
    6416.800
       9.426       0.117      -0.002     112.726       8.131
       0.267       0.000     -91.015
    6417.300
       9.418       0.119       0.001     113.030       8.374
       0.269       0.000     -91.023
    6417.800
       9.407       0.123       0.003     110.978       8.522
       0.271       0.000     -90.859
    6418.300
       9.406       0.127       0.007     110.003       8.682
       0.272       0.000     -90.650
    6418.800
       9.406       0.124       0.009     111.369       8.758
       0.267       0.000     -90.304
    6419.300
       9.387       0.118       0.012     114.620       8.834
       0.254       0.000     -90.624
    6419.800
       9.387       0.111       0.016     116.540       8.706
       0.238       0.000     -91.699
    6420.300
       9.387       0.103       0.020     117.683       8.612
       0.214       0.000     -92.704
    6420.800
       9.387       0.096       0.023     114.783       8.349
       0.201       0.000     -93.963
    6421.300
       9.387       0.089       0.026     103.083       8.038
       0.191       0.000     -95.570
    6421.800
       9.386       0.086       0.028      90.925       7.716
       0.179       0.000     -97.392
    6422.300
       9.386       0.083       0.029      80.059       7.419
       0.171       0.000     -99.044
    6422.800
       9.386       0.082       0.030      78.050       7.121
       0.186       0.000     -99.760
    6423.300
       9.368       0.085       0.031      82.808       6.859
       0.201       0.000    -100.261
    6423.800
       9.349       0.085       0.029      86.167       6.727
       0.208       0.000    -100.679
    6424.300
       9.347       0.086       0.020      86.892       6.571
       0.214       0.000    -100.726
    6424.800
       9.318       0.085       0.010      86.945       6.433
       0.197       0.000    -100.622
    6425.300
       9.292       0.084       0.007      86.165       6.386
       0.187       0.000    -100.379
    6425.800
       9.273       0.083       0.007      83.786       6.321
       0.176       0.000    -100.039
    6426.300
       9.248       0.088       0.008      81.814       6.372
       0.167       0.000     -99.314
    6426.800
       9.235       0.097       0.010      80.280       6.427
       0.179       0.000     -98.517
    6427.300
       9.216       0.101       0.012      79.550       6.484
       0.190       0.000     -97.578
    6427.800
       9.197       0.105       0.014      80.088       6.561
       0.191       0.000     -96.544
    6428.300
       9.196       0.110       0.014      81.099       6.667
       0.195       0.000     -95.518
    6428.800
       9.177       0.118       0.014      83.269       6.762
       0.216       0.000     -94.940
    6429.300
       9.158       0.123       0.013      90.970       6.880
       0.237       0.000     -93.933
    6429.800
       9.138       0.123       0.012     100.157       7.000
       0.248       0.000     -92.989
    6430.300
       9.120       0.106       0.010     105.509       7.052
       0.266       0.000     -91.899
    6430.800
       9.120       0.096       0.008     104.211       7.184
       0.256       0.000     -90.924
    6431.300
       9.119       0.087       0.005      99.989       7.277
       0.246       0.000     -90.115
    6431.800
       9.082       0.084       0.007      94.634       7.437
       0.231       0.000     -89.327
