~Version Information
 VERS.                 2.0: 
 WRAP.                 YES: 
 END.                PETRA:GeoPLUS Corporation
~Well Information Block
#MNEM.UNIT       Data Type    Information
#---------    -------------   ---------------------------------
 STRT.F             57.9120:
 STOP.F          11474.9360:
 STEP.F              0.5000:
 NULL.              -999.25:
 COMP.                           : COMPANY
 FLD.       BENEDUM              : FIELD
 LOC.                            : LOCATION
 DATE.      14-OCT-2016          : DATE
 WELL.                           : Well Name
 LABL.      42461342620000                   : Well Label
 APIN.      42461342620000       : API Number
 UWI.       42461342620000       : Unique Well Number
 NUMB.      1                    : Well Number
 OPER.      W T G EXPLORATION    : Operator Name
 LEAS.      UNIVERSITY `3-4`     : Lease Name
~Parameter Block
#MNEM.UNIT           VALUE            Description
#---------    --------------------   ---------------------------------
 EKB.F                  2682.0 : KB Elevation
~Curve Information Block
#MNEM.UNIT      API CODE      Curve Description
#---------    -------------   ---------------------------------
 DEPT.F                   00 000 00 00: Depth (MD)
 CALI.IN                  00 001 00 00: Density Caliper
 DPLS.FRAC                00 002 00 00: DENSITY POROSITY  LIMESTONE
 DRHO.G/CM3               00 003 00 00: Density Correction
 GRD.GAPI                 00 004 00 00: Guard
 GRR.GAPI                 00 005 00 00: Gamma Ray Resistivity Device
 LLD.OHM.M                00 006 00 00: Laterolog Deep
 LLS.OHM.M                00 007 00 00: Laterolog Shallow
 MSFL.OHM.M               00 008 00 00: MICRO SFL
 NPLS.FRAC                00 009 00 00: NEUTRON POROSITY  LIMESTONE
 PEF.B/E                  00 010 00 00: Photo-Electric Factor
 RHOB.G/CM3               00 011 00 00: Bulk Density
 TENS.LB                  00 012 00 00: Tension
 XDPHI.FRAC               00 013 00 00: 
~A
# ...
    5321.912
       9.787       3.393       0.217      82.734    1349.364
     154.501     365.642      42.529       0.201     -31.293
       2.416    4100.000     -999.25
    5322.412
       9.787       3.393       0.216      80.439    1348.666
     154.504     365.635      42.519       0.194     -31.305
       2.415    4100.000     -999.25
    5322.912
       9.787       3.394       0.216      73.450    1347.968
     154.507     365.628      42.509       0.185     -31.316
       2.415    4100.316     -999.25
    5323.412
       9.787       3.395       0.215      67.394    1347.270
     154.510     365.620      42.499       0.177     -31.327
       2.415    4120.033     -999.25
    5323.912
       9.788       3.395       0.214      60.751    1346.572
     154.513     365.613      42.490       0.179     -31.338
       2.414    4120.000     -999.25
    5324.412
       9.788       3.396       0.214      58.636    1345.873
     154.515     365.605      42.480       0.181     -31.349
       2.414    4119.734     -999.25
    5324.912
       9.788       3.397       0.213      59.608    1345.174
     154.518     365.598      42.470       0.170     -31.361
       2.413    4100.042     -999.25
    5325.412
       9.788       3.398       0.212      62.640    1344.475
     154.521     365.590      42.460       0.159     -31.372
       2.413    4100.000     -999.25
    5325.912
       9.800       3.398       0.212      70.234    1343.775
     154.524     365.583      42.451       0.160     -31.383
       2.413    4100.000     -999.25
    5326.412
       9.813       3.399       0.211      77.541    1343.076
     154.527     365.575      42.441       0.174     -31.394
       2.412    4100.000     -999.25
    5326.912
       9.796       3.400       0.210      85.955    1342.376
     154.529     365.568      42.431       0.189     -31.405
       2.412    4100.000     -999.25
    5327.412
       9.776       3.400       0.209      94.299    1341.676
     154.532     365.560      42.421       0.192     -31.417
       2.411    4100.000     -999.25
    5327.912
       9.756       3.401       0.209      93.911    1340.976
     154.535     365.552      42.411       0.199     -31.428
       2.411    4100.000     -999.25
    5328.412
       9.748       3.402       0.208      93.305    1340.275
     154.538     365.545      42.402       0.207     -31.439
       2.411    4100.000     -999.25
    5328.912
       9.736       3.402       0.207      92.906    1339.574
     154.541     365.537      42.392       0.215     -31.450
       2.410    4100.000     -999.25
    5329.412
       9.726       3.403       0.207     104.833    1338.873
     154.543     365.529      42.382       0.214     -31.461
       2.410    4100.000     -999.25
    5329.912
       9.743       3.404       0.206     107.658    1338.172
     154.546     365.521      42.372       0.198     -31.472
       2.410    4100.000     -999.25
    5330.412
       9.749       3.404       0.205     107.119    1337.471
     154.549     365.513      42.363       0.190     -31.484
       2.409    4100.000     -999.25
    5330.912
       9.749       3.405       0.205     102.809    1336.769
     154.552     365.505      42.353       0.188     -31.495
       2.409    4100.293     -999.25
    5331.412
       9.763       3.406       0.204      97.565    1336.068
     154.554     365.497      42.343       0.185     -31.506
       2.408    4120.000     -999.25
    5331.912
       9.770       3.406       0.203      88.772    1335.366
     154.557     365.490      42.333       0.184     -31.517
       2.408    4120.000     -999.25
    5332.412
       9.770       3.407       0.203      85.451    1334.663
     154.560     365.482      42.323       0.191     -31.528
       2.408    4120.000     -999.25
    5332.912
       9.770       3.408       0.202      78.847    1333.961
     154.563     365.474      42.314       0.185     -31.539
       2.407    4120.000     -999.25
    5333.412
       9.770       3.408       0.201      72.261    1333.258
     154.566     365.465      42.304       0.174     -31.550
       2.407    4120.000     -999.25
    5333.912
       9.768       3.409       0.201      69.173    1332.555
     154.568     365.457      42.294       0.174     -31.562
       2.406    4120.000     -999.25
    5334.412
       9.783       3.410       0.200      69.138    1331.852
     154.571     365.449      42.284       0.179     -31.573
       2.406    4120.000     -999.25
    5334.912
       9.803       3.410       0.199      65.202    1331.149
     154.574     365.441      42.275       0.186     -31.584
       2.406    4120.000     -999.25
    5335.412
       9.815       3.411       0.199      63.492    1330.446
     154.577     365.433      42.265       0.189     -31.595
       2.405    4120.000     -999.25
    5335.912
       9.799       3.412       0.198      63.913    1329.742
     154.579     365.425      42.255       0.180     -31.606
       2.405    4120.000     -999.25
    5336.412
       9.791       3.412       0.197      66.769    1329.038
     154.582     365.416      42.245       0.171     -31.617
       2.405    4120.000     -999.25
    5336.912
       9.778       3.413       0.197      72.744    1328.334
     154.585     365.408      42.235       0.172     -31.628
       2.404    4120.000     -999.25
    5337.412
       9.780       3.414       0.196      81.923    1327.629
     154.588     365.400      42.226       0.190     -31.639
       2.404    4120.000     -999.25
    5337.912
       9.818       3.414       0.195      81.885    1326.925
     154.590     365.391      42.216       0.198     -31.650
       2.403    4120.000     -999.25
    5338.412
       9.849       3.415       0.195      81.592    1326.220
     154.593     365.383      42.206       0.197     -31.662
       2.403    4120.000     -999.25
    5338.912
       9.853       3.416       0.194      81.607    1325.515
     154.596     365.374      42.196       0.187     -31.673
       2.403    4120.000     -999.25
    5339.412
       9.854       3.416       0.193      81.887    1324.810
     154.599     365.366      42.187       0.177     -31.684
       2.402    4120.000     -999.25
    5339.912
       9.854       3.417       0.193      83.068    1324.104
     154.601     365.358      42.177       0.177     -31.695
       2.402    4119.767     -999.25
    5340.412
       9.854       3.418       0.192      88.493    1323.399
     154.604     365.349      42.167       0.177     -31.706
       2.401    4100.125     -999.25
    5340.912
       9.800       3.418       0.191      93.885    1322.693
     154.607     365.340      42.157       0.189     -31.717
       2.401    4119.952     -999.25
    5341.412
       9.773       3.419       0.191      93.009    1321.987
     154.609     365.332      42.148       0.200     -31.728
       2.401    4120.000     -999.25
    5341.912
       9.773       3.420       0.190      86.664    1321.280
     154.612     365.323      42.138       0.206     -31.739
       2.400    4120.086     -999.25
    5342.412
       9.762       3.420       0.189      80.361    1320.574
     154.615     365.315      42.128       0.205     -31.750
       2.400    4140.610     -999.25
    5342.912
       9.755       3.421       0.188      73.762    1319.867
     154.618     365.306      42.118       0.194     -31.761
       2.400    4140.421     -999.25
    5343.412
       9.733       3.422       0.188      70.920    1319.160
     154.620     365.297      42.108       0.183     -31.772
       2.399    4160.498     -999.25
    5343.912
       9.676       3.422       0.187      73.324    1318.453
     154.623     365.288      42.099       0.172     -31.783
       2.399    4159.236     -999.25
    5344.412
       9.615       3.423       0.186      75.703    1317.746
     154.626     365.279      42.089       0.181     -31.794
       2.398    4140.073     -999.25
    5344.912
       9.572       3.424       0.186      76.181    1317.038
     154.628     365.271      42.079       0.190     -31.805
       2.398    4140.000     -999.25
