~Version Information
 VERS.                 2.0: 
 WRAP.                  NO: 
 END.                PETRA:GeoPLUS Corporation
~Well Information Block
#MNEM.UNIT       Data Type    Information
#---------    -------------   ---------------------------------
 STRT.F           1828.6476:
 STOP.F           8230.1476:
 STEP.F              0.5000:
 NULL.              -999.25:
 COMP.                           : COMPANY
 FLD.       SPRABERRY            : FIELD
 LOC.                            : LOCATION
 DATE.      14-OCT-2016          : DATE
 WELL.                           : Well Name
 LABL.      42461324180000                   : Well Label
 APIN.      42461324180000       : API Number
 UWI.       42461324180000       : Unique Well Number
 NUMB.      3                    : Well Number
 OPER.      PIONEER NAT RES USA  : Operator Name
 LEAS.      UNIVERSITY `8`       : Lease Name
~Parameter Block
#MNEM.UNIT           VALUE            Description
#---------    --------------------   ---------------------------------
 EKB.F                  2684.0 : KB Elevation
~Curve Information Block
#MNEM.UNIT      API CODE      Curve Description
#---------    -------------   ---------------------------------
 DEPT.F                   00 000 00 00: Depth (MD)
 CALI.IN                  00 001 00 00: Density Caliper
 DPHI.FRAC                00 002 00 00: Density Porosity
 DRHO.G/CM3               00 003 00 00: Density Correction
 GR.GAPI                  00 004 00 00: GAMMA RAY
 LGRD.OHM.M               00 005 00 00: Long Guard Resistivity
 NPHI.FRAC                00 006 00 00: Neutron Porosity
~A        DEPT        CALI        DPHI        DRHO          GR        LGRD        NPHI
      1828.648       9.010       0.086       0.014     121.928      16.908       0.237
      1829.148       8.942       0.103       0.040     125.642      22.348       0.247
      1829.648       8.978       0.094       0.047     126.510      29.423       0.255
      1830.148       8.947       0.126       0.032     131.176      36.642       0.256
      1830.648       8.923       0.123       0.012     128.831      32.923       0.257
      1831.148       8.902       0.125       0.012     135.719      19.254       0.247
      1831.648       8.763       0.101       0.036     119.940      22.636       0.231
      1832.148       8.881       0.074       0.045     120.197      60.514       0.240
      1832.648       8.888       0.107       0.037     130.123      61.057       0.248
      1833.148       8.913       0.130       0.025     127.648      27.685       0.245
      1833.648       8.861       0.124       0.020     109.072      41.829       0.235
      1834.148       8.829       0.137       0.017     121.295      37.915       0.223
      1834.648       8.748       0.104       0.021      73.352      30.704       0.160
      1835.148       8.766       0.088       0.024     103.243     101.481       0.216
      1835.648       8.818       0.140       0.030     128.625     146.449       0.233
      1836.148       8.749       0.129       0.036     127.759      41.839       0.212
      1836.648       8.753       0.092       0.037      96.983      65.593       0.217
      1837.148       8.769       0.083       0.022      84.270     140.314       0.239
      1837.648       8.820       0.113       0.011     128.306      25.169       0.253
      1838.148       8.821       0.167       0.015     147.624      47.968       0.241
      1838.648       8.822       0.112       0.027     127.333      47.722       0.228
      1839.148       8.890       0.084       0.037     106.423      80.498       0.231
      1839.648       8.963       0.122       0.042     148.814      45.055       0.240
      1840.148       8.933       0.123       0.027     153.276      23.301       0.245
      1840.648       8.965       0.126       0.021     121.828      29.334       0.238
      1841.148       8.949       0.130       0.021     126.725      42.376       0.233
      1841.648       8.987       0.115       0.025     121.344      24.514       0.245
      1842.148       8.844       0.128       0.041     141.055      26.383       0.242
      1842.648       8.820       0.110       0.051     127.438      32.079       0.233
      1843.148       8.961       0.092       0.059     115.780      52.456       0.230
      1843.648       8.865       0.107       0.034     126.521      40.926       0.232
      1844.148       8.858       0.136       0.023     133.307      57.371       0.234
      1844.648       8.972       0.147       0.023     140.553      26.149       0.243
      1845.148       8.940       0.159       0.029     146.220      24.787       0.239
      1845.648       8.905       0.134       0.036     121.774      31.646       0.194
      1846.148       8.906       0.080       0.051      65.405      43.013       0.151
      1846.648       8.855       0.087       0.049      72.939     102.803       0.178
      1847.148       8.891       0.122       0.029     107.998     281.784       0.208
      1847.648       8.875       0.109       0.029      95.409     140.004       0.213
      1848.148       8.851       0.091       0.036     105.195      30.753       0.215
      1848.648       8.843       0.110       0.031     108.505      29.296       0.222
      1849.148       8.861       0.148       0.011     147.568      47.579       0.234
      1849.648       8.934       0.142       0.014     156.606      40.608       0.235
      1850.148       8.786       0.137       0.029     173.748      24.439       0.228
      1850.648       8.710       0.133       0.033     148.948      37.936       0.227
      1851.148       8.848       0.139       0.015     207.210      87.677       0.225
      1851.648       8.781       0.127       0.020     130.593      40.235       0.226
      1852.148       8.727       0.107       0.029     154.516      49.729       0.230
      1852.648       8.825       0.146       0.027     185.392      64.612       0.236
      1853.148       8.787       0.148       0.014     182.894      71.663       0.255
      1853.648       8.713       0.154       0.008     199.320      53.209       0.236
      1854.148       8.739       0.133       0.008     159.035      38.576       0.216
      1854.648       8.819       0.118       0.017     104.978      50.487       0.214
      1855.148       8.887       0.119       0.028     138.172      36.281       0.227
      1855.648       8.834       0.124       0.026     133.512      26.271       0.238
      1856.148       8.961       0.144       0.010     168.135      45.822       0.233
      1856.648       8.937       0.131       0.008     192.097      25.976       0.227
      1857.148       8.797       0.128       0.027     157.869      40.111       0.240
      1857.648       8.790       0.125       0.038     165.659      24.109       0.242
      1858.148       8.783       0.148       0.023     169.455      47.536       0.223
      1858.648       8.590       0.124       0.021     124.698      99.616       0.096
      1859.148       8.570       0.033       0.021      22.591     460.743       0.090
      1859.648       8.600       0.017       0.007      27.302     892.063       0.120
      1860.148       8.697       0.153       0.009     104.555     108.456       0.198
      1860.648       8.837       0.153       0.026     130.459      28.223       0.241
      1861.148       8.849       0.143       0.028     124.073      30.290       0.243
      1861.648       8.850       0.148       0.016     124.253      28.323       0.243
      1862.148       8.869       0.144       0.048     133.466      28.157       0.247
      1862.648       8.887       0.141       0.044     133.583      36.336       0.250
      1863.148       8.877       0.148       0.021     145.477      46.301       0.240
      1863.648       8.941       0.149       0.033     132.750      39.598       0.240
      1864.148       8.942       0.153       0.023     148.919      51.728       0.248
      1864.648       8.943       0.160       0.012     149.213      29.081       0.239
      1865.148       8.944       0.131       0.033     142.657      32.178       0.227
      1865.648       8.945       0.119       0.041     111.786      38.229       0.243
      1866.148       8.946       0.163       0.014     141.207      34.785       0.246
      1866.648       8.948       0.164       0.018     135.491      36.673       0.249
      1867.148       8.949       0.150       0.026     142.940      42.525       0.253
      1867.648       8.989       0.144       0.041     128.131      53.847       0.249
      1868.148       9.018       0.143       0.047     131.861      53.855       0.254
      1868.648       8.858       0.158       0.035     149.407      39.596       0.251
      1869.148       8.912       0.143       0.028     151.105      38.381       0.246
      1869.648       8.955       0.116       0.035     133.616      36.890       0.239
      1870.148       8.884       0.138       0.043     149.175      24.286       0.254
      1870.648       8.897       0.135       0.034     157.960      35.391       0.234
      1871.148       8.839       0.107       0.018     161.413     106.004       0.128
      1871.648       8.805       0.056       0.022      41.226     295.209       0.130
      1872.148       8.856       0.060       0.030      34.894     732.117       0.238
      1872.648       8.958       0.148       0.021     166.365     196.191       0.248
      1873.148       8.968       0.132       0.028     143.950      36.077       0.243
      1873.648       8.931       0.130       0.044     140.499      39.125       0.251
      1874.148       8.965       0.165       0.069     131.475      55.698       0.256
