~Version Information
 VERS.                 2.0: 
 WRAP.                  NO: 
 END.                PETRA:GeoPLUS Corporation
~Well Information Block
#MNEM.UNIT       Data Type    Information
#---------    -------------   ---------------------------------
 STRT.F           1828.6476:
 STOP.F           8230.1476:
 STEP.F              0.5000:
 NULL.              -999.25:
 COMP.                           : COMPANY
 FLD.       SPRABERRY            : FIELD
 LOC.                            : LOCATION
 DATE.      14-OCT-2016          : DATE
 WELL.                           : Well Name
 LABL.      42461324180000                   : Well Label
 APIN.      42461324180000       : API Number
 UWI.       42461324180000       : Unique Well Number
 NUMB.      3                    : Well Number
 OPER.      PIONEER NAT RES USA  : Operator Name
 LEAS.      UNIVERSITY `8`       : Lease Name
~Parameter Block
#MNEM.UNIT           VALUE            Description
#---------    --------------------   ---------------------------------
 EKB.F                  2684.0 : KB Elevation
~Curve Information Block
#MNEM.UNIT      API CODE      Curve Description
#---------    -------------   ---------------------------------
 DEPT.F                   00 000 00 00: Depth (MD)
 CALI.IN                  00 001 00 00: Density Caliper
 DPHI.FRAC                00 002 00 00: Density Porosity
 DRHO.G/CM3               00 003 00 00: Density Correction
 GR.GAPI                  00 004 00 00: GAMMA RAY
 LGRD.OHM.M               00 005 00 00: Long Guard Resistivity
 NPHI.FRAC                00 006 00 00: Neutron Porosity
~A        DEPT        CALI        DPHI        DRHO          GR        LGRD        NPHI
# ...
      7762.648       8.516       0.090       0.021     115.668      98.580       0.221
      7763.148       8.516       0.100       0.017     118.756     105.644       0.225
      7763.648       8.532       0.109       0.014     120.536      38.018       0.228
      7764.148       8.532       0.113       0.010     122.451      58.329       0.230
      7764.648       8.532       0.119       0.008     120.902      70.172       0.230
      7765.148       8.532       0.125       0.006     118.409      82.564       0.230
      7765.648       8.531       0.129       0.002     118.771     126.858       0.228
      7766.148       8.515       0.129       0.001     119.365     160.000       0.226
      7766.648       8.513       0.126       0.001     121.150     123.279       0.224
      7767.148       8.470       0.123       0.002     126.242      97.238       0.224
      7767.648       8.460       0.119       0.004     134.968      88.410       0.224
      7768.148       8.444       0.116       0.006     137.047      86.644       0.224
      7768.648       8.441       0.114       0.007     132.228      92.157       0.223
      7769.148       8.393       0.111       0.008     127.812     113.329       0.222
      7769.648       8.373       0.109       0.011     126.864     139.531       0.219
      7770.148       8.373       0.107       0.015     129.804     127.801       0.218
      7770.648       8.373       0.107       0.019     133.715      83.735       0.215
      7771.148       8.372       0.107       0.022     131.821      51.409       0.213
      7771.648       8.372       0.107       0.018     123.011      53.047       0.209
      7772.148       8.372       0.107       0.012     114.958      80.245       0.207
      7772.648       8.371       0.111       0.005     105.325      97.539       0.205
      7773.148       8.387       0.116       0.002     104.399     109.679       0.211
      7773.648       8.387       0.118       0.002     111.554      69.366       0.218
      7774.148       8.405       0.117       0.002     120.619      38.947       0.224
      7774.648       8.421       0.116       0.002     132.422      31.180       0.228
      7775.148       8.439       0.113       0.002     133.691      29.359       0.231
      7775.648       8.438       0.110       0.002     127.957      32.805       0.231
      7776.148       8.438       0.106       0.003     121.765      37.040       0.231
      7776.648       8.438       0.102       0.007     121.643      39.109       0.229
      7777.148       8.438       0.102       0.009     126.277      42.489       0.224
      7777.648       8.437       0.102       0.010     131.289      46.208       0.223
      7778.148       8.437       0.103       0.012     140.658      61.847       0.223
      7778.648       8.437       0.109       0.015     145.395      72.484       0.227
      7779.148       8.436       0.114       0.013     147.324      95.155       0.229
      7779.648       8.436       0.120       0.005     147.465     107.008       0.227
      7780.148       8.436       0.124       0.002     148.347     125.987       0.226
      7780.648       8.435       0.130       0.002     150.895     148.255       0.224
      7781.148       8.435       0.131       0.002     152.346     169.836       0.223
      7781.648       8.435       0.132       0.002     146.345     185.828       0.219
      7782.148       8.434       0.132       0.005     140.011     221.984       0.216
      7782.648       8.434       0.132       0.009     133.684     250.714       0.213
      7783.148       8.434       0.131       0.009     114.181     267.825       0.206
      7783.648       8.433       0.131       0.010     106.396     293.693       0.196
      7784.148       8.433       0.130       0.013     102.935     343.873       0.191
      7784.648       8.433       0.128       0.015     103.237     383.999       0.193
      7785.148       8.432       0.127       0.013     107.995     407.572       0.197
      7785.648       8.432       0.127       0.010     112.006     446.709       0.200
      7786.148       8.432       0.128       0.010     114.769     262.290       0.200
      7786.648       8.423       0.128       0.008     117.991     109.269       0.199
      7787.148       8.414       0.126       0.005     120.585      88.702       0.194
      7787.648       8.387       0.122       0.003     122.394     114.189       0.188
      7788.148       8.362       0.117       0.003     116.980     144.275       0.181
      7788.648       8.361       0.104       0.004     109.687     164.874       0.172
      7789.148       8.361       0.092       0.006      98.161     191.719       0.165
      7789.648       8.360       0.085       0.007      87.624     207.282       0.163
      7790.148       8.360       0.083       0.009      90.900     245.211       0.166
      7790.648       8.360       0.087       0.010     102.666     290.827       0.169
      7791.148       8.359       0.100       0.013     111.423     347.859       0.174
      7791.648       8.359       0.108       0.016     117.833     185.551       0.182
      7792.148       8.359       0.114       0.019     126.580     123.897       0.193
      7792.648       8.358       0.115       0.023     140.686      93.638       0.202
      7793.148       8.382       0.115       0.024     142.599      85.839       0.212
      7793.648       8.409       0.115       0.024     141.238      77.204       0.221
      7794.148       8.426       0.115       0.023     142.267      71.115       0.224
      7794.648       8.427       0.121       0.021     142.312      61.841       0.225
      7795.148       8.453       0.131       0.018     141.779      77.819       0.226
      7795.648       8.479       0.131       0.017     142.016     101.987       0.227
      7796.148       8.494       0.132       0.017     143.096     119.988       0.228
      7796.648       8.493       0.133       0.015     145.220     145.313       0.232
      7797.148       8.510       0.135       0.013     147.907     184.844       0.240
      7797.648       8.527       0.137       0.016     156.381     216.068       0.239
      7798.148       8.544       0.143       0.018     164.673     265.397       0.234
      7798.648       8.544       0.155       0.021     162.462     312.716       0.229
      7799.148       8.562       0.149       0.024     163.987     175.510       0.222
      7799.648       8.554       0.139       0.026     165.301     105.736       0.215
      7800.148       8.544       0.130       0.029     144.049      84.482       0.211
      7800.648       8.544       0.116       0.030     112.197      74.251       0.205
      7801.148       8.526       0.107       0.030     104.060      64.098       0.203
      7801.648       8.499       0.093       0.028     110.598      43.520       0.204
      7802.148       8.492       0.087       0.026     122.684      39.316       0.209
      7802.648       8.458       0.086       0.022     125.043      46.530       0.214
      7803.148       8.423       0.091       0.019     124.918      52.722       0.219
      7803.648       8.405       0.096       0.018     129.339      61.141       0.224
      7804.148       8.376       0.100       0.018     138.296      68.958       0.227
      7804.648       8.352       0.103       0.018     145.915      46.414       0.227
      7805.148       8.331       0.106       0.018     151.228      40.433       0.228
      7805.648       8.283       0.113       0.019     156.309      37.391       0.227
      7806.148       8.274       0.122       0.022     158.254      41.053       0.227
      7806.648       8.229       0.125       0.024     153.492      51.889       0.226
      7807.148       8.228       0.126       0.025     148.167      66.331       0.228
      7807.648       8.228       0.127       0.025     142.840      88.793       0.230
      7808.148       8.243       0.127       0.024     138.471     126.873       0.233
