~Version Information
 VERS.                 2.0: 
 WRAP.                 YES: 
 END.                PETRA:GeoPLUS Corporation
~Well Information Block
#MNEM.UNIT       Data Type    Information
#---------    -------------   ---------------------------------
 STRT.F             57.9120:
 STOP.F          11474.9360:
 STEP.F              0.5000:
 NULL.              -999.25:
 COMP.                           : COMPANY
 FLD.       BENEDUM              : FIELD
 LOC.                            : LOCATION
 DATE.      14-OCT-2016          : DATE
 WELL.                           : Well Name
 LABL.      42461342620000                   : Well Label
 APIN.      42461342620000       : API Number
 UWI.       42461342620000       : Unique Well Number
 NUMB.      1                    : Well Number
 OPER.      W T G EXPLORATION    : Operator Name
 LEAS.      UNIVERSITY `3-4`     : Lease Name
~Parameter Block
#MNEM.UNIT           VALUE            Description
#---------    --------------------   ---------------------------------
 EKB.F                  2682.0 : KB Elevation
~Curve Information Block
#MNEM.UNIT      API CODE      Curve Description
#---------    -------------   ---------------------------------
 DEPT.F                   00 000 00 00: Depth (MD)
 CALI.IN                  00 001 00 00: Density Caliper
 DPLS.FRAC                00 002 00 00: DENSITY POROSITY  LIMESTONE
 DRHO.G/CM3               00 003 00 00: Density Correction
 GRD.GAPI                 00 004 00 00: Guard
 GRR.GAPI                 00 005 00 00: Gamma Ray Resistivity Device
 LLD.OHM.M                00 006 00 00: Laterolog Deep
 LLS.OHM.M                00 007 00 00: Laterolog Shallow
 MSFL.OHM.M               00 008 00 00: MICRO SFL
 NPLS.FRAC                00 009 00 00: NEUTRON POROSITY  LIMESTONE
 PEF.B/E                  00 010 00 00: Photo-Electric Factor
 RHOB.G/CM3               00 011 00 00: Bulk Density
 TENS.LB                  00 012 00 00: Tension
 XDPHI.FRAC               00 013 00 00: 
~A
# ...
   11384.912
       8.180      -0.016      -0.016      14.381     -999.25
     751.144     715.594     735.731       0.002       4.717
       2.738    6408.163      -0.016
   11385.412
       8.192      -0.014      -0.018     -999.25     -999.25
     388.462     381.853    1526.965       0.002       4.650
       2.737    6408.163      -0.016
   11385.912
       8.199      -0.015      -0.020     -999.25     -999.25
     165.146     164.541     951.690       0.005       4.510
       2.734    6408.163      -0.014
   11386.412
       8.215      -0.028      -0.017     -999.25     -999.25
      79.487      98.324      92.556       0.013       4.330
       2.745    6408.163      -0.019
   11386.912
       8.220      -0.037      -0.012     -999.25     -999.25
      56.848      60.835      45.745       0.036       4.144
       2.761    6408.163      -0.028
   11387.412
       8.220      -0.046      -0.004     -999.25     -999.25
      51.703      51.258      38.390       0.065       3.870
       2.778    6408.163      -0.038
   11387.912
       8.232      -0.052       0.005     -999.25     -999.25
      47.915      47.572      34.348       0.123       3.585
       2.794    6408.163      -0.048
   11388.412
       8.246      -0.048       0.028     -999.25     -999.25
      47.130      46.782      30.518       0.159       3.308
       2.797    6408.163      -0.052
   11388.912
       8.202      -0.041       0.040     -999.25     -999.25
      46.830      48.061      34.985       0.179       3.256
       2.783    6408.163      -0.044
   11389.412
       8.155      -0.034       0.044     -999.25     -999.25
      47.345      49.727      37.809       0.183       3.219
       2.769    6408.163      -0.036
   11389.912
       8.106      -0.026       0.041     -999.25     -999.25
      48.235      51.665      39.146       0.186       3.204
       2.756    6407.917      -0.028
   11390.412
       8.113      -0.025       0.036     -999.25     -999.25
      48.951      53.210      40.713       0.185       3.204
       2.751    6387.786      -0.024
   11390.912
       8.133      -0.023       0.031     -999.25     -999.25
      49.587      53.901      42.801       0.184       3.204
       2.751    6387.755      -0.024
   11391.412
       8.153      -0.021       0.026     -999.25     -999.25
      50.315      54.040      42.149       0.184       3.205
       2.751    6387.755      -0.024
   11391.912
       8.176      -0.020       0.026     -999.25     -999.25
      51.014      54.037      41.230       0.185       3.224
       2.749    6387.755      -0.023
   11392.412
       8.180      -0.021       0.026     -999.25     -999.25
      51.545      54.034      42.003       0.187       3.227
       2.746    6387.755      -0.021
   11392.912
       8.180      -0.019       0.029     -999.25     -999.25
      51.755      54.031      42.096       0.189       3.247
       2.746    6387.755      -0.021
   11393.412
       8.180      -0.021       0.031     -999.25     -999.25
      51.984      54.028      42.844     -999.25       3.269
       2.743    6387.755      -0.020
   11393.912
       8.192      -0.016       0.032     -999.25     -999.25
      52.234      54.025      43.989     -999.25       3.302
       2.740    6387.755      -0.018
   11394.412
       8.204      -0.018       0.028     -999.25     -999.25
      52.732      54.022      44.800     -999.25       3.302
     -999.25    6387.755     -999.25
   11394.912
       8.187      -0.021       0.028     -999.25     -999.25
      53.003      54.019      46.433     -999.25       3.303
     -999.25    6387.755     -999.25
   11395.412
       8.167      -0.018       0.024     -999.25     -999.25
      53.230      54.016      49.129     -999.25       3.329
     -999.25    6387.755     -999.25
   11395.912
       8.157      -0.020       0.023     -999.25     -999.25
      53.739      54.013      47.755     -999.25       3.361
     -999.25    6387.755     -999.25
   11396.412
       8.173      -0.023       0.026     -999.25     -999.25
      54.138      54.010      44.033     -999.25       3.341
     -999.25    6387.755     -999.25
   11396.912
       8.180      -0.020       0.026     -999.25     -999.25
      53.768      54.007      45.738     -999.25       3.339
     -999.25    6387.755     -999.25
   11397.412
       8.193      -0.016       0.024     -999.25     -999.25
      53.197      54.004      46.870     -999.25       3.314
     -999.25    6387.755     -999.25
   11397.912
       8.198      -0.014       0.022     -999.25     -999.25
      52.977      54.001      46.866     -999.25       3.276
     -999.25    6387.755     -999.25
   11398.412
       8.213      -0.015       0.022     -999.25     -999.25
      52.973      53.998      47.144     -999.25       3.253
     -999.25    6387.755     -999.25
   11398.912
       8.233      -0.015       0.025     -999.25     -999.25
      53.168      53.995      46.846     -999.25       3.213
     -999.25    6387.755     -999.25
   11399.412
       8.240      -0.018       0.029     -999.25     -999.25
      53.481      53.992      46.162     -999.25       3.176
     -999.25    6387.755     -999.25
   11399.912
       8.255      -0.020       0.031     -999.25     -999.25
      53.712      53.989      46.170     -999.25       3.212
     -999.25    6387.757     -999.25
   11400.412
       8.260      -0.023       0.037     -999.25     -999.25
      53.992      53.987      44.873     -999.25       3.273
     -999.25    6387.906     -999.25
   11400.912
       8.260      -0.026       0.040     -999.25     -999.25
      54.221      53.985      42.764     -999.25       3.328
     -999.25    6388.106     -999.25
   11401.412
       8.247      -0.026       0.040     -999.25     -999.25
      54.505      53.983      42.529     -999.25       3.368
     -999.25    6388.306     -999.25
   11401.912
       8.240      -0.024       0.040     -999.25     -999.25
      54.742      53.981      46.679     -999.25       3.408
     -999.25    6388.506     -999.25
   11402.412
       8.226      -0.022       0.039     -999.25     -999.25
      54.999      53.978      50.903     -999.25       3.424
     -999.25    6388.706     -999.25
   11402.912
       8.219      -0.021       0.042     -999.25     -999.25
      55.264      53.976      50.883     -999.25       3.413
     -999.25    6388.906     -999.25
   11403.412
       8.204      -0.018       0.040     -999.25     -999.25
      55.793      53.974      48.943     -999.25       3.353
     -999.25    6389.106     -999.25
   11403.912
       8.198      -0.017       0.037     -999.25     -999.25
      56.312      54.163      49.494     -999.25       3.311
     -999.25    6389.306     -999.25
   11404.412
       8.198      -0.013       0.031     -999.25     -999.25
      57.060      55.069      51.075     -999.25       3.255
     -999.25    6389.507     -999.25
   11404.912
       8.184      -0.011       0.025     -999.25     -999.25
      58.213      55.823      52.637     -999.25       3.232
     -999.25    6389.745     -999.25
   11405.412
       8.178      -0.010       0.017     -999.25     -999.25
      59.332      56.701      52.936     -999.25       3.171
     -999.25    6389.945     -999.25
   11405.912
       8.178      -0.005       0.012     -999.25     -999.25
      60.448      57.442      53.134     -999.25       3.146
     -999.25    6390.145     -999.25
   11406.412
       8.177      -0.004       0.019     -999.25     -999.25
      61.556      57.987      54.012     -999.25       3.167
     -999.25    6390.345     -999.25
   11406.912
       8.177      -0.006       0.036     -999.25     -999.25
      62.696      58.862      55.051     -999.25       3.188
     -999.25    6390.545     -999.25
   11407.412
       8.177      -0.011       0.043     -999.25     -999.25
      63.126      59.460      56.688     -999.25       3.227
     -999.25    6390.745     -999.25
   11407.912
       8.177      -0.012       0.047     -999.25     -999.25
      61.363      59.091      54.598     -999.25       3.251
     -999.25    6390.945     -999.25
