~Version Information
 VERS.                 2.0: 
 WRAP.                 YES: 
 END.                PETRA:GeoPLUS Corporation
~Well Information Block
#MNEM.UNIT       Data Type    Information
#---------    -------------   ---------------------------------
 STRT.F             54.8640:
 STOP.F          11443.3640:
 STEP.F              0.5000:
 NULL.              -999.25:
 COMP.                           : COMPANY
 FLD.       BENEDUM              : FIELD
 LOC.                            : LOCATION
 DATE.      14-OCT-2016          : DATE
 WELL.                           : Well Name
 LABL.      42461338640000                   : Well Label
 APIN.      42461338640000       : API Number
 UWI.       42461338640000       : Unique Well Number
 NUMB.      1                    : Well Number
 OPER.      APACHE CORP          : Operator Name
 LEAS.      UNIVERSITY `4`       : Lease Name
~Parameter Block
#MNEM.UNIT           VALUE            Description
#---------    --------------------   ---------------------------------
 EKB.F                  2672.0 : KB Elevation
~Curve Information Block
#MNEM.UNIT      API CODE      Curve Description
#---------    -------------   ---------------------------------
 DEPT.F                   00 000 00 00: Depth (MD)
 DPLS.FRAC                00 001 00 00: DENSITY POROSITY  LIMESTONE
 DT.US/FT                 00 002 00 00: Delta-T Compressional
 GR.GAPI                  00 003 00 00: GAMMA RAY
 HCAL.IN                  00 004 00 00: HIGH RESOLUTION CALIPER
 HDRA.G/CM3               00 005 00 00: HIGH RESOLUTION DENSITY CORRECTION
 LLD.OHM.M                00 006 00 00: Laterolog Deep
 LLS.OHM.M                00 007 00 00: Laterolog Shallow
 PAY_TOC.                 00 008 00 00: TOC proxy
 PEFZ.B/E                 00 009 00 00: PHOTO ELECTRIC FACTOR - HIGH RESOLUTION
 RHOZ.G/CM3               00 010 00 00: BULK DENSITY - STD RESOLUTION
 RXOZ.OHM.M               00 011 00 00: RESISTIVITY OF FLUSHED ZONE - STD RESOLU
 TENS.LB                  00 012 00 00: Tension
 TNPH.V/V                 00 013 00 00: Thermal Neutron Porosity
 XDPHI.FRAC               00 014 00 00: 
~A
# ...
    9404.864
       0.070      80.841     114.519       8.533       0.012
      25.896      27.119       0.000       3.060       2.598
      16.291    3722.040       0.197       0.066
    9405.364
       0.067      81.803     117.323       8.532       0.012
      24.079      24.961       0.000       3.060       2.596
      15.032    3720.000       0.200       0.067
    9405.864
       0.069      82.648     122.062       8.473       0.009
      25.587      25.817       0.000       3.040       2.594
      15.283    3719.999       0.202       0.068
    9406.364
       0.074      83.543     125.829       8.471       0.007
      27.855      28.102       0.000       3.095       2.592
      15.293    3702.339       0.206       0.069
    9406.864
       0.078      83.922     124.835       8.452       0.016
      29.571      30.291       0.000       3.119       2.590
      15.606    3717.814       0.211       0.070
    9407.364
       0.082      81.895     117.694       8.431       0.025
      30.073      31.008       0.000       3.121       2.588
      14.964    3720.000       0.201       0.071
    9407.864
       0.084      74.601     102.844       8.429       0.033
      29.063      27.120       0.000       3.102       2.588
      14.408    3720.000       0.181       0.071
    9408.364
       0.083      68.825      80.038       8.412       0.041
      27.517      25.820       0.000       3.115       2.588
      13.667    3720.000       0.134       0.071
    9408.864
       0.077      59.594      54.795       8.372       0.044
      40.653      34.734       0.000       3.210       2.588
      16.244    3720.000       0.090       0.071
    9409.364
       0.048      54.622      39.945       8.347       0.034
      56.852      51.847       0.000       3.503       2.586
     121.017    3719.998       0.053       0.072
    9409.864
       0.004      52.499      42.760       8.347       0.024
     308.358     306.730       0.000       3.784       2.734
    1335.646    3703.629       0.047      -0.018
    9410.364
      -0.026      56.340      55.317       8.347       0.014
     595.059     583.008       0.000       4.084       2.740
     887.489    3698.390       0.054      -0.018
    9410.864
      -0.028      61.296      68.174       8.347       0.009
     247.972     142.449       0.000       4.207       2.739
     182.940    3718.240       0.083      -0.016
    9411.364
      -0.009      68.670      80.903       8.366       0.010
      54.213      70.203       0.000       4.071       2.667
      51.476    3720.000       0.122       0.031
    9411.864
       0.048      74.947      92.862       8.367       0.012
      30.537      44.740       0.000       3.789       2.620
      24.909    3720.000       0.151       0.055
    9412.364
       0.063      76.688      95.508       8.367       0.012
      21.091      25.495       0.000       3.586       2.619
      12.393    3720.000       0.168       0.055
    9412.864
       0.071      75.629      89.969       8.367       0.012
      18.580      22.916       0.000       3.367       2.575
       8.162    3720.000       0.160       0.079
    9413.364
       0.078      72.082      83.985       8.332       0.012
      23.447      30.660       0.000       3.210       2.577
       8.989    3720.000       0.138       0.077
    9413.864
       0.080      69.073      77.985       8.291       0.018
      38.462      44.325       0.000       3.177       2.581
      24.588    3720.000       0.121       0.075
    9414.364
       0.072      67.731      74.591       8.267       0.023
      53.434      69.939       0.000       3.213       2.587
      43.309    3720.000       0.107       0.071
    9414.864
       0.060      68.439      76.218       8.264       0.022
      60.305      74.751       0.000       3.272       2.591
      54.435    3720.000       0.101       0.069
    9415.364
       0.060      69.159      79.465       8.284       0.020
      60.572      70.074       0.000       3.332       2.597
      80.451    3720.000       0.103       0.065
    9415.864
       0.060      69.928      82.397       8.264       0.013
      46.494      45.947       0.000       3.392       2.601
      50.440    3720.000       0.105       0.063
    9416.364
       0.059      71.210      82.978       8.283       0.007
      42.885      35.951       0.000       3.438       2.608
      25.232    3720.000       0.107       0.059
    9416.864
       0.056      72.224      81.848       8.305       0.002
      41.720      33.403       0.000       3.392       2.612
      23.413    3720.000       0.107       0.057
    9417.364
       0.052      70.527      80.587       8.306       0.001
      39.870      32.164       0.000       3.274       2.616
      21.048    3720.000       0.106       0.055
    9417.864
       0.056      65.664      64.739       8.306       0.007
      38.378      31.255       0.000       3.218       2.622
      19.608    3737.857       0.094       0.051
    9418.364
       0.054      59.684      46.964       8.326       0.013
      55.993      44.582       0.000       3.375       2.632
      28.743    3740.000       0.069       0.045
    9418.864
       0.034      56.030      38.506       8.326       0.015
     189.375     191.919       0.000       3.811       2.637
     190.229    3740.000       0.050       0.042
    9419.364
       0.015      60.205      46.621       8.327       0.008
     755.084     781.264       0.000       4.159       2.643
    1948.838    3722.210       0.044       0.039
    9419.864
       0.011      67.370      64.178       8.394       0.011
     176.895     261.462       0.000       4.436       2.647
     126.783    3720.000       0.080       0.036
    9420.364
       0.031      77.655      81.514       8.497       0.039
      31.264      38.121       0.000       4.387       2.655
      11.988    3720.000       0.132       0.031
    9420.864
       0.058      84.413      97.730       8.599       0.079
      19.351      15.411       0.000       3.959       2.658
       6.495    3720.000       0.184       0.030
    9421.364
       0.091      85.595     106.392       9.195       0.123
      13.907      11.012       0.000       3.474       2.618
       4.215    3720.000       0.230       0.056
    9421.864
       0.132      85.559     111.597       8.894       0.168
       9.848       9.761       0.000       3.153       2.617
       3.437    3720.000       0.239       0.056
    9422.364
       0.156      85.172     117.079       9.373       0.180
       9.147       8.725       0.000       2.907       2.572
       2.845    3720.000       0.223       0.082
    9422.864
       0.159      85.453     122.130       8.666       0.160
      10.525       9.039       0.000       2.947       2.568
       3.272    3720.000       0.220       0.083
    9423.364
       0.076      85.723     124.839       8.615       0.142
      13.658      13.269       0.000       3.050       2.568
       5.148    3702.956       0.224       0.083
    9423.864
       0.073      85.337     123.706       8.594       0.108
      17.163      19.541       0.000       3.093       2.568
       6.430    3717.569       0.228       0.083
    9424.364
       0.081      84.965     121.308       8.663       0.062
      17.410      20.249       0.000       3.190       2.568
       7.312    3699.196       0.229       0.083
    9424.864
       0.087      84.954     119.847       8.730       0.062
      14.284      15.294       0.000       3.238       2.571
       6.455    3715.924       0.220       0.081
    9425.364
       0.085      84.673     119.505       8.721       0.071
      11.987      12.852       0.000       3.241       2.577
       5.641    3735.919       0.210       0.077
    9425.864
       0.078      84.254     118.442       8.660       0.075
      10.959      11.013       0.000       3.223       2.581
       7.322    3722.815       0.203       0.075
    9426.364
       0.072      83.892     116.768       8.616       0.056
      10.270      10.102       0.000       3.181       2.587
       5.707    3720.000       0.203       0.071
