~Version Information
 VERS.                 2.0: 
 WRAP.                 YES: 
 END.                PETRA:GeoPLUS Corporation
~Well Information Block
#MNEM.UNIT       Data Type    Information
#---------    -------------   ---------------------------------
 STRT.F             57.9120:
 STOP.F          11474.9360:
 STEP.F              0.5000:
 NULL.              -999.25:
 COMP.                           : COMPANY
 FLD.       BENEDUM              : FIELD
 LOC.                            : LOCATION
 DATE.      14-OCT-2016          : DATE
 WELL.                           : Well Name
 LABL.      42461342620000                   : Well Label
 APIN.      42461342620000       : API Number
 UWI.       42461342620000       : Unique Well Number
 NUMB.      1                    : Well Number
 OPER.      W T G EXPLORATION    : Operator Name
 LEAS.      UNIVERSITY `3-4`     : Lease Name
~Parameter Block
#MNEM.UNIT           VALUE            Description
#---------    --------------------   ---------------------------------
 EKB.F                  2682.0 : KB Elevation
~Curve Information Block
#MNEM.UNIT      API CODE      Curve Description
#---------    -------------   ---------------------------------
 DEPT.F                   00 000 00 00: Depth (MD)
 CALI.IN                  00 001 00 00: Density Caliper
 DPLS.FRAC                00 002 00 00: DENSITY POROSITY  LIMESTONE
 DRHO.G/CM3               00 003 00 00: Density Correction
 GRD.GAPI                 00 004 00 00: Guard
 GRR.GAPI                 00 005 00 00: Gamma Ray Resistivity Device
 LLD.OHM.M                00 006 00 00: Laterolog Deep
 LLS.OHM.M                00 007 00 00: Laterolog Shallow
 MSFL.OHM.M               00 008 00 00: MICRO SFL
 NPLS.FRAC                00 009 00 00: NEUTRON POROSITY  LIMESTONE
 PEF.B/E                  00 010 00 00: Photo-Electric Factor
 RHOB.G/CM3               00 011 00 00: Bulk Density
 TENS.LB                  00 012 00 00: Tension
 XDPHI.FRAC               00 013 00 00: 
~A
# ...
    8964.412
       9.128       0.095      -0.014      69.627      68.676
      37.937      39.065      50.134       0.175       3.133
       2.561    5428.198       0.089
    8964.912
       9.095       0.084      -0.012      68.720      70.940
      42.154      43.342      42.205       0.153       3.293
       2.575    5408.163       0.080
    8965.412
       9.055       0.081      -0.013      71.179      72.634
      44.887      46.545      38.083       0.133       3.439
       2.574    5408.163       0.080
    8965.912
       9.024       0.078      -0.016      73.240      70.695
      55.086      61.959     294.558       0.127       3.602
       2.584    5408.500       0.075
    8966.412
       9.020       0.065      -0.016      71.374      60.160
      77.728     137.716    1281.600       0.129       3.764
       2.601    5429.196       0.066
    8966.912
       9.010       0.052      -0.014      64.192      46.839
     727.727     268.256    1948.084       0.084       3.906
       2.635    5429.413       0.049
    8967.412
       8.974       0.036      -0.015      51.487      35.011
    3039.623    1197.613    2000.000       0.054       4.077
       2.693    5449.761       0.014
    8967.912
       8.947       0.008      -0.018      35.953      25.531
    4809.344    1877.878    2000.000       0.032       4.384
       2.714    5448.267      -0.001
    8968.412
       8.909      -0.004      -0.020      29.077      24.211
    3574.252    1735.894    1875.055       0.033       4.848
       2.724    5428.571      -0.007
    8968.912
       8.898      -0.008      -0.022      25.369      24.096
    1680.923    1113.591    1204.846       0.034       4.876
       2.729    5428.571      -0.011
    8969.412
       8.898      -0.011      -0.022      24.268      25.693
     333.492     399.058     831.266       0.034       4.856
       2.729    5428.571      -0.011
    8969.912
       8.912      -0.007      -0.024      24.352      30.603
     195.579     167.829     494.754       0.035       4.830
       2.719    5428.571      -0.008
    8970.412
       8.918       0.007      -0.024      26.298      38.324
      99.489      88.369     112.612       0.035       4.677
       2.684    5428.571       0.012
    8970.912
       8.918       0.021      -0.024      30.324      47.741
      55.236      48.919      53.208       0.035       4.539
       2.648    5428.571       0.032
    8971.412
       8.918       0.035      -0.019      36.322      62.470
      32.640      29.470      36.808       0.038       4.200
       2.614    5428.855       0.053
    8971.912
       8.932       0.048      -0.015      45.388      76.784
      24.816      22.931      22.496       0.055       3.983
       2.595    5448.979       0.063
    8972.412
       8.939       0.065      -0.013      56.314      86.808
      20.294      18.651      18.010       0.088       3.677
       2.561    5448.980       0.084
    8972.912
       8.939       0.081      -0.009      68.487      95.688
      17.702      16.648      23.707       0.137       3.372
       2.538    5448.651       0.099
    8973.412
       8.948       0.096      -0.006      80.908      98.341
      16.205      15.498      20.929       0.190       3.096
       2.521    5427.731       0.108
    8973.912
       8.985       0.107      -0.004      89.784      94.486
      14.462      13.745      11.461       0.215       2.938
       2.508    5427.442       0.118
    8974.412
       9.011       0.115      -0.002      94.517      91.213
      12.612      12.370      11.912       0.227       2.844
       2.508    5387.764       0.118
    8974.912
       9.045       0.119      -0.002      98.179      91.459
      11.212      11.175      15.118       0.233       2.804
       2.506    5408.612       0.118
    8975.412
       9.085       0.125       0.010      95.131      94.910
      10.828      10.490      11.646       0.230       2.844
       2.495    5408.975       0.126
    8975.912
       9.125       0.124       0.030      90.761     100.525
      10.497       9.978       5.962       0.233       2.867
       2.505    5428.571       0.120
    8976.412
       9.165       0.119       0.054      91.655     104.354
      10.720      10.261       5.345       0.243       2.900
       2.504    5428.571       0.120
    8976.912
       9.181       0.123       0.118      94.437      97.760
      15.294      14.920       7.956       0.250       2.900
       2.495    5428.963       0.121
    8977.412
       9.209       0.142       0.123      98.390      87.821
      23.506      22.797      18.043       0.255       2.899
       2.400    5448.979       0.180
    8977.912
       9.220       0.174       0.107     103.423      77.272
      36.611      35.555      45.464       0.261       2.879
       2.432    5448.980       0.169
    8978.412
       9.220       0.164       0.088     101.033      69.405
      52.431      50.440      49.394       0.264       2.912
       2.487    5448.809       0.135
    8978.912
       9.220       0.134       0.064      94.247      66.584
      64.433      60.755      38.252       0.221       2.999
       2.526    5428.566       0.112
    8979.412
       9.192       0.114       0.033      85.086      60.993
      73.903      70.201      79.691       0.178       3.101
       2.564    5428.571       0.089
    8979.912
       9.098       0.099       0.008      73.277      54.730
     103.458      98.405     193.677       0.143       3.207
       2.589    5428.571       0.072
    8980.412
       9.005       0.071       0.000      68.960      48.399
     155.109     135.619     207.495       0.104       3.381
       2.596    5428.571       0.067
    8980.912
       8.980       0.069      -0.006      65.770      42.492
     243.116     188.842     150.780       0.105       3.561
       2.596    5428.931       0.067
    8981.412
       8.954       0.067      -0.006      59.536      37.886
     283.647     235.562     138.426       0.102       3.735
       2.609    5471.428       0.062
    8981.912
       8.913       0.054      -0.006      52.622      36.144
     193.982     175.475     216.929       0.084       3.960
       2.639    5490.458       0.044
    8982.412
       8.892       0.045      -0.013      45.427      37.920
     113.318     102.025     193.267       0.062       4.182
       2.659    5489.020       0.032
    8982.912
       8.911       0.042      -0.021      39.449      42.514
      68.204      60.947      91.758       0.052       4.396
       2.678    5468.639       0.020
    8983.412
       8.918       0.029      -0.020      36.640      54.702
      38.739      34.352      37.280       0.045       4.490
       2.649    5467.991       0.032
    8983.912
       8.933       0.021      -0.012      36.823      71.202
      25.334      23.195      15.237       0.047       4.470
       2.614    5428.593       0.054
    8984.412
       8.926       0.037      -0.004      40.922      85.572
      19.356      17.629       8.945       0.051       4.246
       2.592    5428.571       0.065
    8984.912
       8.916       0.060       0.003      52.277      93.664
      14.969      14.080       8.959       0.073       3.841
       2.555    5428.571       0.087
    8985.412
       8.929       0.083       0.011      66.784      96.806
      12.675      12.373       9.532       0.114       3.444
       2.517    5428.876       0.109
    8985.912
       8.962       0.094       0.052      80.718      94.163
      12.142      11.444       7.763       0.148       3.201
       2.479    5449.632       0.131
    8986.412
       9.015       0.132       0.078      91.763      91.596
      12.142      11.814       5.346       0.220       2.979
       2.442    5449.793       0.153
    8986.912
       9.094       0.135       0.099      95.842      87.987
      12.793      15.511      12.842       0.254       2.860
       2.406    5467.917       0.174
    8987.412
       9.145       0.154       0.102      96.126      83.550
      15.593      19.671      22.773       0.273       2.860
       2.385    5447.592       0.186
