~Version Information
 VERS.                 2.0: 
 WRAP.                 YES: 
 END.                PETRA:GeoPLUS Corporation
~Well Information Block
#MNEM.UNIT       Data Type    Information
#---------    -------------   ---------------------------------
 STRT.F             54.8640:
 STOP.F          11443.3640:
 STEP.F              0.5000:
 NULL.              -999.25:
 COMP.                           : COMPANY
 FLD.       BENEDUM              : FIELD
 LOC.                            : LOCATION
 DATE.      14-OCT-2016          : DATE
 WELL.                           : Well Name
 LABL.      42461338640000                   : Well Label
 APIN.      42461338640000       : API Number
 UWI.       42461338640000       : Unique Well Number
 NUMB.      1                    : Well Number
 OPER.      APACHE CORP          : Operator Name
 LEAS.      UNIVERSITY `4`       : Lease Name
~Parameter Block
#MNEM.UNIT           VALUE            Description
#---------    --------------------   ---------------------------------
 EKB.F                  2672.0 : KB Elevation
~Curve Information Block
#MNEM.UNIT      API CODE      Curve Description
#---------    -------------   ---------------------------------
 DEPT.F                   00 000 00 00: Depth (MD)
 DPLS.FRAC                00 001 00 00: DENSITY POROSITY  LIMESTONE
 DT.US/FT                 00 002 00 00: Delta-T Compressional
 GR.GAPI                  00 003 00 00: GAMMA RAY
 HCAL.IN                  00 004 00 00: HIGH RESOLUTION CALIPER
 HDRA.G/CM3               00 005 00 00: HIGH RESOLUTION DENSITY CORRECTION
 LLD.OHM.M                00 006 00 00: Laterolog Deep
 LLS.OHM.M                00 007 00 00: Laterolog Shallow
 PAY_TOC.                 00 008 00 00: TOC proxy
 PEFZ.B/E                 00 009 00 00: PHOTO ELECTRIC FACTOR - HIGH RESOLUTION
 RHOZ.G/CM3               00 010 00 00: BULK DENSITY - STD RESOLUTION
 RXOZ.OHM.M               00 011 00 00: RESISTIVITY OF FLUSHED ZONE - STD RESOLU
 TENS.LB                  00 012 00 00: Tension
 TNPH.V/V                 00 013 00 00: Thermal Neutron Porosity
 XDPHI.FRAC               00 014 00 00: 
~A
# ...
    7424.864
       0.054      60.684      44.558       8.085       0.011
      26.768      21.579       0.000       3.092       2.614
      53.700    3222.054       0.089       0.055
    7425.364
       0.049      60.240      38.956       8.064       0.007
      41.992      38.837       0.000       3.152       2.644
      99.527    3204.236       0.083       0.037
    7425.864
       0.043      60.563      35.952       8.044       0.012
      52.777      64.952       0.000       3.231       2.647
     104.882    3184.241       0.084       0.037
    7426.364
       0.047      61.402      34.787       8.004       0.022
      50.371      65.150       0.000       3.274       2.636
      94.961    3213.044       0.088       0.045
    7426.864
       0.054      62.242      36.405       7.998       0.033
      47.646      62.725       0.000       3.340       2.622
      83.418    3217.562       0.092       0.053
    7427.364
       0.063      62.954      40.303       8.019       0.034
      45.058      59.862       0.000       3.323       2.621
      80.588    3235.764       0.097       0.053
    7427.864
       0.074      64.024      43.074       8.021       0.028
      42.614      56.728       0.000       3.303       2.608
      81.363    3255.763       0.102       0.061
    7428.364
       0.088      65.060      44.568       8.001       0.021
      40.309      53.265       0.000       3.233       2.595
      82.105    3259.606       0.108       0.068
    7428.864
       0.105      66.030      44.629       8.016       0.014
      37.844      50.413       0.000       3.132       2.505
      82.853    3278.104       0.114       0.123
    7429.364
       0.119      66.873      45.176       8.057       0.012
      34.237      46.849       0.000       3.050       2.493
      76.029    3280.000       0.117       0.128
    7429.864
       0.128      67.600      45.774       8.078       0.019
      31.753      43.867       0.000       2.992       2.487
      64.932    3280.000       0.121       0.131
    7430.364
       0.136      68.114      47.325       8.121       0.017
      29.241      41.117       0.000       2.891       2.479
      56.260    3280.000       0.123       0.136
    7430.864
       0.144      68.308      48.913       8.122       0.015
      27.725      38.287       0.000       2.789       2.465
      50.281    3280.000       0.125       0.144
    7431.364
       0.149      68.428      50.179       8.122       0.015
      27.113      38.186       0.000       2.736       2.459
      49.548    3280.000       0.129       0.147
    7431.864
       0.150      68.599      51.114       8.122       0.016
      27.573      38.186       0.000       2.733       2.453
      49.540    3280.000       0.132       0.151
    7432.364
       0.146      68.991      52.214       8.104       0.015
      27.470      37.965       0.000       2.753       2.449
      49.330    3264.859       0.135       0.153
    7432.864
       0.149      69.659      54.313       8.104       0.014
      26.276      36.049       0.000       2.759       2.445
      46.435    3244.235       0.139       0.156
    7433.364
       0.152      69.926      57.824       8.066       0.014
      25.319      34.358       0.000       2.720       2.439
      43.076    3207.590       0.141       0.159
    7433.864
       0.154      70.052      59.884       8.040       0.013
      23.981      33.073       0.000       2.678       2.435
      41.291    3195.487       0.140       0.161
    7434.364
       0.157      70.113      59.668       8.078       0.015
      23.237      32.047       0.000       2.656       2.431
      40.207    3232.714       0.138       0.164
    7434.864
       0.161      70.273      57.318       8.099       0.013
      22.929      32.014       0.000       2.635       2.428
      38.432    3257.376       0.135       0.165
    7435.364
       0.166      70.687      56.866       8.122       0.009
      23.334      32.014       0.000       2.633       2.428
      36.643    3259.109       0.136       0.165
    7435.864
       0.170      70.994      57.721       8.122       0.003
      23.771      32.283       0.000       2.614       2.426
      36.989    3276.583       0.138       0.166
    7436.364
       0.175      71.243      58.568       8.122       0.010
      23.643      32.325       0.000       2.616       2.426
      38.084    3279.010       0.137       0.166
    7436.864
       0.180      71.372      56.868       8.122       0.017
      23.570      32.048       0.000       2.577       2.424
      38.229    3296.676       0.135       0.167
    7437.364
       0.182      71.436      54.942       8.103       0.026
      24.190      32.201       0.000       2.536       2.422
      37.376    3301.692       0.132       0.168
    7437.864
       0.182      71.444      54.508       8.102       0.032
      24.655      33.682       0.000       2.454       2.420
      38.705    3283.377       0.130       0.170
    7438.364
       0.182      71.291      57.428       8.102       0.031
      25.357      34.704       0.000       2.431       2.418
      40.178    3280.980       0.129       0.171
    7438.864
       0.178      70.933      61.491       8.102       0.024
      25.420      35.366       0.000       2.411       2.420
      40.903    3265.541       0.129       0.170
    7439.364
       0.173      70.573      67.597       8.121       0.018
      25.692      36.029       0.000       2.407       2.423
      39.464    3226.488       0.127       0.167
    7439.864
       0.168      70.158      78.200       8.122       0.020
      22.406      35.301       0.000       2.424       2.428
      38.040    3217.538       0.125       0.164
    7440.364
       0.164      69.788      88.354       8.124       0.021
      17.406      28.764       0.000       2.464       2.447
      32.768    3238.300       0.127       0.152
    7440.864
       0.153      69.541      96.482       8.161       0.019
      13.304      18.728       0.000       2.505       2.466
      28.321    3240.000       0.134       0.141
    7441.364
       0.134      69.339     101.448       8.226       0.013
      10.537      16.448       0.000       2.546       2.484
      25.501    3240.000       0.142       0.131
    7441.864
       0.115      69.995     102.482       8.290       0.013
       9.861      14.357       0.000       2.603       2.485
      23.377    3275.359       0.150       0.131
    7442.364
       0.105      70.561      99.923       8.322       0.013
       9.554      13.322       0.000       2.665       2.503
      24.148    3280.000       0.152       0.119
    7442.864
       0.101      70.322      91.703       8.303       0.012
       9.840      14.221       0.000       2.726       2.522
      25.059    3280.000       0.154       0.109
    7443.364
       0.099      69.025      66.607       8.284       0.010
      10.326      17.203       0.000       2.807       2.541
      26.184    3280.000       0.143       0.098
    7443.864
       0.100      66.866      54.173       8.229       0.000
      19.639      23.107       0.000       2.869       2.537
      31.881    3280.000       0.116       0.102
    7444.364
       0.101      65.473      44.897       8.168       0.006
      29.266      36.131       0.000       2.931       2.531
      44.687    3280.000       0.092       0.105
    7444.864
       0.102      64.739      38.714       8.108       0.020
      42.568      57.833       0.000       2.927       2.525
      63.824    3280.000       0.087       0.109
    7445.364
       0.103      64.710      38.377       8.048       0.027
      52.627      74.337       0.000       2.847       2.519
      93.673    3279.999       0.086       0.112
    7445.864
       0.105      64.869      41.310       8.036       0.026
      54.469      74.960       0.000       2.780       2.513
      95.650    3262.341       0.093       0.116
    7446.364
       0.108      65.377      44.371       8.076       0.019
      52.560      71.215       0.000       2.777       2.507
      93.291    3260.000       0.099       0.119
