~Version Information
 VERS.                 2.0: 
 WRAP.                 YES: 
 END.                PETRA:GeoPLUS Corporation
~Well Information Block
#MNEM.UNIT       Data Type    Information
#---------    -------------   ---------------------------------
 STRT.F             54.8640:
 STOP.F          11443.3640:
 STEP.F              0.5000:
 NULL.              -999.25:
 COMP.                           : COMPANY
 FLD.       BENEDUM              : FIELD
 LOC.                            : LOCATION
 DATE.      14-OCT-2016          : DATE
 WELL.                           : Well Name
 LABL.      42461338640000                   : Well Label
 APIN.      42461338640000       : API Number
 UWI.       42461338640000       : Unique Well Number
 NUMB.      1                    : Well Number
 OPER.      APACHE CORP          : Operator Name
 LEAS.      UNIVERSITY `4`       : Lease Name
~Parameter Block
#MNEM.UNIT           VALUE            Description
#---------    --------------------   ---------------------------------
 EKB.F                  2672.0 : KB Elevation
~Curve Information Block
#MNEM.UNIT      API CODE      Curve Description
#---------    -------------   ---------------------------------
 DEPT.F                   00 000 00 00: Depth (MD)
 DPLS.FRAC                00 001 00 00: DENSITY POROSITY  LIMESTONE
 DT.US/FT                 00 002 00 00: Delta-T Compressional
 GR.GAPI                  00 003 00 00: GAMMA RAY
 HCAL.IN                  00 004 00 00: HIGH RESOLUTION CALIPER
 HDRA.G/CM3               00 005 00 00: HIGH RESOLUTION DENSITY CORRECTION
 LLD.OHM.M                00 006 00 00: Laterolog Deep
 LLS.OHM.M                00 007 00 00: Laterolog Shallow
 PAY_TOC.                 00 008 00 00: TOC proxy
 PEFZ.B/E                 00 009 00 00: PHOTO ELECTRIC FACTOR - HIGH RESOLUTION
 RHOZ.G/CM3               00 010 00 00: BULK DENSITY - STD RESOLUTION
 RXOZ.OHM.M               00 011 00 00: RESISTIVITY OF FLUSHED ZONE - STD RESOLU
 TENS.LB                  00 012 00 00: Tension
 TNPH.V/V                 00 013 00 00: Thermal Neutron Porosity
 XDPHI.FRAC               00 014 00 00: 
~A
# ...
    8744.864
      -0.002      50.455      27.114       8.319       0.010
    8253.350    5237.611       0.000       4.808       2.712
    2018.570    3592.984       0.018       0.000
    8745.364
      -0.001      50.380      28.424       8.320       0.008
    8614.564    5492.215       0.000       4.837       2.695
    2018.572    3603.473       0.020       0.011
    8745.864
       0.000      50.483      30.606       8.320       0.006
    7804.178    5437.463       0.000       4.874       2.675
    2036.240    3563.398       0.023       0.022
    8746.364
       0.003      51.511      36.754       8.319       0.004
    6467.528    4890.042       0.000       4.951       2.655
    1989.313    3560.000       0.033       0.034
    8746.864
       0.022      54.180      50.702       8.337      -0.002
    5360.599    4341.122       0.000       4.980       2.634
    1987.961    3560.000       0.054       0.046
    8747.364
       0.041      63.148      65.066       8.357      -0.009
    2336.630    2141.964       0.000       4.881       2.613
     516.789    3560.000       0.087       0.058
    8747.864
       0.057      72.154      82.442       8.359      -0.012
     289.909     384.284       0.000       4.290       2.593
      60.347    3560.000       0.145       0.070
    8748.364
       0.076      80.212     106.454       8.378      -0.008
      62.013      84.754       0.000       3.881       2.573
      28.165    3560.000       0.197       0.082
    8748.864
       0.095      85.009     117.079       8.379      -0.005
      29.020      30.632       0.000       3.288       2.553
      18.095    3560.002       0.209       0.094
    8749.364
       0.113      85.518     120.371       8.398       0.002
      25.338      28.980       0.000       2.907       2.533
      17.657    3577.891       0.214       0.105
    8749.864
       0.117      85.712     120.704       8.398       0.011
      24.965      30.805       0.000       2.757       2.510
      19.867    3580.000       0.221       0.118
    8750.364
       0.119      85.679     119.708       8.416       0.018
      35.899      35.173       0.000       2.787       2.508
      22.644    3580.000       0.226       0.118
    8750.864
       0.120      85.336     117.181       8.433       0.017
      35.516      35.562       0.000       2.869       2.505
      23.138    3580.000       0.224       0.119
    8751.364
       0.117      84.834     109.870       8.451       0.010
      31.804      34.012       0.000       2.931       2.511
      20.075    3597.932       0.220       0.116
    8751.864
       0.119      83.571     102.778       8.432       0.006
      31.149      36.141       0.000       2.992       2.517
      20.921    3600.000       0.220       0.112
    8752.364
       0.117      82.017      96.294       8.429       0.001
      37.009      38.581       0.000       3.034       2.523
      22.735    3600.000       0.219       0.109
    8752.864
       0.110      79.983      95.051       8.428      -0.004
      43.464      41.712       0.000       3.091       2.531
      24.007    3600.000       0.213       0.104
    8753.364
       0.105      79.907      96.840       8.447      -0.009
      50.921      48.138       0.000       3.171       2.537
      29.991    3618.788       0.206       0.101
    8753.864
       0.101      80.027      98.640       8.448      -0.010
      54.244      56.471       0.000       3.217       2.543
      35.667    3586.696       0.204       0.097
    8754.364
       0.101      80.446     100.353       8.469      -0.012
      46.198      55.944       0.000       3.223       2.549
      27.775    3564.130       0.204       0.094
    8754.864
       0.101      80.248      99.185       8.469      -0.013
      40.631      48.008       0.000       3.147       2.558
      20.156    3544.130       0.203       0.089
    8755.364
       0.096      79.044      96.769       8.469      -0.014
      47.498      53.770       0.000       3.135       2.558
      17.788    3524.130       0.198       0.089
    8755.864
       0.091      77.948      94.989       8.469      -0.015
      68.004      80.378       0.000       3.206       2.558
      30.167    3504.139       0.197       0.089
    8756.364
       0.089      77.856      96.082       8.489      -0.016
      83.074      83.567       0.000       3.343       2.558
      50.705    3545.405       0.201       0.089
    8756.864
       0.093      79.812     102.731       8.490      -0.009
      70.587      76.956       0.000       3.435       2.553
      45.901    3595.257       0.211       0.092
    8757.364
       0.098      81.568     109.339       8.490       0.002
      55.699      60.493       0.000       3.398       2.545
      36.830    3547.102       0.219       0.097
    8757.864
       0.105      82.591     111.737       8.490       0.009
      41.091      44.943       0.000       3.222       2.537
      29.514    3540.000       0.220       0.102
    8758.364
       0.112      83.256     109.781       8.490       0.015
      33.716      35.827       0.000       3.075       2.531
      23.614    3540.000       0.216       0.105
    8758.864
       0.118      82.943     107.042       8.490       0.020
      35.735      36.407       0.000       3.002       2.523
      21.188    3557.714       0.211       0.110
    8759.364
       0.124      82.391     105.149       8.490       0.023
      38.861      43.841       0.000       3.000       2.515
      26.433    3560.000       0.206       0.115
    8759.864
       0.123      82.453     104.917       8.508       0.024
      41.920      49.548       0.000       3.000       2.507
      30.639    3560.000       0.205       0.119
    8760.364
       0.121      82.921     105.494       8.509       0.022
      43.133      50.704       0.000       3.021       2.504
      30.080    3560.000       0.209       0.120
    8760.864
       0.120      82.778     105.894       8.530       0.020
      42.430      48.464       0.000       3.003       2.502
      30.623    3560.000       0.212       0.122
    8761.364
       0.120      80.430     104.749       8.531       0.021
      40.938      46.267       0.000       2.982       2.502
      26.233    3542.288       0.211       0.122
    8761.864
       0.122      78.120     100.493       8.531       0.026
      41.807      45.429       0.000       3.064       2.502
      24.964    3540.000       0.194       0.122
    8762.364
       0.107      76.653      96.780       8.531       0.031
      51.108      61.968       0.000       3.183       2.509
      34.525    3540.000       0.184       0.117
    8762.864
       0.085      77.318      97.464       8.531       0.034
      69.263      62.829       0.000       3.340       2.517
      38.982    3556.493       0.185       0.112
    8763.364
       0.077      80.105     103.555       8.531       0.034
      72.107      58.436       0.000       3.454       2.527
      39.065    3559.060       0.193       0.106
    8763.864
       0.090      84.346     108.153       8.550       0.028
      46.289      53.865       0.000       3.416       2.535
      29.766    3576.723       0.202       0.102
    8764.364
       0.123      84.912     109.368       8.551       0.023
      44.243      54.534       0.000       3.256       2.545
      25.794    3581.627       0.209       0.096
    8764.864
       0.127      83.698     108.433       8.551       0.020
      45.231      55.077       0.000       3.153       2.553
      25.473    3561.771       0.212       0.091
    8765.364
       0.124      82.020     106.016       8.551       0.017
      44.058      51.031       0.000       3.033       2.563
      24.576    3560.000       0.204       0.085
    8765.864
       0.114      80.422     101.917       8.551       0.014
      42.894      47.401       0.000       3.061       2.575
      27.287    3560.000       0.194       0.078
    8766.364
       0.097      79.046      98.132       8.551       0.012
      35.388      31.833       0.000       3.218       2.578
      25.979    3560.000       0.184       0.077
