~Version Information
 VERS.                 2.0: 
 WRAP.                 YES: 
 END.                PETRA:GeoPLUS Corporation
~Well Information Block
#MNEM.UNIT       Data Type    Information
#---------    -------------   ---------------------------------
 STRT.F             54.8640:
 STOP.F          11443.3640:
 STEP.F              0.5000:
 NULL.              -999.25:
 COMP.                           : COMPANY
 FLD.       BENEDUM              : FIELD
 LOC.                            : LOCATION
 DATE.      14-OCT-2016          : DATE
 WELL.                           : Well Name
 LABL.      42461338640000                   : Well Label
 APIN.      42461338640000       : API Number
 UWI.       42461338640000       : Unique Well Number
 NUMB.      1                    : Well Number
 OPER.      APACHE CORP          : Operator Name
 LEAS.      UNIVERSITY `4`       : Lease Name
~Parameter Block
#MNEM.UNIT           VALUE            Description
#---------    --------------------   ---------------------------------
 EKB.F                  2672.0 : KB Elevation
~Curve Information Block
#MNEM.UNIT      API CODE      Curve Description
#---------    -------------   ---------------------------------
 DEPT.F                   00 000 00 00: Depth (MD)
 DPLS.FRAC                00 001 00 00: DENSITY POROSITY  LIMESTONE
 DT.US/FT                 00 002 00 00: Delta-T Compressional
 GR.GAPI                  00 003 00 00: GAMMA RAY
 HCAL.IN                  00 004 00 00: HIGH RESOLUTION CALIPER
 HDRA.G/CM3               00 005 00 00: HIGH RESOLUTION DENSITY CORRECTION
 LLD.OHM.M                00 006 00 00: Laterolog Deep
 LLS.OHM.M                00 007 00 00: Laterolog Shallow
 PAY_TOC.                 00 008 00 00: TOC proxy
 PEFZ.B/E                 00 009 00 00: PHOTO ELECTRIC FACTOR - HIGH RESOLUTION
 RHOZ.G/CM3               00 010 00 00: BULK DENSITY - STD RESOLUTION
 RXOZ.OHM.M               00 011 00 00: RESISTIVITY OF FLUSHED ZONE - STD RESOLU
 TENS.LB                  00 012 00 00: Tension
 TNPH.V/V                 00 013 00 00: Thermal Neutron Porosity
 XDPHI.FRAC               00 014 00 00: 
~A
# ...
    4102.864
      -4.826      33.481      27.942      26.255       2.344
    -269.069     631.700     -999.25       3.362       2.454
    2584.590    2346.939       0.077     -999.25
    4103.364
      -4.829      33.528      30.085      26.237       2.346
    -271.210     630.860     -999.25       3.362       2.454
    2589.508    2346.939       0.073     -999.25
    4103.864
      -4.832      33.576      29.487      26.218       2.348
    -273.352     630.019     -999.25       3.362       2.454
    2594.423    2346.939       0.073     -999.25
    4104.364
      -4.835      33.623      27.115      26.200       2.351
    -275.493     629.177     -999.25       3.362       2.454
    2599.337    2346.939       0.073     -999.25
    4104.864
      -4.837      33.671      27.621      26.182       2.353
    -277.635     628.334     -999.25       3.362       2.454
    2604.249    2346.939       0.074     -999.25
    4105.364
      -4.840      33.718      28.762      26.163       2.356
    -279.777     627.490     -999.25       3.362       2.454
    2609.159    2346.939       0.078     -999.25
    4105.864
      -4.843      33.766      44.555      26.145       2.358
    -281.920     626.646     -999.25       3.362       2.454
    2614.068    2346.939       0.094     -999.25
    4106.364
      -4.846      33.814      46.531      26.126       2.360
    -284.062     625.800     -999.25       3.362       2.454
    2618.975    2346.939       0.119     -999.25
    4106.864
      -4.849      33.862      46.531      26.108       2.363
    -286.204     624.954     -999.25       3.362       2.454
    2623.880    2346.939       0.124     -999.25
    4107.364
      -4.851      33.910      46.531      26.090       2.365
    -288.347     624.107     -999.25       3.362       2.454
    2628.783    2346.939       0.124     -999.25
    4107.864
      -4.854      33.958      46.531      26.071       2.367
    -290.490     623.259     -999.25       3.362       2.454
    2633.684    2346.939       0.122     -999.25
    4108.364
      -4.857      34.005      45.075      26.053       2.370
    -292.633     622.410     -999.25       3.362       2.454
    2638.583    2346.939       0.118     -999.25
    4108.864
      -4.860      34.053      44.050      26.034       2.372
    -294.776     621.560     -999.25       3.362       2.454
    2643.481    2346.939       0.108     -999.25
    4109.364
      -4.862      34.102      42.661      26.015       2.374
    -296.919     620.710     -999.25       3.362       2.454
    2648.376    2329.211       0.106     -999.25
    4109.864
      -4.865      34.150      40.886      25.997       2.377
    -299.062     619.858     -999.25       3.362       2.454
    2653.270    2326.531       0.104     -999.25
    4110.364
      -4.868      34.198      39.301      25.978       2.379
    -301.205     619.006     -999.25       3.362       2.454
    2658.161    2326.531       0.102     -999.25
    4110.864
      -4.871      34.246      38.158      25.960       2.381
    -303.348     618.153     -999.25       3.362       2.454
    2663.051    2326.532       0.101     -999.25
    4111.364
      -4.874      34.294      38.100      25.941       2.384
    -305.492     617.299     -999.25       3.362       2.454
    2667.939    2344.358       0.100     -999.25
    4111.864
      -4.876      34.343      38.100      25.922       2.386
    -307.635     616.444     -999.25       3.362       2.454
    2672.825    2346.939       0.101     -999.25
    4112.364
      -4.879      34.391      37.878      25.904       2.388
    -309.779     615.589     -999.25       3.362       2.454
    2677.709    2346.939       0.104     -999.25
    4112.864
      -4.882      34.439      37.566      25.885       2.391
    -311.922     614.732     -999.25       3.362       2.454
    2682.590    2346.939       0.107     -999.25
    4113.364
      -4.885      34.488      37.657      25.866       2.393
    -314.066     613.875     -999.25       3.362       2.454
    2687.470    2346.939       0.107     -999.25
    4113.864
      -4.887      34.536      39.940      25.847       2.395
    -316.210     613.017     -999.25       3.362       2.454
    2692.348    2346.939       0.103     -999.25
    4114.364
      -4.890      34.585      40.200      25.829       2.398
    -318.353     612.158     -999.25       3.362       2.454
    2697.224    2346.939       0.101     -999.25
    4114.864
      -4.893      34.634      40.200      25.810       2.400
    -320.497     611.299     -999.25       3.362       2.454
    2702.097    2346.939       0.099     -999.25
    4115.364
      -4.895      34.682      35.260      25.791       2.402
    -322.641     610.438     -999.25       3.362       2.454
    2706.969    2346.939       0.099     -999.25
    4115.864
      -4.898      34.731      30.876      25.772       2.405
    -324.785     609.577     -999.25       3.362       2.454
    2711.838    2346.939       0.098     -999.25
    4116.364
      -4.901      34.780      31.131      25.753       2.407
    -326.928     608.715     -999.25       3.362       2.454
    2716.705    2346.939       0.107     -999.25
    4116.864
      -4.904      34.829      33.220      25.734       2.409
    -329.072     607.852     -999.25       3.362       2.455
    2721.571    2346.939       0.117     -999.25
    4117.364
      -4.906      34.878      34.418      25.715       2.411
    -331.216     606.988     -999.25       3.362       2.455
    2726.434    2346.939       0.118     -999.25
    4117.864
      -4.909      34.926      34.492      25.696       2.414
    -333.360     606.124     -999.25       3.362       2.455
    2731.294    2346.939       0.116     -999.25
    4118.364
      -4.912      34.975      34.597      25.677       2.416
    -335.503     605.258     -999.25       3.362       2.455
    2736.153    2346.939       0.115     -999.25
    4118.864
      -4.914      35.024      35.738      25.658       2.418
    -337.647     604.392     -999.25       3.362       2.455
    2741.010    2346.939       0.113     -999.25
    4119.364
      -4.917      35.074      36.937      25.639       2.421
    -339.791     603.525     -999.25       3.362       2.455
    2745.864    2346.939       0.112     -999.25
    4119.864
      -4.920      35.123      37.231      25.620       2.423
    -341.934     602.658     -999.25       3.362       2.455
    2750.716    2346.939       0.110     -999.25
    4120.364
      -4.922      35.172      33.940      25.601       2.425
    -344.078     601.789     -999.25       3.362       2.455
    2755.566    2346.939       0.108     -999.25
    4120.864
      -4.925      35.221      31.910      25.582       2.428
    -346.221     600.920     -999.25       3.362       2.455
    2760.414    2346.939       0.107     -999.25
    4121.364
      -4.928      35.270      29.802      25.563       2.430
    -348.365     600.050     -999.25       3.362       2.455
    2765.259    2346.939       0.105     -999.25
    4121.864
      -4.930      35.320      28.782      25.544       2.432
    -350.508     599.180     -999.25       3.362       2.455
    2770.102    2346.939       0.104     -999.25
    4122.364
      -4.933      35.369      28.974      25.525       2.434
    -352.652     598.308     -999.25       3.362       2.455
    2774.943    2346.939       0.103     -999.25
    4122.864
      -4.936      35.418      29.683      25.506       2.437
    -354.795     597.436     -999.25       3.362       2.455
    2779.781    2346.939       0.102     -999.25
    4123.364
      -4.938      35.468      31.900      25.487       2.439
    -356.938     596.563     -999.25       3.362       2.455
    2784.617    2346.939       0.102     -999.25
    4123.864
      -4.941      35.517      33.853      25.467       2.441
    -359.081     595.689     -999.25       3.362       2.455
    2789.451    2346.939       0.103     -999.25
    4124.364
      -4.943      35.567      35.230      25.448       2.444
    -361.224     594.815     -999.25       3.362       2.455
    2794.282    2346.939       0.105     -999.25
