~Version Information
 VERS.                 2.0: 
 WRAP.                 YES: 
 END.                PETRA:GeoPLUS Corporation
~Well Information Block
#MNEM.UNIT       Data Type    Information
#---------    -------------   ---------------------------------
 STRT.F             54.8640:
 STOP.F          11443.3640:
 STEP.F              0.5000:
 NULL.              -999.25:
 COMP.                           : COMPANY
 FLD.       BENEDUM              : FIELD
 LOC.                            : LOCATION
 DATE.      14-OCT-2016          : DATE
 WELL.                           : Well Name
 LABL.      42461338640000                   : Well Label
 APIN.      42461338640000       : API Number
 UWI.       42461338640000       : Unique Well Number
 NUMB.      1                    : Well Number
 OPER.      APACHE CORP          : Operator Name
 LEAS.      UNIVERSITY `4`       : Lease Name
~Parameter Block
#MNEM.UNIT           VALUE            Description
#---------    --------------------   ---------------------------------
 EKB.F                  2672.0 : KB Elevation
~Curve Information Block
#MNEM.UNIT      API CODE      Curve Description
#---------    -------------   ---------------------------------
 DEPT.F                   00 000 00 00: Depth (MD)
 DPLS.FRAC                00 001 00 00: DENSITY POROSITY  LIMESTONE
 DT.US/FT                 00 002 00 00: Delta-T Compressional
 GR.GAPI                  00 003 00 00: GAMMA RAY
 HCAL.IN                  00 004 00 00: HIGH RESOLUTION CALIPER
 HDRA.G/CM3               00 005 00 00: HIGH RESOLUTION DENSITY CORRECTION
 LLD.OHM.M                00 006 00 00: Laterolog Deep
 LLS.OHM.M                00 007 00 00: Laterolog Shallow
 PAY_TOC.                 00 008 00 00: TOC proxy
 PEFZ.B/E                 00 009 00 00: PHOTO ELECTRIC FACTOR - HIGH RESOLUTION
 RHOZ.G/CM3               00 010 00 00: BULK DENSITY - STD RESOLUTION
 RXOZ.OHM.M               00 011 00 00: RESISTIVITY OF FLUSHED ZONE - STD RESOLU
 TENS.LB                  00 012 00 00: Tension
 TNPH.V/V                 00 013 00 00: Thermal Neutron Porosity
 XDPHI.FRAC               00 014 00 00: 
~A
# ...
    3442.864
       0.002      49.014       8.688       8.655       0.010
     495.892     624.348     -999.25       4.891       2.720
     308.950    2185.460       0.394     -999.25
    3443.364
      -0.009      48.682       8.238       8.570       0.012
     173.662     213.671     -999.25       4.753       2.727
     164.614    2165.486       0.468     -999.25
    3443.864
      -0.012      49.285       8.504       8.525       0.016
     326.136     464.234     -999.25       4.939       2.742
     248.552    2163.265       0.518     -999.25
    3444.364
      -0.005      51.992       8.810       8.480       0.020
     260.882     262.373     -999.25       4.838       2.740
     204.801    2163.265       0.525     -999.25
    3444.864
       0.033      52.241       8.929       8.447       0.031
     648.797     718.791     -999.25       4.903       2.609
     562.746    2163.265       0.505     -999.25
    3445.364
       0.062      53.789       8.639       8.320       0.071
     537.731     577.741     -999.25       5.114       2.625
     476.490    2163.265       0.429     -999.25
    3445.864
       0.049      52.426       8.333       8.419       0.039
     378.656     369.410     -999.25       4.981       2.645
     316.832    2163.265       0.360     -999.25
    3446.364
       0.033      53.111       8.728       8.420       0.017
     274.013     291.932     -999.25       4.982       2.650
     639.743    2163.265       0.356     -999.25
    3446.864
       0.047      52.735       9.093       8.420       0.003
     366.220     428.722     -999.25       5.016       2.630
     592.693    2163.265       0.356     -999.25
    3447.364
       0.044      51.620       9.969       8.419       0.011
     278.988     335.155     -999.25       4.976       2.667
     481.887    2163.265       0.367     -999.25
    3447.864
       0.042      50.460      10.340       8.410       0.015
     256.125     316.572     -999.25       5.041       2.711
     407.348    2163.265       0.398     -999.25
    3448.364
       0.014      48.009      10.647       8.473       0.007
     423.520     460.052     -999.25       5.100       2.741
     361.915    2163.265       0.429     -999.25
    3448.864
      -0.014      48.459      10.424       8.435       0.013
     768.408     821.805     -999.25       5.038       2.754
     881.743    2163.265       0.439     -999.25
    3449.364
      -0.012      49.296      11.053       8.446       0.004
     485.732     573.648     -999.25       5.020       2.737
     334.103    2145.456       0.429     -999.25
    3449.864
      -0.016      60.281      12.444       8.469       0.006
     304.411     336.402     -999.25       5.020       2.731
     270.549    2142.857       0.401     -999.25
    3450.364
      -0.069      69.643      14.685       8.478       0.000
      25.705      33.230     -999.25       4.675       2.802
      23.332    2142.857       0.390     -999.25
    3450.864
      -0.032      71.399      17.655       8.513       0.042
      19.247      20.237     -999.25       3.591       2.746
      22.077    2142.857       0.371     -999.25
    3451.364
      -0.017      71.500      20.403       8.500       0.062
      20.186      20.562     -999.25       3.600       2.736
      22.754    2142.857       0.351     -999.25
    3451.864
      -0.007      71.676      23.344       8.526       0.025
      21.692      21.666     -999.25       3.566       2.729
      23.444    2142.857       0.364     -999.25
    3452.364
      -0.007      71.883      24.505       8.538       0.022
      22.339      21.931     -999.25       3.396       2.726
      24.270    2142.857       0.378     -999.25
    3452.864
      -0.012      72.310      19.018       8.542       0.035
      22.169      21.742     -999.25       3.472       2.733
      24.697    2142.857       0.410     -999.25
    3453.364
      -0.018      72.545      15.902       8.577       0.043
      21.705      21.931     -999.25       3.600       2.742
      23.177    2142.857       0.420     -999.25
    3453.864
      -0.014      72.696      13.155       8.512       0.024
      21.039      21.506     -999.25       3.449       2.740
      23.177    2142.857       0.385     -999.25
    3454.364
      -0.015      72.359      10.989       8.462       0.016
      20.943      21.271     -999.25       3.414       2.746
      23.392    2142.857       0.381     -999.25
    3454.864
      -0.020      71.943      10.153       8.420       0.013
      21.128      22.127     -999.25       3.420       2.750
      24.029    2158.882       0.382     -999.25
    3455.364
      -0.015      71.686      10.140       8.400       0.004
      22.022      23.177     -999.25       3.398       2.741
      25.415    2162.294       0.437     -999.25
    3455.864
      -0.005      71.958       9.864       8.392       0.000
      22.339      23.177     -999.25       3.456       2.730
      25.540    2181.453       0.490     -999.25
    3456.364
      -0.008      72.875       9.558       8.360      -0.004
      21.444      21.794     -999.25       3.404       2.731
      24.687    2183.674       0.456     -999.25
    3456.864
      -0.014      73.255       9.251       8.351      -0.005
      19.994      20.947     -999.25       3.449       2.744
      23.177    2183.674       0.417     -999.25
    3457.364
      -0.015      73.420       9.598       8.347       0.018
      20.372      21.333     -999.25       3.520       2.752
      21.643    2183.674       0.377     -999.25
    3457.864
      -0.024      73.179      10.465       8.347       0.018
      20.372      21.333     -999.25       3.520       2.749
      22.110    2183.674       0.352     -999.25
    3458.364
      -0.017      73.120      11.866       8.326       0.002
      20.561      21.333     -999.25       3.480       2.748
      22.963    2183.674       0.343     -999.25
    3458.864
      -0.024      73.120      13.636       8.294      -0.003
      20.561      21.333     -999.25       3.541       2.760
      22.495    2183.674       0.348     -999.25
    3459.364
      -0.024      72.862      15.732       8.287       0.005
      20.751      21.333     -999.25       3.540       2.755
      21.927    2183.674       0.354     -999.25
    3459.864
      -0.016      73.188      17.836       8.286       0.017
      20.956      21.854     -999.25       3.488       2.752
      23.096    2183.674       0.308     -999.25
    3460.364
      -0.019      73.707      19.552       8.265       0.005
      19.602      21.116     -999.25       3.540       2.748
      21.884    2183.674       0.296     -999.25
    3460.864
      -0.009      73.122      22.436       8.230      -0.001
      20.000      20.436     -999.25       3.420       2.739
      21.206    2183.674       0.312     -999.25
    3461.364
      -0.003      73.004      25.436       8.226      -0.004
      20.000      20.751     -999.25       3.332       2.722
      21.931    2183.674       0.347     -999.25
    3461.864
      -0.014      73.860      28.691       8.184       0.009
      20.000      20.943     -999.25       3.380       2.736
      22.134    2183.674       0.369     -999.25
    3462.364
      -0.013      74.434      29.945       8.139       0.024
      19.420      20.493     -999.25       3.400       2.755
      21.867    2183.674       0.438     -999.25
    3462.864
      -0.006      70.801      26.830       8.102       0.018
      19.097      19.474     -999.25       3.519       2.726
      20.844    2183.674       0.446     -999.25
    3463.364
      -0.005      64.956      23.530       8.066       0.019
      20.315      20.400     -999.25       3.577       2.713
      22.615    2183.674       0.445     -999.25
    3463.864
      -0.001      62.875      19.679       8.041       0.034
      24.089      25.452     -999.25       3.963       2.692
      18.348    2199.809       0.442     -999.25
    3464.364
       0.016      64.363      16.760       8.000       0.020
      31.001      31.226     -999.25       4.000       2.705
      30.103    2205.893       0.404     -999.25
