~Version Information
 VERS.                 2.0: 
 WRAP.                 YES: 
 END.                PETRA:GeoPLUS Corporation
~Well Information Block
#MNEM.UNIT       Data Type    Information
#---------    -------------   ---------------------------------
 STRT.F             57.9120:
 STOP.F          11474.9360:
 STEP.F              0.5000:
 NULL.              -999.25:
 COMP.                           : COMPANY
 FLD.       BENEDUM              : FIELD
 LOC.                            : LOCATION
 DATE.      14-OCT-2016          : DATE
 WELL.                           : Well Name
 LABL.      42461342620000                   : Well Label
 APIN.      42461342620000       : API Number
 UWI.       42461342620000       : Unique Well Number
 NUMB.      1                    : Well Number
 OPER.      W T G EXPLORATION    : Operator Name
 LEAS.      UNIVERSITY `3-4`     : Lease Name
~Parameter Block
#MNEM.UNIT           VALUE            Description
#---------    --------------------   ---------------------------------
 EKB.F                  2682.0 : KB Elevation
~Curve Information Block
#MNEM.UNIT      API CODE      Curve Description
#---------    -------------   ---------------------------------
 DEPT.F                   00 000 00 00: Depth (MD)
 CALI.IN                  00 001 00 00: Density Caliper
 DPLS.FRAC                00 002 00 00: DENSITY POROSITY  LIMESTONE
 DRHO.G/CM3               00 003 00 00: Density Correction
 GRD.GAPI                 00 004 00 00: Guard
 GRR.GAPI                 00 005 00 00: Gamma Ray Resistivity Device
 LLD.OHM.M                00 006 00 00: Laterolog Deep
 LLS.OHM.M                00 007 00 00: Laterolog Shallow
 MSFL.OHM.M               00 008 00 00: MICRO SFL
 NPLS.FRAC                00 009 00 00: NEUTRON POROSITY  LIMESTONE
 PEF.B/E                  00 010 00 00: Photo-Electric Factor
 RHOB.G/CM3               00 011 00 00: Bulk Density
 TENS.LB                  00 012 00 00: Tension
 XDPHI.FRAC               00 013 00 00: 
~A
# ...
    6543.912
       9.420       3.451      -1.058     105.299    -331.458
     131.252     247.072      21.595       0.243     -39.468
       1.804    4560.000     -999.25
    6544.412
       9.420       3.450      -1.059     105.240    -331.854
     131.221     246.982      21.589       0.247     -39.459
       1.804    4560.000     -999.25
    6544.912
       9.420       3.450      -1.059     101.731    -332.249
     131.190     246.892      21.582       0.242     -39.451
       1.804    4560.000     -999.25
    6545.412
       9.408       3.449      -1.059     102.335    -332.644
     131.159     246.802      21.576       0.230     -39.443
       1.804    4560.113     -999.25
    6545.912
       9.400       3.448      -1.059     102.935    -333.039
     131.128     246.712      21.569       0.201     -39.435
       1.804    4580.796     -999.25
    6546.412
       9.387       3.447      -1.059     103.536    -333.433
     131.096     246.622      21.563       0.182     -39.427
       1.804    4578.768     -999.25
    6546.912
       9.380       3.446      -1.059     104.722    -333.826
     131.065     246.532      21.556       0.163     -39.419
       1.804    4558.730     -999.25
    6547.412
       9.363       3.445      -1.059     104.699    -334.219
     131.034     246.442      21.550       0.182     -39.410
       1.804    4540.000     -999.25
    6547.912
       9.372       3.445      -1.059     105.179    -334.612
     131.003     246.352      21.543       0.192     -39.402
       1.804    4540.000     -999.25
    6548.412
       9.392       3.444      -1.059     118.012    -335.004
     130.971     246.262      21.537       0.220     -39.394
       1.804    4540.000     -999.25
    6548.912
       9.412       3.443      -1.060     124.456    -335.396
     130.940     246.172      21.530       0.228     -39.386
       1.804    4540.000     -999.25
    6549.412
       9.432       3.442      -1.060     127.644    -335.787
     130.909     246.082      21.524       0.221     -39.377
       1.804    4540.000     -999.25
    6549.912
       9.452       3.441      -1.060     127.204    -336.178
     130.877     245.991      21.517       0.210     -39.369
       1.804    4540.000     -999.25
    6550.412
       9.472       3.440      -1.060     116.185    -336.568
     130.846     245.901      21.511       0.201     -39.361
       1.804    4540.345     -999.25
    6550.912
       9.492       3.440      -1.060     109.737    -336.958
     130.814     245.811      21.505       0.194     -39.352
       1.804    4560.000     -999.25
    6551.412
       9.512       3.439      -1.060     106.982    -337.347
     130.783     245.720      21.498       0.195     -39.344
       1.804    4560.000     -999.25
    6551.912
       9.532       3.438      -1.060     104.243    -337.736
     130.751     245.630      21.492       0.201     -39.336
       1.804    4560.281     -999.25
    6552.412
       9.541       3.437      -1.060     101.543    -338.125
     130.720     245.540      21.485       0.201     -39.327
       1.804    4580.000     -999.25
    6552.912
       9.539       3.436      -1.060      98.843    -338.513
     130.688     245.449      21.479       0.198     -39.319
       1.804    4580.000     -999.25
    6553.412
       9.551       3.435      -1.061      96.215    -338.900
     130.656     245.359      21.472       0.193     -39.311
       1.804    4580.062     -999.25
    6553.912
       9.559       3.435      -1.061      98.708    -339.287
     130.625     245.268      21.466       0.188     -39.302
       1.804    4600.039     -999.25
    6554.412
       9.573       3.434      -1.061     105.787    -339.674
     130.593     245.178      21.459       0.189     -39.294
       1.804    4600.000     -999.25
    6554.912
       9.579       3.433      -1.061     115.177    -340.060
     130.561     245.087      21.453       0.205     -39.286
       1.804    4599.639     -999.25
    6555.412
       9.579       3.432      -1.061     115.257    -340.445
     130.530     244.996      21.447       0.228     -39.277
       1.804    4579.977     -999.25
    6555.912
       9.579       3.431      -1.061     109.915    -340.830
     130.498     244.906      21.440       0.226     -39.269
       1.804    4580.000     -999.25
    6556.412
       9.579       3.430      -1.061      99.603    -341.215
     130.466     244.815      21.434       0.205     -39.260
       1.804    4580.000     -999.25
    6556.912
       9.579       3.429      -1.061      89.451    -341.599
     130.435     244.724      21.427       0.195     -39.252
       1.804    4580.000     -999.25
    6557.412
       9.592       3.429      -1.061      82.083    -341.983
     130.403     244.634      21.421       0.173     -39.243
       1.804    4580.000     -999.25
    6557.912
       9.599       3.428      -1.061      76.993    -342.366
     130.371     244.543      21.414       0.142     -39.235
       1.804    4580.131     -999.25
    6558.412
       9.599       3.427      -1.062      82.453    -342.748
     130.339     244.452      21.408       0.142     -39.226
       1.804    4599.952     -999.25
    6558.912
       9.585       3.426      -1.062      92.073    -343.131
     130.307     244.361      21.402       0.143     -39.218
       1.804    4600.000     -999.25
    6559.412
       9.578       3.425      -1.062     102.003    -343.512
     130.275     244.270      21.395       0.177     -39.209
       1.804    4600.302     -999.25
    6559.912
       9.581       3.424      -1.062     113.108    -343.894
     130.243     244.179      21.389       0.193     -39.201
       1.804    4620.000     -999.25
    6560.412
       9.566       3.424      -1.062     115.232    -344.274
     130.211     244.088      21.382       0.226     -39.192
       1.804    4620.000     -999.25
    6560.912
       9.546       3.423      -1.062     114.718    -344.655
     130.179     243.997      21.376       0.224     -39.184
       1.804    4620.355     -999.25
    6561.412
       9.529       3.422      -1.062     107.638    -345.035
     130.147     243.906      21.370       0.200     -39.175
       1.804    4640.604     -999.25
    6561.912
       9.493       3.421      -1.062     100.386    -345.414
     130.115     243.815      21.363       0.156     -39.167
       1.804    4638.812     -999.25
    6562.412
       9.453       3.420      -1.062      93.497    -345.793
     130.083     243.724      21.357       0.161     -39.158
       1.804    4618.835     -999.25
    6562.912
       9.412       3.419      -1.062      86.347    -346.171
     130.051     243.633      21.350       0.159     -39.149
       1.804    4598.835     -999.25
    6563.412
       9.380       3.418      -1.063      86.356    -346.549
     130.019     243.542      21.344       0.156     -39.141
       1.804    4578.964     -999.25
    6563.912
       9.384       3.418      -1.063      92.539    -346.927
     129.987     243.451      21.338       0.153     -39.132
       1.804    4579.418     -999.25
    6564.412
       9.421       3.417      -1.063     101.100    -347.304
     129.955     243.360      21.331       0.152     -39.124
       1.804    4560.021     -999.25
    6564.912
       9.464       3.416      -1.063     112.377    -347.680
     129.923     243.268      21.325       0.166     -39.115
       1.804    4560.000     -999.25
    6565.412
       9.489       3.415      -1.063     122.172    -348.056
     129.890     243.177      21.318       0.186     -39.106
       1.805    4560.000     -999.25
    6565.912
       9.509       3.414      -1.063     123.685    -348.432
     129.858     243.086      21.312       0.187     -39.098
       1.805    4560.000     -999.25
    6566.412
       9.516       3.413      -1.063     123.377    -348.807
     129.826     242.994      21.306       0.201     -39.089
       1.805    4560.323     -999.25
    6566.912
       9.529       3.412      -1.063     113.797    -349.181
     129.794     242.903      21.299       0.216     -39.080
       1.805    4580.487     -999.25
