~Version Information
 VERS.                 2.0: 
 WRAP.                  NO: 
 END.                PETRA:GeoPLUS Corporation
~Well Information Block
#MNEM.UNIT       Data Type    Information
#---------    -------------   ---------------------------------
 STRT.F              0.0000:
 STOP.F          10696.1560:
 STEP.F              0.5000:
 NULL.              -999.25:
 COMP.                           : COMPANY
 FLD.       FLAT ROCK            : FIELD
 LOC.                            : LOCATION
 DATE.      14-OCT-2016          : DATE
 WELL.                           : Well Name
 LABL.      42461037730000                   : Well Label
 APIN.      42461037730000       : API Number
 UWI.       42461037730000       : Unique Well Number
 NUMB.      3                    : Well Number
 OPER.      OXY U S A INC        : Operator Name
 LEAS.      UNIVERSITY-AQ        : Lease Name
~Parameter Block
#MNEM.UNIT           VALUE            Description
#---------    --------------------   ---------------------------------
~Curve Information Block
#MNEM.UNIT      API CODE      Curve Description
#---------    -------------   ---------------------------------
 DEPT.F                   00 000 00 00: Depth (MD)
 ASN.OHM.M                00 001 00 00: AMPLIFIED SHORT NORMAL
 GR.GAPI                  00 002 00 00: GAMMA RAY
 LAT19.OHM.M              00 003 00 00: 
 LAT32.OHM.M              00 004 00 00: 
 SN.OHM.M                 00 005 00 00: 16-in Short Normal
 SP.MV                    00 006 00 00: Spontaneous Potential
 XGR.API                  00 007 00 00: gamma ray
~A        DEPT         ASN          GR       LAT19       LAT32          SN          SP         XGR
# ...
       850.500     -999.25       5.119      10.067       0.795       1.554     -999.25      20.671
       851.000     -999.25       5.026       9.898       0.803       1.554     -999.25      25.609
       851.500     -999.25       4.959       9.727       0.810       1.567     -999.25      34.083
       852.000     -999.25       4.934       9.562       0.810       1.566     -999.25      43.525
       852.500     -999.25       4.934       9.881       0.817       1.578     -999.25      47.425
       853.000     -999.25       4.976       9.979       0.825       1.578     -999.25      47.342
       853.500     -999.25       5.077      10.098       0.846       1.578     -999.25      47.999
       854.000     -999.25       5.203      10.215       0.868       1.591     -999.25      51.787
       854.500     -999.25       5.303      10.067       0.890       1.615     -999.25      50.687
       855.000     -999.25       5.336       9.904       0.911       1.627     -999.25      48.606
       855.500     -999.25       5.352       9.927       0.933       1.639     -999.25      49.921
       856.000     -999.25       5.302       9.952       0.955       1.663     -999.25      53.041
       856.500     -999.25       5.218      10.075       0.976       1.675     -999.25      55.595
       857.000     -999.25       5.142      10.194       0.998       1.699     -999.25      55.725
       857.500     -999.25       5.201      10.337       1.027       1.711     -999.25      53.122
       858.000     -999.25       5.268      10.432       1.049       1.735     -999.25      49.154
       858.500     -999.25       5.443      10.551       1.070       1.747     -999.25      45.728
       859.000     -999.25       5.601      10.645       1.092       1.759     -999.25      44.995
       859.500     -999.25       5.762      10.691       1.114       1.784     -999.25      43.371
       860.000     -999.25       5.921      10.690       1.135       1.796     -999.25      37.820
       860.500     -999.25       5.819      10.744       1.157       1.820     -999.25      28.003
       861.000     -999.25       5.718      10.934       1.179       1.832     -999.25      27.264
       861.500     -999.25       5.617      11.124       1.201       1.844     -999.25      35.708
       862.000     -999.25       5.651      11.315       1.230       1.868     -999.25      39.259
       862.500     -999.25       5.735      11.651       1.251       1.880     -999.25      36.277
       863.000     -999.25       5.820      11.886       1.265       1.892     -999.25      35.488
       863.500     -999.25       5.904      11.982       1.280       1.904     -999.25      41.427
       864.000     -999.25       5.988      12.325       1.302       1.904     -999.25      46.400
       864.500     -999.25       6.022      12.783       1.338       1.916     -999.25      49.247
       865.000     -999.25       5.979      13.144       1.382       1.928     -999.25      46.300
       865.500     -999.25       5.886      13.650       1.433       1.928     -999.25      47.675
       866.000     -999.25       5.828      14.058       1.476       1.928     -999.25      45.954
       866.500     -999.25       5.828      14.420       1.504       1.915     -999.25      45.539
       867.000     -999.25       5.896      14.759       1.510       1.891     -999.25      48.499
       867.500     -999.25       5.997      15.566       1.474       1.867     -999.25      53.504
       868.000     -999.25       6.115      16.257       1.438       1.843     -999.25      54.334
       868.500     -999.25       6.241      16.758       1.409       1.819     -999.25      51.372
       869.000     -999.25       6.232      17.011       1.380       1.795     -999.25      48.223
       869.500     -999.25       6.148      16.937       1.373       1.770     -999.25      45.079
       870.000     -999.25       6.064      16.842       1.374       1.722     -999.25      43.560
       870.500     -999.25       5.971      16.869       1.396       1.711     -999.25      44.527
       871.000     -999.25       5.930      16.968       1.425       1.711     -999.25      44.024
       871.500     -999.25       5.997      17.161       1.468       1.711     -999.25      40.240
       872.000     -999.25       6.064      17.330       1.458       1.698     -999.25      35.705
       872.500     -999.25       6.097      17.523       1.379       1.686     -999.25      31.175
       873.000     -999.25       6.047      17.678       1.299       1.650     -999.25      27.211
       873.500     -999.25       5.988      16.469       1.220       1.614     -999.25      25.215
       874.000     -999.25       5.929      14.897       1.133       1.590     -999.25      24.632
       874.500     -999.25       5.870      13.231       1.053       1.553     -999.25      27.004
       875.000     -999.25       5.794      11.334       0.944       1.480     -999.25      32.476
       875.500     -999.25       5.708      10.009       0.881       1.434     -999.25      34.877
       876.000     -999.25       5.458       8.279       0.845       1.434     -999.25      29.702
       876.500     -999.25       5.399       7.295       0.816       1.434     -999.25      24.823
       877.000     -999.25       5.141       6.722       0.780       1.434     -999.25      26.582
       877.500     -999.25       4.916       6.078       0.744       1.458     -999.25      38.491
       878.000     -999.25       4.824       5.342       0.752       1.471     -999.25      41.550
       878.500     -999.25       4.773       5.366       0.746       1.495     -999.25      44.403
       879.000     -999.25       4.782       5.700       0.789       1.519     -999.25      43.958
       879.500     -999.25       4.824       6.082       0.832       1.555     -999.25      42.039
       880.000     -999.25       4.867       6.538       0.883       1.591     -999.25      44.880
       880.500     -999.25       4.975       7.135       0.927       1.640     -999.25      48.893
       881.000     -999.25       5.084       7.802       1.001       1.688     -999.25      48.774
       881.500     -999.25       5.158       8.354       1.124       1.822     -999.25      46.929
       882.000     -999.25       5.108       8.765       1.239       1.906     -999.25      49.190
       882.500     -999.25       4.991       9.107       1.406       2.002     -999.25      54.972
       883.000     -999.25       4.773       9.473       1.521       2.086     -999.25      54.215
       883.500     -999.25       4.604       9.863       1.644       2.146     -999.25      48.863
       884.000     -999.25       4.546      10.076       1.767       2.206     -999.25      44.233
       884.500     -999.25       4.537      10.242       1.889       2.254     -999.25      40.997
       885.000     -999.25       4.665      10.359       1.958       2.290     -999.25      44.383
       885.500     -999.25       5.043      10.433       1.956       2.326     -999.25      38.395
       886.000     -999.25       5.251      10.673       1.920       2.350     -999.25      27.129
       886.500     -999.25       5.518      10.935       1.870       2.362     -999.25      22.709
       887.000     -999.25       6.025      11.173       1.827       2.374     -999.25      22.883
       887.500     -999.25       6.441      11.386       1.800       2.410     -999.25      29.020
       888.000     -999.25       6.545      11.457       1.800       2.434     -999.25      38.160
       888.500     -999.25       6.646      11.623       1.800       2.434     -999.25      43.765
       889.000     -999.25       6.562      11.791       1.793       2.434     -999.25      48.745
       889.500     -999.25       6.443      12.030       1.800       2.446     -999.25      50.884
       890.000     -999.25       6.333      12.271       1.800       2.458     -999.25      47.324
       890.500     -999.25       6.215      12.511       1.800       2.458     -999.25      40.854
