~Version Information
 VERS.                 2.0: 
 WRAP.                 YES: 
 END.                PETRA:GeoPLUS Corporation
~Well Information Block
#MNEM.UNIT       Data Type    Information
#---------    -------------   ---------------------------------
 STRT.F           1066.8000:
 STOP.F           7799.8000:
 STEP.F              0.5000:
 NULL.              -999.25:
 COMP.                           : COMPANY
 FLD.       FLAT ROCK            : FIELD
 LOC.                            : LOCATION
 DATE.      14-OCT-2016          : DATE
 WELL.                           : Well Name
 LABL.      42461318260000                   : Well Label
 APIN.      42461318260000       : API Number
 UWI.       42461318260000       : Unique Well Number
 NUMB.      1                    : Well Number
 OPER.      KIMBARK OIL & GAS CO : Operator Name
 LEAS.      UNIVERSITY `31-3`    : Lease Name
~Parameter Block
#MNEM.UNIT           VALUE            Description
#---------    --------------------   ---------------------------------
 EKB.F                  2786.0 : KB Elevation
~Curve Information Block
#MNEM.UNIT      API CODE      Curve Description
#---------    -------------   ---------------------------------
 DEPT.F                   00 000 00 00: Depth (MD)
 CALI.IN                  00 001 00 00: Density Caliper
 DPHI.FRAC                00 002 00 00: Density Porosity
 DRHO.G/CM3               00 003 00 00: Density Correction
 GR.GAPI                  00 004 00 00: GAMMA RAY
 ILD.OHM.M                00 005 00 00: Induction Deep Resistivity
 NPHI.FRAC                00 006 00 00: Neutron Porosity
 PAY_TOC.                 00 007 00 00: TOC proxy
 SP.MV                    00 008 00 00: Spontaneous Potential
~A
# ...
    5081.800
       9.218       0.114      -0.006      82.480       7.073
       0.226       0.000     -85.692
    5082.300
       9.237       0.114      -0.007      82.953       6.763
       0.228       0.000     -86.217
    5082.800
       9.245       0.115      -0.004      82.671       6.503
       0.223       0.000     -87.234
    5083.300
       9.274       0.123       0.001      81.293       6.340
       0.218       0.000     -88.261
    5083.800
       9.303       0.131       0.006      79.192       6.195
       0.215       0.000     -88.882
    5084.300
       9.313       0.125       0.010      75.636       6.155
       0.214       0.000     -89.493
    5084.800
       9.343       0.113       0.014      73.171       6.153
       0.212       0.000     -90.046
    5085.300
       9.349       0.103       0.018      70.768       6.158
       0.208       0.000     -90.498
    5085.800
       9.368       0.097       0.021      67.915       6.242
       0.200       0.000     -90.523
    5086.300
       9.374       0.094       0.022      61.804       6.379
       0.185       0.000     -90.539
    5086.800
       9.387       0.092       0.007      59.654       6.577
       0.173       0.000     -90.553
    5087.300
       9.387       0.089       0.015      63.899       6.615
       0.166       0.000     -90.349
    5087.800
       9.405       0.088       0.020      67.464       6.593
       0.164       0.000     -89.709
    5088.300
       9.424       0.089       0.023      70.571       6.551
       0.171       0.000     -89.110
    5088.800
       9.425       0.091       0.024      72.806       6.329
       0.182       0.000     -88.184
    5089.300
       9.425       0.098       0.023      73.897       6.076
       0.190       0.000     -87.564
    5089.800
       9.446       0.107       0.015      74.490       5.832
       0.186       0.000     -87.232
    5090.300
       9.462       0.115       0.013      73.506       5.553
       0.181       0.000     -86.831
    5090.800
       9.467       0.119       0.014      72.479       5.413
       0.181       0.000     -86.835
    5091.300
       9.480       0.121       0.018      73.597       5.341
       0.185       0.000     -86.849
    5091.800
       9.488       0.120       0.024      74.841       5.247
       0.188       0.000     -86.864
    5092.300
       9.499       0.118       0.028      74.910       5.232
       0.188       0.000     -86.879
    5092.800
       9.499       0.119       0.031      73.848       5.273
       0.188       0.000     -87.225
    5093.300
       9.499       0.120       0.032      72.723       5.321
       0.186       0.000     -87.629
    5093.800
       9.499       0.120       0.031      71.621       5.450
       0.184       0.000     -88.057
    5094.300
       9.518       0.118       0.025      71.008       5.647
       0.185       0.000     -88.462
    5094.800
       9.517       0.117       0.017      71.893       5.868
       0.190       0.000     -88.490
    5095.300
       9.537       0.119       0.011      75.720       6.183
       0.196       0.000     -88.507
    5095.800
       9.537       0.125       0.006      81.321       6.672
       0.204       0.000     -88.434
    5096.300
       9.537       0.128       0.002      85.634       7.204
       0.213       0.000     -87.965
    5096.800
       9.537       0.130       0.000      87.208       7.748
       0.209       0.000     -87.316
    5097.300
       9.537       0.126      -0.001      87.384       8.125
       0.207       0.000     -86.720
    5097.800
       9.537       0.123      -0.001      87.289       8.304
       0.211       0.000     -86.150
    5098.300
       9.555       0.124       0.000      87.375       8.269
       0.217       0.000     -85.576
    5098.800
       9.574       0.127       0.001      88.852       8.221
       0.222       0.000     -85.035
    5099.300
       9.574       0.128       0.004      90.616       7.978
       0.227       0.000     -84.419
    5099.800
       9.574       0.128       0.006      91.813       7.656
       0.230       0.000     -83.735
    5100.300
       9.574       0.125       0.009      91.854       7.256
       0.231       0.000     -83.139
    5100.800
       9.574       0.121       0.013      90.751       6.994
       0.229       0.000     -82.595
    5101.300
       9.574       0.113       0.016      88.211       6.630
       0.223       0.000     -82.197
    5101.800
       9.574       0.107       0.020      85.851       6.481
       0.217       0.000     -82.125
    5102.300
       9.574       0.113       0.020      84.461       6.329
       0.212       0.000     -82.686
    5102.800
       9.564       0.124       0.014      84.231       6.290
       0.209       0.000     -83.293
    5103.300
       9.553       0.134       0.010      81.100       6.262
       0.207       0.000     -84.236
    5103.800
       9.536       0.141       0.010      68.177       6.328
       0.205       0.000     -85.264
    5104.300
       9.536       0.143       0.010      63.177       6.535
       0.208       0.000     -86.344
    5104.800
       9.536       0.137       0.013      62.503       6.850
       0.209       0.000     -87.253
    5105.300
       9.530       0.131       0.016      63.492       7.092
       0.207       0.000     -87.962
    5105.800
       9.517       0.125       0.018      67.740       7.422
       0.207       0.000     -88.511
    5106.300
       9.517       0.122       0.020      73.723       7.550
       0.213       0.000     -88.841
    5106.800
       9.535       0.121       0.021      78.691       7.703
       0.218       0.000     -88.352
    5107.300
       9.535       0.120       0.020      82.122       7.708
       0.221       0.000     -88.160
    5107.800
       9.554       0.120       0.022      84.910       7.705
       0.219       0.000     -87.222
    5108.300
       9.595       0.126       0.071      86.517       7.610
       0.213       0.000     -86.627
    5108.800
       9.616       0.190       0.124      87.580       7.497
       0.212       0.000     -86.046
    5109.300
       9.666       0.206       0.165      87.058       7.213
       0.213       0.000     -85.850
    5109.800
       9.685       0.213       0.210      86.032       6.988
       0.224       0.000     -85.872
    5110.300
       9.722       0.183       0.227      84.930       6.721
       0.233       0.000     -85.884
    5110.800
       9.767       0.163       0.230      83.782       6.496
       0.235       0.000     -86.218
    5111.300
       9.797       0.152       0.239      82.218       6.310
       0.231       0.000     -86.876
    5111.800
       9.843       0.148       0.231      80.347       6.146
       0.221       0.000     -88.065
    5112.300
       9.892       0.223       0.194      78.011       5.983
       0.210       0.000     -89.439
    5112.800
       9.950       0.272       0.188      75.397       5.885
       0.203       0.000     -90.850
    5113.300
      10.041       0.290       0.186      72.354       5.854
       0.201       0.000     -92.396
    5113.800
      10.317       0.330       0.186      70.944       5.809
       0.202       0.000     -94.036
    5114.300
      10.460       0.371       0.185      68.578       5.814
       0.213       0.000     -96.113
    5114.800
      10.660       0.416       0.184      66.902       5.844
       0.227       0.000     -97.732
    5115.300
      10.314       0.402       0.162      65.863       5.972
       0.239       0.000    -100.891
    5115.800
       9.769       0.362       0.066      66.812       6.144
       0.248       0.000    -106.224
    5116.300
       9.680       0.350       0.025      75.003       6.332
       0.255       0.000    -107.498
    5116.800
       9.612       0.348       0.076      87.366       6.482
       0.254       0.000    -107.839
    5117.300
       9.563       0.366       0.112      91.736       6.577
       0.242       0.000    -104.138
    5117.800
       9.535       0.380       0.140      92.441       6.609
       0.235       0.000     -95.645
