~Version Information
 VERS.                 2.0: 
 WRAP.                 YES: 
 END.                PETRA:GeoPLUS Corporation
~Well Information Block
#MNEM.UNIT       Data Type    Information
#---------    -------------   ---------------------------------
 STRT.F             54.8640:
 STOP.F          11443.3640:
 STEP.F              0.5000:
 NULL.              -999.25:
 COMP.                           : COMPANY
 FLD.       BENEDUM              : FIELD
 LOC.                            : LOCATION
 DATE.      14-OCT-2016          : DATE
 WELL.                           : Well Name
 LABL.      42461338640000                   : Well Label
 APIN.      42461338640000       : API Number
 UWI.       42461338640000       : Unique Well Number
 NUMB.      1                    : Well Number
 OPER.      APACHE CORP          : Operator Name
 LEAS.      UNIVERSITY `4`       : Lease Name
~Parameter Block
#MNEM.UNIT           VALUE            Description
#---------    --------------------   ---------------------------------
 EKB.F                  2672.0 : KB Elevation
~Curve Information Block
#MNEM.UNIT      API CODE      Curve Description
#---------    -------------   ---------------------------------
 DEPT.F                   00 000 00 00: Depth (MD)
 DPLS.FRAC                00 001 00 00: DENSITY POROSITY  LIMESTONE
 DT.US/FT                 00 002 00 00: Delta-T Compressional
 GR.GAPI                  00 003 00 00: GAMMA RAY
 HCAL.IN                  00 004 00 00: HIGH RESOLUTION CALIPER
 HDRA.G/CM3               00 005 00 00: HIGH RESOLUTION DENSITY CORRECTION
 LLD.OHM.M                00 006 00 00: Laterolog Deep
 LLS.OHM.M                00 007 00 00: Laterolog Shallow
 PAY_TOC.                 00 008 00 00: TOC proxy
 PEFZ.B/E                 00 009 00 00: PHOTO ELECTRIC FACTOR - HIGH RESOLUTION
 RHOZ.G/CM3               00 010 00 00: BULK DENSITY - STD RESOLUTION
 RXOZ.OHM.M               00 011 00 00: RESISTIVITY OF FLUSHED ZONE - STD RESOLU
 TENS.LB                  00 012 00 00: Tension
 TNPH.V/V                 00 013 00 00: Thermal Neutron Porosity
 XDPHI.FRAC               00 014 00 00: 
~A
# ...
    2782.864
       0.054      81.655      14.219       8.654       0.008
      24.299      26.622     -999.25       3.400       2.583
      17.797    1980.000       0.270     -999.25
    2783.364
       0.085      78.380      13.607       8.771       0.012
      18.697      17.956     -999.25       2.985       2.598
      10.768    1980.000       0.287     -999.25
    2783.864
       0.067      83.100      13.036       8.883       0.016
      16.845      18.448     -999.25       3.317       2.598
      16.078    1980.000       0.383     -999.25
    2784.364
       0.081      83.867      11.922       8.967       0.017
      15.382      17.396     -999.25       2.885       2.572
       9.708    1980.000       0.445     -999.25
    2784.864
       0.111      73.751      10.637       9.023       0.051
      15.366      16.560     -999.25       2.970       2.532
       6.896    1980.000       0.462     -999.25
    2785.364
       0.067      72.324       9.696       9.000       0.009
      48.924      50.803     -999.25       3.484       2.526
      34.997    1980.000       0.477     -999.25
    2785.864
       0.056      77.933       8.777       9.020       0.000
      21.429      23.762     -999.25       3.628       2.582
      17.258    1980.000       0.487     -999.25
    2786.364
       0.082      80.993       8.227       9.020       0.006
      29.303      28.570     -999.25       3.256       2.612
      24.600    1980.000       0.480     -999.25
    2786.864
       0.086      81.538       8.697       9.037       0.008
      16.022      14.827     -999.25       3.000       2.575
      11.894    1980.000       0.456     -999.25
    2787.364
       0.090      74.622       9.567       9.040       0.008
      16.135      16.732     -999.25       3.125       2.556
      15.116    1980.000       0.441     -999.25
    2787.864
       0.028      77.495      10.754       9.040      -0.009
      23.025      22.214     -999.25       3.770       2.715
      19.771    1980.000       0.435     -999.25
    2788.364
       0.059      83.689      11.702       9.040      -0.008
      21.774      23.542     -999.25       3.570       2.700
      15.122    1980.000       0.575     -999.25
    2788.864
       0.107      81.103      13.122       9.002       0.022
      24.696      26.546     -999.25       3.041       2.627
      13.604    1980.000       0.693     -999.25
    2789.364
       0.091      80.173      14.360       8.915       0.022
      24.708      25.493     -999.25       2.963       2.558
      12.677    1980.000       0.699     -999.25
    2789.864
       0.086      79.704      17.328       8.854       0.008
      21.641      23.602     -999.25       3.012       2.538
      18.898    1980.000       0.699     -999.25
    2790.364
       0.082      72.916      22.088       8.827       0.022
      16.197      20.357     -999.25       3.203       2.559
      19.447    1980.000       0.506     -999.25
    2790.864
       0.056      78.649      25.579       8.734       0.012
      20.815      21.778     -999.25       3.581       2.598
      25.412    1980.000       0.401     -999.25
    2791.364
       0.078      83.041      26.033       8.690       0.010
      16.702      16.874     -999.25       3.211       2.608
      12.807    1980.000       0.282     -999.25
    2791.864
       0.090      78.363      26.333       8.641       0.014
       9.489      10.864     -999.25       3.051       2.601
      10.034    1980.000       0.234     -999.25
    2792.364
       0.080      78.439      26.091       8.575       0.015
      22.693      21.554     -999.25       3.283       2.592
      19.008    1997.400       0.209     -999.25
    2792.864
       0.077      81.034      24.126       8.529       0.005
      20.763      19.884     -999.25       3.362       2.584
      17.425    2000.000       0.194     -999.25
    2793.364
       0.083      62.957      22.548       8.481       0.026
      14.802      14.479     -999.25       2.957       2.574
       9.346    2000.000       0.191     -999.25
    2793.864
       0.036      68.441      20.835       8.380       0.026
      67.254      66.962     -999.25       3.769       2.565
     116.355    2000.000       0.204     -999.25
    2794.364
       0.046      77.949      18.217       8.408       0.015
      30.043      31.470     -999.25       3.762       2.664
      23.991    2000.000       0.229     -999.25
    2794.864
       0.064      73.262      16.493       8.476       0.023
      16.031      17.270     -999.25       3.627       2.656
      13.907    2000.000       0.287     -999.25
    2795.364
       0.059      83.911      15.247       8.490       0.015
      40.665      39.902     -999.25       3.650       2.629
      29.530    2000.000       0.335     -999.25
    2795.864
       0.061      88.054      14.325       8.528       0.011
      14.767      14.084     -999.25       3.452       2.611
      11.164    2000.000       0.360     -999.25
    2796.364
       0.122      81.347      13.131       8.571       0.012
      18.094      16.891     -999.25       3.090       2.585
      13.282    2000.000       0.395     -999.25
    2796.864
       0.081      76.443      11.907       8.571       0.016
      14.355      15.521     -999.25       3.111       2.579
      13.903    2000.000       0.498     -999.25
    2797.364
       0.057      81.706      10.420       8.571       0.015
      20.403      18.516     -999.25       3.433       2.599
      14.318    2000.000       0.560     -999.25
    2797.864
       0.085      82.111       9.553       8.571       0.015
      19.394      20.661     -999.25       3.464       2.586
      13.915    2000.000       0.621     -999.25
    2798.364
       0.083      83.521       9.424       8.571      -0.001
      32.676      39.190     -999.25       3.404       2.573
      25.404    2000.000       0.607     -999.25
    2798.864
       0.102      80.625       9.983       8.571       0.016
      25.380      24.267     -999.25       3.342       2.558
      17.309    2000.000       0.582     -999.25
    2799.364
       0.079      85.528      10.364       8.531       0.027
      31.807      37.317     -999.25       3.746       2.545
      27.968    2000.000       0.677     -999.25
    2799.864
       0.119      86.282      10.428       8.531       0.019
      34.461      38.738     -999.25       3.011       2.532
      30.672    2000.000       0.703     -999.25
    2800.364
       0.115      84.640      10.092       8.488       0.012
      24.264      26.040     -999.25       3.108       2.518
      16.401    2000.000       0.669     -999.25
    2800.864
       0.102      79.558      10.340       8.436       0.007
      25.902      28.666     -999.25       3.195       2.516
      19.959    2000.000       0.514     -999.25
    2801.364
       0.108      61.456      10.646       8.369       0.006
      24.492      26.201     -999.25       3.123       2.618
      22.153    2000.000       0.468     -999.25
    2801.864
       0.019      57.871      11.578       8.304       0.012
     199.338     205.681     -999.25       4.083       2.733
     363.715    2000.000       0.446     -999.25
    2802.364
       0.011      75.441      13.331       8.286       0.004
     272.229     282.825     -999.25       4.400       2.669
     312.710    2000.000       0.425     -999.25
    2802.864
       0.063      78.529      15.610       8.373       0.001
      18.606      13.920     -999.25       3.437       2.619
      12.487    2000.000       0.382     -999.25
    2803.364
       0.082      80.906      19.332       8.449       0.011
      34.165      40.099     -999.25       3.084       2.584
      32.643    2000.000       0.349     -999.25
    2803.864
       0.079      84.443      20.977       8.510       0.000
      32.111      36.544     -999.25       3.143       2.579
      12.561    2000.000       0.319     -999.25
    2804.364
       0.088      78.695      19.053       8.558       0.003
      15.547      16.034     -999.25       2.918       2.575
       9.887    2000.000       0.305     -999.25
