~Version Information
 VERS.                 2.0: 
 WRAP.                 YES: 
 END.                PETRA:GeoPLUS Corporation
~Well Information Block
#MNEM.UNIT       Data Type    Information
#---------    -------------   ---------------------------------
 STRT.F           1066.8000:
 STOP.F           7799.8000:
 STEP.F              0.5000:
 NULL.              -999.25:
 COMP.                           : COMPANY
 FLD.       FLAT ROCK            : FIELD
 LOC.                            : LOCATION
 DATE.      14-OCT-2016          : DATE
 WELL.                           : Well Name
 LABL.      42461318260000                   : Well Label
 APIN.      42461318260000       : API Number
 UWI.       42461318260000       : Unique Well Number
 NUMB.      1                    : Well Number
 OPER.      KIMBARK OIL & GAS CO : Operator Name
 LEAS.      UNIVERSITY `31-3`    : Lease Name
~Parameter Block
#MNEM.UNIT           VALUE            Description
#---------    --------------------   ---------------------------------
 EKB.F                  2786.0 : KB Elevation
~Curve Information Block
#MNEM.UNIT      API CODE      Curve Description
#---------    -------------   ---------------------------------
 DEPT.F                   00 000 00 00: Depth (MD)
 CALI.IN                  00 001 00 00: Density Caliper
 DPHI.FRAC                00 002 00 00: Density Porosity
 DRHO.G/CM3               00 003 00 00: Density Correction
 GR.GAPI                  00 004 00 00: GAMMA RAY
 ILD.OHM.M                00 005 00 00: Induction Deep Resistivity
 NPHI.FRAC                00 006 00 00: Neutron Porosity
 PAY_TOC.                 00 007 00 00: TOC proxy
 SP.MV                    00 008 00 00: Spontaneous Potential
~A
# ...
    5519.800
       8.767       0.172       0.088      97.450      15.754
       0.228       0.000     -93.058
    5520.300
       8.767       0.164       0.041      83.007      15.357
       0.220       0.000     -94.495
    5520.800
       8.766       0.176       0.014      77.587      14.481
       0.215       0.000     -95.567
    5521.300
       8.766       0.165       0.003      74.732      13.685
       0.214       0.000     -96.134
    5521.800
       8.766       0.151       0.004      73.257      13.026
       0.207       0.000     -96.395
    5522.300
       8.766       0.129       0.018      71.823      12.622
       0.199       0.000     -95.828
    5522.800
       8.784       0.118       0.034      70.842      12.391
       0.191       0.000     -91.948
    5523.300
       8.784       0.131       0.049      74.543      12.169
       0.188       0.000     -88.040
    5523.800
       8.784       0.145       0.057      90.789      12.080
       0.185       0.000     -85.105
    5524.300
       8.790       0.154       0.067      96.096      12.120
       0.230       0.000     -83.196
    5524.800
       8.802       0.159       0.074      97.167      12.449
       0.247       0.000     -81.764
    5525.300
       8.802       0.162       0.058      96.639      13.450
       0.264       0.000     -80.842
    5525.800
       8.802       0.151       0.038      95.799      14.595
       0.249       0.000     -80.133
    5526.300
       8.802       0.137       0.018      96.980      15.497
       0.234       0.000     -80.548
    5526.800
       8.802       0.137       0.012     100.902      15.700
       0.230       0.000     -81.465
    5527.300
       8.801       0.139       0.015     104.403      15.582
       0.234       0.000     -83.335
    5527.800
       8.783       0.138       0.019     106.319      15.165
       0.242       0.000     -85.689
    5528.300
       8.782       0.134       0.022      85.745      13.867
       0.229       0.000     -87.775
    5528.800
       8.782       0.130       0.025      75.984      11.737
       0.206       0.000     -89.346
    5529.300
       8.785       0.124       0.025     100.558      10.057
       0.195       0.000     -90.073
    5529.800
       8.793       0.138       0.024     112.023       9.072
       0.198       0.000     -90.141
    5530.300
       8.800       0.153       0.023     118.538       8.443
       0.222       0.000     -89.790
    5530.800
       8.807       0.163       0.013     122.970       8.224
       0.262       0.000     -89.263
    5531.300
       8.815       0.163       0.003     128.742       8.912
       0.271       0.000     -88.660
    5531.800
       8.822       0.156       0.002     124.460      10.263
       0.266       0.000     -88.072
    5532.300
       8.829       0.151       0.004     106.643      10.948
       0.233       0.000     -87.835
    5532.800
       8.836       0.145       0.006      96.121      11.305
       0.195       0.000     -87.492
    5533.300
       8.844       0.139       0.008      88.876      11.394
       0.184       0.000     -87.075
    5533.800
       8.851       0.130       0.008      85.480      11.090
       0.173       0.000     -87.069
    5534.300
       8.857       0.123       0.008      81.886      10.337
       0.166       0.000     -87.072
    5534.800
       8.857       0.118       0.008      77.575       9.283
       0.164       0.000     -87.076
    5535.300
       8.857       0.114       0.007      76.350       8.096
       0.160       0.000     -87.080
    5535.800
       8.857       0.111       0.008      75.638       7.515
       0.160       0.000     -87.084
    5536.300
       8.857       0.115       0.009      74.527       6.874
       0.166       0.000     -87.087
    5536.800
       8.857       0.121       0.011      71.668       6.498
       0.167       0.000     -86.744
    5537.300
       8.857       0.123       0.021      68.577       6.173
       0.167       0.000     -86.727
    5537.800
       8.858       0.121       0.031      66.677       5.857
       0.167       0.000     -86.362
    5538.300
       8.875       0.117       0.045      77.629       5.528
       0.167       0.000     -86.358
    5538.800
       8.895       0.116       0.074      86.353       5.235
       0.168       0.000     -85.930
    5539.300
       8.895       0.117       0.103      94.606       5.022
       0.173       0.000     -85.154
    5539.800
       8.895       0.130       0.133     104.112       4.898
       0.191       0.000     -84.629
    5540.300
       8.895       0.142       0.162     116.520       4.844
       0.202       0.000     -83.091
    5540.800
       8.895       0.154       0.192     120.038       5.017
       0.221       0.000     -81.741
    5541.300
       8.877       0.162       0.221     121.766       5.601
       0.247       0.000     -79.627
    5541.800
       8.858       0.112       0.251     123.562       6.711
       0.267       0.000     -78.179
    5542.300
       8.822       0.094       0.280     118.799       8.286
       0.280       0.000     -76.399
    5542.800
       8.756       0.127       0.260     107.186      10.834
       0.275       0.000     -74.986
    5543.300
       8.669       0.149       0.133      98.149      14.170
       0.254       0.000     -73.999
    5543.800
       8.611       0.189       0.040      87.303      17.549
       0.228       0.000     -73.055
    5544.300
       8.553       0.172       0.025      87.071      20.744
       0.212       0.000     -72.575
    5544.800
       8.483       0.149       0.040      93.106      22.813
       0.206       0.000     -72.817
    5545.300
       8.473       0.131       0.043      96.336      25.349
       0.204       0.000     -74.114
    5545.800
       8.444       0.127       0.040      98.330      26.563
       0.206       0.000     -75.506
    5546.300
       8.426       0.127       0.037      98.180      27.362
       0.211       0.000     -76.794
    5546.800
       8.406       0.127       0.036      96.736      27.766
       0.213       0.000     -77.205
    5547.300
       8.406       0.127       0.037      93.747      27.909
       0.220       0.000     -77.542
    5547.800
       8.406       0.126       0.040      91.478      28.346
       0.232       0.000     -77.506
    5548.300
       8.406       0.123       0.046      91.054      28.927
       0.236       0.000     -77.227
    5548.800
       8.406       0.119       0.050      91.393      29.560
       0.230       0.000     -77.188
    5549.300
       8.406       0.111       0.047      92.867      31.054
       0.225       0.000     -76.521
    5549.800
       8.406       0.101       0.040      93.648      32.525
       0.219       0.000     -75.934
    5550.300
       8.416       0.090       0.035      91.561      33.584
       0.215       0.000     -75.706
    5550.800
       8.425       0.084       0.027      90.799      34.904
       0.213       0.000     -75.168
    5551.300
       8.425       0.103       0.023      92.184      36.173
       0.214       0.000     -74.931
    5551.800
       8.425       0.144       0.017      94.752      36.944
       0.217       0.000     -74.955
    5552.300
       8.425       0.157       0.014      97.042      36.967
       0.236       0.000     -74.588
    5552.800
       8.443       0.150       0.009      98.108      36.965
       0.255       0.000     -74.209
    5553.300
       8.443       0.144       0.009      97.914      35.313
       0.245       0.000     -73.939
    5553.800
       8.453       0.138       0.013      96.912      33.613
       0.234       0.000     -73.206
    5554.300
       8.463       0.137       0.016      95.647      30.792
       0.246       0.000     -72.605
    5554.800
       8.481       0.145       0.018      94.860      28.944
       0.250       0.000     -71.941
    5555.300
       8.483       0.155       0.018      95.415      26.756
       0.240       0.000     -71.189
    5555.800
       8.512       0.162       0.015      98.372      25.090
       0.228       0.000     -70.724
