~Version Information
 VERS.                 2.0: 
 WRAP.                 YES: 
 END.                PETRA:GeoPLUS Corporation
~Well Information Block
#MNEM.UNIT       Data Type    Information
#---------    -------------   ---------------------------------
 STRT.F           1066.8000:
 STOP.F           7799.8000:
 STEP.F              0.5000:
 NULL.              -999.25:
 COMP.                           : COMPANY
 FLD.       FLAT ROCK            : FIELD
 LOC.                            : LOCATION
 DATE.      14-OCT-2016          : DATE
 WELL.                           : Well Name
 LABL.      42461318260000                   : Well Label
 APIN.      42461318260000       : API Number
 UWI.       42461318260000       : Unique Well Number
 NUMB.      1                    : Well Number
 OPER.      KIMBARK OIL & GAS CO : Operator Name
 LEAS.      UNIVERSITY `31-3`    : Lease Name
~Parameter Block
#MNEM.UNIT           VALUE            Description
#---------    --------------------   ---------------------------------
 EKB.F                  2786.0 : KB Elevation
~Curve Information Block
#MNEM.UNIT      API CODE      Curve Description
#---------    -------------   ---------------------------------
 DEPT.F                   00 000 00 00: Depth (MD)
 CALI.IN                  00 001 00 00: Density Caliper
 DPHI.FRAC                00 002 00 00: Density Porosity
 DRHO.G/CM3               00 003 00 00: Density Correction
 GR.GAPI                  00 004 00 00: GAMMA RAY
 ILD.OHM.M                00 005 00 00: Induction Deep Resistivity
 NPHI.FRAC                00 006 00 00: Neutron Porosity
 PAY_TOC.                 00 007 00 00: TOC proxy
 SP.MV                    00 008 00 00: Spontaneous Potential
~A
# ...
    3731.300
      11.039       0.145       0.010      16.505      40.025
       0.146       0.000     -93.452
    3731.800
      11.038       0.139       0.016      17.987      36.309
       0.144       0.000     -94.380
    3732.300
      11.038       0.130       0.024      20.157      32.832
       0.137       0.000     -95.093
    3732.800
      11.038       0.126       0.029      22.306      28.666
       0.130       0.000     -96.414
    3733.300
      11.020       0.124       0.033      23.784      26.163
       0.124       0.000     -96.688
    3733.800
      10.996       0.123       0.036      24.512      23.609
       0.123       0.000     -97.604
    3734.300
      10.971       0.127       0.037      24.987      22.428
       0.128       0.000     -98.181
    3734.800
      10.947       0.135       0.038      24.950      21.804
       0.137       0.000     -98.778
    3735.300
      10.922       0.140       0.030      23.589      21.314
       0.144       0.000     -99.376
    3735.800
      10.905       0.140       0.029      21.478      20.988
       0.146       0.000     -99.625
    3736.300
      10.905       0.136       0.032      19.067      20.977
       0.144       0.000    -100.317
    3736.800
      10.904       0.134       0.033      17.744      20.974
       0.140       0.000    -100.447
    3737.300
      10.904       0.138       0.032      17.083      20.978
       0.139       0.000    -101.100
    3737.800
      10.904       0.141       0.029      17.460      20.813
       0.148       0.000    -101.118
    3738.300
      10.885       0.139       0.028      18.175      20.627
       0.156       0.000    -101.488
    3738.800
      10.885       0.135       0.030      18.761      20.185
       0.155       0.000    -101.872
    3739.300
      10.885       0.131       0.034      18.768      19.626
       0.149       0.000    -102.266
    3739.800
      10.903       0.128       0.039      18.764      18.845
       0.142       0.000    -102.642
    3740.300
      10.903       0.134       0.042      18.670      17.861
       0.135       0.000    -103.073
    3740.800
      10.903       0.140       0.045      18.267      16.782
       0.133       0.000    -103.422
    3741.300
      10.902       0.139       0.045      17.541      15.737
       0.143       0.000    -103.529
    3741.800
      10.902       0.137       0.044      17.086      14.770
       0.149       0.000    -104.201
    3742.300
      10.902       0.141       0.041      16.642      14.111
       0.153       0.000    -104.230
    3742.800
      10.902       0.148       0.035      16.198      13.573
       0.154       0.000    -104.230
    3743.300
      10.902       0.155       0.031      15.926      13.245
       0.157       0.000    -104.231
    3743.800
      10.920       0.162       0.026      15.854      12.863
       0.161       0.000    -104.231
    3744.300
      10.919       0.168       0.023      16.385      12.782
       0.167       0.000    -104.232
    3744.800
      10.938       0.171       0.023      16.982      12.612
       0.164       0.000    -104.233
    3745.300
      10.956       0.169       0.023      18.015      12.605
       0.157       0.000    -104.233
    3745.800
      10.968       0.159       0.023      19.020      12.498
       0.153       0.000    -104.234
    3746.300
      10.993       0.154       0.023      20.016      12.419
       0.152       0.000    -104.234
    3746.800
      11.019       0.151       0.023      20.693      12.378
       0.154       0.000    -104.235
    3747.300
      11.049       0.152       0.024      21.191      12.375
       0.157       0.000    -104.235
    3747.800
      11.077       0.156       0.025      21.555      12.267
       0.159       0.000    -104.236
    3748.300
      11.124       0.157       0.027      21.281      12.262
       0.158       0.000    -104.237
    3748.800
      11.161       0.156       0.028      20.994      12.260
       0.154       0.000    -104.237
    3749.300
      11.206       0.151       0.031      20.617      12.259
       0.149       0.000    -104.238
    3749.800
      11.235       0.147       0.034      20.159      12.208
       0.144       0.000    -104.238
    3750.300
      11.292       0.142       0.038      19.725      12.155
       0.140       0.000    -104.239
    3750.800
      11.323       0.138       0.037      19.468      12.153
       0.138       0.000    -104.239
    3751.300
      11.348       0.135       0.033      20.163      12.042
       0.142       0.000    -104.240
    3751.800
      11.385       0.138       0.027      20.873      11.851
       0.145       0.000    -104.241
    3752.300
      11.405       0.141       0.020      20.244      11.713
       0.145       0.000    -104.592
    3752.800
      11.405       0.140       0.016      19.077      11.549
       0.142       0.000    -104.618
    3753.300
      11.403       0.136       0.012      17.696      11.312
       0.139       0.000    -104.848
    3753.800
      11.386       0.132       0.012      16.975      11.058
       0.136       0.000    -104.669
    3754.300
      11.386       0.138       0.013      17.319      10.769
       0.134       0.000    -104.255
    3754.800
      11.385       0.149       0.015      19.096      10.565
       0.139       0.000    -104.244
    3755.300
      11.385       0.148       0.024      20.985      10.412
       0.144       0.000    -104.245
    3755.800
      11.385       0.142       0.028      22.411      10.365
       0.149       0.000    -103.780
    3756.300
      11.385       0.147       0.032      23.134      10.363
       0.155       0.000    -103.523
    3756.800
      11.385       0.174       0.032      23.166      10.362
       0.176       0.000    -102.974
    3757.300
      11.384       0.177       0.031      23.054      10.522
       0.181       0.000    -102.738
    3757.800
      11.384       0.177       0.023      21.658      10.597
       0.187       0.000    -102.022
    3758.300
      11.384       0.177       0.017      20.104      10.885
       0.196       0.000    -101.552
    3758.800
      11.405       0.177       0.014      18.281      10.988
       0.194       0.000    -101.225
    3759.300
      11.420       0.179       0.014      16.788      11.278
       0.191       0.000    -100.749
    3759.800
      11.444       0.184       0.019      16.085      11.436
       0.193       0.000    -100.456
    3760.300
      11.494       0.194       0.023      16.164      11.689
       0.205       0.000     -99.937
    3760.800
      11.520       0.204       0.025      16.883      12.067
       0.213       0.000     -99.681
    3761.300
      11.568       0.203       0.025      18.488      12.467
       0.208       0.000     -99.274
    3761.800
      11.625       0.189       0.021      18.893      13.124
       0.189       0.000     -99.262
    3762.300
      11.665       0.173       0.017      19.386      13.919
       0.174       0.000     -99.224
    3762.800
      11.741       0.164       0.016      19.369      15.045
       0.163       0.000     -99.596
    3763.300
      11.799       0.156       0.015      18.968      16.360
       0.160       0.000     -99.981
    3763.800
      11.853       0.147       0.018      18.023      18.220
       0.170       0.000    -100.448
    3764.300
      11.879       0.133       0.021      16.991      20.007
       0.178       0.000    -101.114
    3764.800
      11.906       0.126       0.024      16.447      21.851
       0.177       0.000    -101.427
    3765.300
      11.932       0.125       0.026      16.309      23.455
       0.168       0.000    -101.886
    3765.800
      11.945       0.125       0.026      16.282      24.803
       0.159       0.000    -102.456
    3766.300
      11.944       0.132       0.026      16.637      26.035
       0.155       0.000    -102.695
    3766.800
      11.944       0.141       0.025      17.333      26.699
       0.152       0.000    -103.273
    3767.300
      11.934       0.150       0.025      17.638      27.246
       0.150       0.000    -103.511
