~Version Information
 VERS.                 2.0: 
 WRAP.                  NO: 
 END.                PETRA:GeoPLUS Corporation
~Well Information Block
#MNEM.UNIT       Data Type    Information
#---------    -------------   ---------------------------------
 STRT.F           1828.6476:
 STOP.F           8230.1476:
 STEP.F              0.5000:
 NULL.              -999.25:
 COMP.                           : COMPANY
 FLD.       SPRABERRY            : FIELD
 LOC.                            : LOCATION
 DATE.      14-OCT-2016          : DATE
 WELL.                           : Well Name
 LABL.      42461324180000                   : Well Label
 APIN.      42461324180000       : API Number
 UWI.       42461324180000       : Unique Well Number
 NUMB.      3                    : Well Number
 OPER.      PIONEER NAT RES USA  : Operator Name
 LEAS.      UNIVERSITY `8`       : Lease Name
~Parameter Block
#MNEM.UNIT           VALUE            Description
#---------    --------------------   ---------------------------------
 EKB.F                  2684.0 : KB Elevation
~Curve Information Block
#MNEM.UNIT      API CODE      Curve Description
#---------    -------------   ---------------------------------
 DEPT.F                   00 000 00 00: Depth (MD)
 CALI.IN                  00 001 00 00: Density Caliper
 DPHI.FRAC                00 002 00 00: Density Porosity
 DRHO.G/CM3               00 003 00 00: Density Correction
 GR.GAPI                  00 004 00 00: GAMMA RAY
 LGRD.OHM.M               00 005 00 00: Long Guard Resistivity
 NPHI.FRAC                00 006 00 00: Neutron Porosity
~A        DEPT        CALI        DPHI        DRHO          GR        LGRD        NPHI
# ...
      6888.648       8.984       0.112       0.045     108.563      54.643       0.200
      6889.148       8.984       0.106       0.049     102.713      49.681       0.192
      6889.648       8.984       0.102       0.054      96.358      46.195       0.191
      6890.148       8.985       0.101       0.059      87.873      42.607       0.203
      6890.648       8.985       0.106       0.062      80.575      55.814       0.207
      6891.148       8.985       0.120       0.067      89.681      69.299       0.211
      6891.648       8.985       0.141       0.070      96.133      66.048       0.211
      6892.148       8.986       0.153       0.070     105.259      58.470       0.203
      6892.648       8.986       0.202       0.069     116.305      52.180       0.198
      6893.148       8.986       0.228       0.065     116.360      38.781       0.190
      6893.648       8.987       0.262       0.062     109.678      36.618       0.183
      6894.148       8.987       0.281       0.058     104.773      42.001       0.174
      6894.648       8.987       0.286       0.052      99.534      47.106       0.168
      6895.148       8.987       0.278       0.045      95.326      52.651       0.163
      6895.648       8.988       0.265       0.037      89.233      62.692       0.164
      6896.148       8.988       0.252       0.031      80.073      81.175       0.171
      6896.648       9.005       0.238       0.025      90.167     101.766       0.182
      6897.148       9.006       0.221       0.018      98.637     124.631       0.195
      6897.648       9.006       0.189       0.015     107.289      96.314       0.203
      6898.148       9.023       0.171       0.013     114.554      61.457       0.208
      6898.648       9.024       0.161       0.009     119.815      42.127       0.212
      6899.148       9.024       0.149       0.008     120.052      36.983       0.214
      6899.648       9.041       0.142       0.008     117.048      34.677       0.217
      6900.148       9.042       0.134       0.008     115.893      33.761       0.215
      6900.648       9.042       0.128       0.008     115.238      34.419       0.211
      6901.148       9.059       0.124       0.012     114.343      36.959       0.208
      6901.648       9.060       0.123       0.016     113.554      39.156       0.204
      6902.148       9.060       0.124       0.019     112.545      39.206       0.201
      6902.648       9.060       0.126       0.018     109.632      34.714       0.196
      6903.148       9.061       0.127       0.016     111.507      34.356       0.192
      6903.648       9.060       0.126       0.013     114.721      37.780       0.188
      6904.148       9.086       0.122       0.009     113.343      41.419       0.185
      6904.648       9.113       0.117       0.007     103.745      45.821       0.182
      6905.148       9.130       0.112       0.004      97.262      48.923       0.179
      6905.648       9.132       0.108       0.002      94.998      53.753       0.175
      6906.148       9.170       0.103       0.004      97.127      59.216       0.172
      6906.648       9.200       0.095       0.006      97.267      64.431       0.171
      6907.148       9.201       0.088       0.011      96.140      65.465       0.181
      6907.648       9.221       0.080       0.015      96.084      59.130       0.194
      6908.148       9.269       0.081       0.020      96.987      54.000       0.199
      6908.648       9.270       0.088       0.022     100.815      48.463       0.203
      6909.148       9.287       0.096       0.023     103.866      42.520       0.209
      6909.648       9.319       0.105       0.024     108.279      39.116       0.213
      6910.148       9.340       0.113       0.023     112.883      31.447       0.209
      6910.648       9.356       0.123       0.028     118.574      26.256       0.205
      6911.148       9.392       0.133       0.027     126.505      22.810       0.199
      6911.648       9.410       0.137       0.010     121.939      23.561       0.195
      6912.148       9.411       0.135      -0.004     112.302      28.809       0.187
      6912.648       9.447       0.131      -0.005     105.586      32.301       0.181
      6913.148       9.480       0.127      -0.005     102.018      35.345       0.177
      6913.648       9.481       0.124      -0.001     102.479      34.593       0.173
      6914.148       9.484       0.120       0.002     104.334      22.953       0.176
      6914.648       9.515       0.116       0.004     105.458      19.955       0.177
      6915.148       9.533       0.113       0.007     105.015      17.876       0.177
      6915.648       9.551       0.110       0.009     103.768      18.012       0.175
      6916.148       9.552       0.108       0.012      99.499      19.824       0.172
      6916.648       9.552       0.105       0.015      96.842      20.818       0.169
      6917.148       9.553       0.102       0.017      95.922      21.690       0.165
      6917.648       9.553       0.099       0.021      95.140      16.791       0.156
      6918.148       9.553       0.096       0.024      95.126      16.168       0.144
      6918.648       9.553       0.094       0.028      75.885      16.325       0.134
      6919.148       9.562       0.095       0.032      73.112      19.363       0.126
      6919.648       9.571       0.099       0.035      76.532      24.297       0.127
      6920.148       9.587       0.104       0.038      81.903      24.947       0.131
      6920.648       9.605       0.110       0.041      86.391      23.535       0.142
      6921.148       9.569       0.117       0.041      90.229      19.704       0.150
      6921.648       9.555       0.122       0.024      94.884      16.670       0.157
      6922.148       9.555       0.121       0.006      92.615      16.218       0.159
      6922.648       9.555       0.114       0.001      92.883      19.016       0.158
      6923.148       9.556       0.103       0.002      95.589      22.217       0.152
      6923.648       9.556       0.094       0.005      99.033      25.452       0.143
      6924.148       9.556       0.083       0.008      97.759      29.565       0.136
      6924.648       9.556       0.071       0.012      81.839      39.249       0.129
      6925.148       9.557       0.064       0.018      69.689      48.521       0.126
      6925.648       9.557       0.056       0.021      72.107      39.297       0.127
      6926.148       9.557       0.059       0.022      78.217      32.483       0.132
      6926.648       9.558       0.067       0.022      84.599      25.637       0.139
      6927.148       9.558       0.074       0.022      89.894      20.548       0.145
      6927.648       9.558       0.084       0.020      91.257      17.723       0.151
      6928.148       9.577       0.089       0.018      90.329      15.906       0.156
      6928.648       9.620       0.092       0.017      88.901      15.148       0.153
      6929.148       9.627       0.094       0.016      88.794      14.914       0.153
      6929.648       9.661       0.093       0.020      90.935      15.716       0.153
      6930.148       9.683       0.089       0.025      94.369      17.051       0.154
      6930.648       9.697       0.085       0.031      96.991      18.380       0.155
      6931.148       9.697       0.090       0.035      94.243      20.237       0.156
      6931.648       9.731       0.096       0.036      92.253      24.258       0.158
      6932.148       9.756       0.102       0.035      91.873      27.983       0.161
      6932.648       9.768       0.107       0.034      94.641      29.141       0.163
      6933.148       9.768       0.111       0.031      97.815      28.474       0.166
      6933.648       9.785       0.114       0.029     102.845      27.435       0.168
      6934.148       9.794       0.115       0.025     110.516      24.543       0.174
