~Version Information
 VERS.                 2.0: 
 WRAP.                  NO: 
 END.                PETRA:GeoPLUS Corporation
~Well Information Block
#MNEM.UNIT       Data Type    Information
#---------    -------------   ---------------------------------
 STRT.F           1828.6476:
 STOP.F           8230.1476:
 STEP.F              0.5000:
 NULL.              -999.25:
 COMP.                           : COMPANY
 FLD.       SPRABERRY            : FIELD
 LOC.                            : LOCATION
 DATE.      14-OCT-2016          : DATE
 WELL.                           : Well Name
 LABL.      42461324180000                   : Well Label
 APIN.      42461324180000       : API Number
 UWI.       42461324180000       : Unique Well Number
 NUMB.      3                    : Well Number
 OPER.      PIONEER NAT RES USA  : Operator Name
 LEAS.      UNIVERSITY `8`       : Lease Name
~Parameter Block
#MNEM.UNIT           VALUE            Description
#---------    --------------------   ---------------------------------
 EKB.F                  2684.0 : KB Elevation
~Curve Information Block
#MNEM.UNIT      API CODE      Curve Description
#---------    -------------   ---------------------------------
 DEPT.F                   00 000 00 00: Depth (MD)
 CALI.IN                  00 001 00 00: Density Caliper
 DPHI.FRAC                00 002 00 00: Density Porosity
 DRHO.G/CM3               00 003 00 00: Density Correction
 GR.GAPI                  00 004 00 00: GAMMA RAY
 LGRD.OHM.M               00 005 00 00: Long Guard Resistivity
 NPHI.FRAC                00 006 00 00: Neutron Porosity
~A        DEPT        CALI        DPHI        DRHO          GR        LGRD        NPHI
# ...
      4358.648       5.068      -5.626      -6.056      96.071     440.067       0.236
      4359.148       5.068      -5.627      -6.059      96.061     439.052       0.236
      4359.648       5.068      -5.628      -6.062      96.051     438.037       0.236
      4360.148       5.068      -5.629      -6.065      96.041     437.022       0.236
      4360.648       5.069      -5.630      -6.069      96.031     436.007       0.236
      4361.148       5.069      -5.631      -6.072      96.021     434.992       0.236
      4361.648       5.069      -5.632      -6.075      96.011     433.978       0.236
      4362.148       5.069      -5.632      -6.078      96.001     432.963       0.236
      4362.648       5.070      -5.633      -6.081      95.992     431.948       0.236
      4363.148       5.070      -5.634      -6.084      95.982     430.933       0.236
      4363.648       5.070      -5.635      -6.088      95.972     429.918       0.236
      4364.148       5.070      -5.636      -6.091      95.962     428.904       0.236
      4364.648       5.070      -5.637      -6.094      95.952     427.889       0.236
      4365.148       5.071      -5.638      -6.097      95.942     426.874       0.236
      4365.648       5.071      -5.639      -6.100      95.932     425.860       0.236
      4366.148       5.071      -5.640      -6.104      95.922     424.845       0.236
      4366.648       5.071      -5.641      -6.107      95.913     423.831       0.236
      4367.148       5.072      -5.641      -6.110      95.903     422.816       0.236
      4367.648       5.072      -5.642      -6.113      95.893     421.802       0.236
      4368.148       5.072      -5.643      -6.116      95.883     420.787       0.236
      4368.648       5.072      -5.644      -6.119      95.873     419.773       0.236
      4369.148       5.072      -5.645      -6.123      95.863     418.759       0.236
      4369.648       5.073      -5.646      -6.126      95.854     417.744       0.236
      4370.148       5.073      -5.647      -6.129      95.844     416.730       0.236
      4370.648       5.073      -5.648      -6.132      95.834     415.716       0.236
      4371.148       5.073      -5.649      -6.135      95.824     414.702       0.236
      4371.648       5.074      -5.650      -6.138      95.814     413.688       0.236
      4372.148       5.074      -5.650      -6.142      95.805     412.673       0.236
      4372.648       5.074      -5.651      -6.145      95.795     411.659       0.236
      4373.148       5.074      -5.652      -6.148      95.785     410.645       0.236
      4373.648       5.075      -5.653      -6.151      95.775     409.631       0.236
      4374.148       5.075      -5.654      -6.154      95.766     408.617       0.236
      4374.648       5.075      -5.655      -6.157      95.756     407.604       0.236
      4375.148       5.075      -5.656      -6.160      95.746     406.590       0.236
      4375.648       5.075      -5.657      -6.164      95.736     405.576       0.236
      4376.148       5.076      -5.658      -6.167      95.727     404.562       0.236
      4376.648       5.076      -5.658      -6.170      95.717     403.548       0.236
      4377.148       5.076      -5.659      -6.173      95.707     402.535       0.236
      4377.648       5.076      -5.660      -6.176      95.697     401.521       0.236
      4378.148       5.077      -5.661      -6.179      95.688     400.507       0.236
      4378.648       5.077      -5.662      -6.182      95.678     399.494       0.236
      4379.148       5.077      -5.663      -6.186      95.668     398.480       0.236
      4379.648       5.077      -5.664      -6.189      95.658     397.467       0.236
      4380.148       5.078      -5.665      -6.192      95.649     396.454       0.236
      4380.648       5.078      -5.665      -6.195      95.639     395.440       0.236
      4381.148       5.078      -5.666      -6.198      95.629     394.427       0.236
      4381.648       5.078      -5.667      -6.201      95.620     393.414       0.236
      4382.148       5.079      -5.668      -6.204      95.610     392.400       0.236
      4382.648       5.079      -5.669      -6.208      95.600     391.387       0.236
      4383.148       5.079      -5.670      -6.211      95.591     390.374       0.236
      4383.648       5.079      -5.671      -6.214      95.581     389.361       0.236
      4384.148       5.079      -5.671      -6.217      95.571     388.348       0.236
      4384.648       5.080      -5.672      -6.220      95.562     387.335       0.236
      4385.148       5.080      -5.673      -6.223      95.552     386.322       0.236
      4385.648       5.080      -5.674      -6.226      95.542     385.309       0.236
      4386.148       5.080      -5.675      -6.229      95.533     384.297       0.236
      4386.648       5.081      -5.676      -6.233      95.523     383.284       0.236
      4387.148       5.081      -5.677      -6.236      95.513     382.271       0.236
      4387.648       5.081      -5.677      -6.239      95.504     381.259       0.236
      4388.148       5.081      -5.678      -6.242      95.494     380.246       0.236
      4388.648       5.082      -5.679      -6.245      95.485     379.233       0.236
      4389.148       5.082      -5.680      -6.248      95.475     378.221       0.236
      4389.648       5.082      -5.681      -6.251      95.465     377.209       0.236
      4390.148       5.082      -5.682      -6.254      95.456     376.196       0.236
      4390.648       5.083      -5.683      -6.258      95.446     375.184       0.236
      4391.148       5.083      -5.683      -6.261      95.437     374.172       0.236
      4391.648       5.083      -5.684      -6.264      95.427     373.160       0.236
      4392.148       5.083      -5.685      -6.267      95.417     372.147       0.236
      4392.648       5.084      -5.686      -6.270      95.408     371.135       0.236
      4393.148       5.084      -5.687      -6.273      95.398     370.123       0.236
      4393.648       5.084      -5.688      -6.276      95.389     369.111       0.236
      4394.148       5.084      -5.689      -6.279      95.379     368.100       0.236
      4394.648       5.085      -5.689      -6.282      95.370     367.088       0.236
      4395.148       5.085      -5.690      -6.285      95.360     366.076       0.236
      4395.648       5.085      -5.691      -6.289      95.351     365.064       0.236
      4396.148       5.085      -5.692      -6.292      95.341     364.053       0.236
      4396.648       5.086      -5.693      -6.295      95.332     363.041       0.236
      4397.148       5.086      -5.694      -6.298      95.322     362.030       0.236
      4397.648       5.086      -5.694      -6.301      95.313     361.018       0.236
      4398.148       5.086      -5.695      -6.304      95.303     360.007       0.236
      4398.648       5.087      -5.696      -6.307      95.294     358.995       0.236
      4399.148       5.087      -5.697      -6.310      95.284     357.984       0.236
      4399.648       5.087      -5.698      -6.313      95.275     356.973       0.236
      4400.148       5.088      -5.699      -6.316      95.265     355.962       0.236
      4400.648       5.088      -5.699      -6.319      95.256     354.951       0.236
      4401.148       5.088      -5.700      -6.323      95.246     353.940       0.236
      4401.648       5.088      -5.701      -6.326      95.237     352.929       0.236
      4402.148       5.089      -5.702      -6.329      95.227     351.918       0.236
      4402.648       5.089      -5.703      -6.332      95.218     350.907       0.236
      4403.148       5.089      -5.703      -6.335      95.208     349.897       0.236
      4403.648       5.089      -5.704      -6.338      95.199     348.886       0.236
      4404.148       5.090      -5.705      -6.341      95.189     347.876       0.236
