~Version Information
 VERS.                 2.0: 
 WRAP.                 YES: 
 END.                PETRA:GeoPLUS Corporation
~Well Information Block
#MNEM.UNIT       Data Type    Information
#---------    -------------   ---------------------------------
 STRT.F             57.9120:
 STOP.F          11474.9360:
 STEP.F              0.5000:
 NULL.              -999.25:
 COMP.                           : COMPANY
 FLD.       BENEDUM              : FIELD
 LOC.                            : LOCATION
 DATE.      14-OCT-2016          : DATE
 WELL.                           : Well Name
 LABL.      42461342620000                   : Well Label
 APIN.      42461342620000       : API Number
 UWI.       42461342620000       : Unique Well Number
 NUMB.      1                    : Well Number
 OPER.      W T G EXPLORATION    : Operator Name
 LEAS.      UNIVERSITY `3-4`     : Lease Name
~Parameter Block
#MNEM.UNIT           VALUE            Description
#---------    --------------------   ---------------------------------
 EKB.F                  2682.0 : KB Elevation
~Curve Information Block
#MNEM.UNIT      API CODE      Curve Description
#---------    -------------   ---------------------------------
 DEPT.F                   00 000 00 00: Depth (MD)
 CALI.IN                  00 001 00 00: Density Caliper
 DPLS.FRAC                00 002 00 00: DENSITY POROSITY  LIMESTONE
 DRHO.G/CM3               00 003 00 00: Density Correction
 GRD.GAPI                 00 004 00 00: Guard
 GRR.GAPI                 00 005 00 00: Gamma Ray Resistivity Device
 LLD.OHM.M                00 006 00 00: Laterolog Deep
 LLS.OHM.M                00 007 00 00: Laterolog Shallow
 MSFL.OHM.M               00 008 00 00: MICRO SFL
 NPLS.FRAC                00 009 00 00: NEUTRON POROSITY  LIMESTONE
 PEF.B/E                  00 010 00 00: Photo-Electric Factor
 RHOB.G/CM3               00 011 00 00: Bulk Density
 TENS.LB                  00 012 00 00: Tension
 XDPHI.FRAC               00 013 00 00: 
~A
# ...
    2290.412
       9.285       0.071       0.015      26.377     103.743
      32.553      28.386      27.844       0.185       3.122
       2.586    2939.014     -999.25
    2290.912
       9.366       0.083       0.000      28.532     114.093
      27.863      24.656      26.172       0.188       2.950
       2.566    2939.002     -999.25
    2291.412
       9.384       0.074      -0.008      28.733     107.752
      19.926      17.863      18.123       0.194       3.106
       2.585    2938.990     -999.25
    2291.912
       9.322       0.079       0.002      27.819      91.016
      20.468      18.129      19.800       0.199       3.128
       2.579    2938.978     -999.25
    2292.412
       9.362       0.082       0.001      26.905      85.836
      25.294      23.024      33.188       0.205       2.959
       2.570    2938.966     -999.25
    2292.912
       9.329       0.084      -0.002      26.631      83.627
      23.808      20.188      21.436       0.211       2.857
       2.571    2938.953     -999.25
    2293.412
       9.376       0.070      -0.002      26.978      87.772
      22.545      21.557      22.575       0.205       3.004
       2.601    2938.941     -999.25
    2293.912
       9.309       0.151       0.018      28.541      92.983
      11.141       8.040       2.448       0.302       2.821
       2.339    2938.929     -999.25
    2294.412
       9.475       0.258      -0.029      30.743     103.988
       9.412      10.542      10.099       0.333       2.534
       2.439    2938.916     -999.25
    2294.912
       9.426       0.078      -0.012      34.983      92.478
      18.496      21.595      30.614       0.367       2.906
       2.577    2938.904     -999.25
    2295.412
       9.159       0.043       0.017      39.482      72.859
      31.947      25.001      31.370       0.703       3.330
       2.634    2938.892     -999.25
    2295.912
       9.207       0.047       0.031      43.661      73.756
      23.355      18.383      21.728       0.749       3.240
       2.630    2938.880     -999.25
    2296.412
       9.307       0.065       0.013      46.624      92.622
      16.051      12.774      13.744       0.797       3.018
       2.587    2938.868     -999.25
    2296.912
       9.394       0.059      -0.001      48.092      86.436
      15.207      14.940      17.728       0.894       2.980
       2.599    2938.855     -999.25
    2297.412
       9.152       0.074       0.018      48.008      63.919
      28.748      26.609      37.848       0.885       2.980
       2.582    2938.843     -999.25
    2297.912
       9.068       0.057       0.034      46.461      68.152
      24.911      20.212      22.787       0.697       3.143
       2.604    2938.831     -999.25
    2298.412
       9.179       0.068       0.012      44.609      73.266
      23.657      21.474      22.557       0.661       3.080
       2.613    2938.818     -999.25
    2298.912
       9.351       0.083      -0.004      41.544      97.232
      16.495      10.710      10.001       0.562       2.908
       2.574    2938.806     -999.25
    2299.412
       9.497       0.248       0.043      37.337     114.398
       6.835       7.302       3.334       0.706       2.630
       2.467    2938.787     -999.25
    2299.912
       9.503       0.303       0.043      33.734     100.236
      15.770      17.521      24.152       0.799       2.394
       2.171    2938.776     -999.25
    2300.412
       9.409       0.086       0.006      28.312     104.310
      12.239      11.684       8.258       0.696       2.991
       2.524    2938.788     -999.25
    2300.912
       9.290       0.071       0.013      26.585     102.017
      19.221      29.884      47.933       0.644       2.951
       2.587    2938.800     -999.25
    2301.412
       9.150       0.087       0.009      26.763     103.223
      44.746      41.225      43.862       0.708       2.934
       2.558    2938.813     -999.25
    2301.912
       9.144       0.067       0.008      33.334     102.695
      33.058      30.320      27.125       0.977       3.102
       2.598    2938.825     -999.25
    2302.412
       9.077       0.097      -0.003      33.912     104.736
      43.327      48.811      41.102       0.978       3.202
       2.544    2938.837     -999.25
    2302.912
       8.963       0.041       0.003      34.212      72.422
      62.986      62.295      39.533       0.982       3.930
       2.618    2938.849     -999.25
    2303.412
       8.939       0.038       0.010      34.488      84.770
      57.640      49.721      38.371       0.981       3.466
       2.637    2938.862     -999.25
    2303.912
       9.083       0.090      -0.010      32.342     102.317
      44.595      35.659      37.990       0.882       2.928
       2.568    2938.874     -999.25
    2304.412
       9.234       0.096      -0.013      30.847     105.275
      26.322      22.978      19.069       0.742       2.876
       2.544    2938.886     -999.25
    2304.912
       9.301       0.078      -0.014      29.648      97.060
      27.445      35.195      35.586       0.704       3.171
       2.573    2938.898     -999.25
    2305.412
       9.333       0.073      -0.006      28.754      88.422
      47.730      40.612      32.378       0.767       3.066
       2.591    2938.911     -999.25
    2305.912
       9.276       0.087       0.009      29.135     106.440
      24.211      14.546      12.646       0.831       2.860
       2.559    2938.923     -999.25
    2306.412
       9.334       0.089       0.028      30.670     111.882
      13.819      22.861      33.543       0.894       2.860
       2.557    2938.935     -999.25
    2306.912
       9.281       0.069       0.020      32.462      94.764
      33.039      36.537      36.456       0.819       2.980
       2.590    2938.948     -999.25
    2307.412
       9.311       0.077       0.010      33.001      93.768
      17.098      16.654      13.161       0.777       3.037
       2.583    2938.960     -999.25
    2307.912
       9.287       0.097      -0.002      32.344      96.974
      38.339      44.441      61.684       0.962       3.016
       2.558    2938.972     -999.25
    2308.412
       9.173       0.092       0.012      30.176     111.144
      47.902      44.429      29.588       0.961       3.082
       2.553    2938.984     -999.25
    2308.912
       9.077       0.086       0.011      26.788     102.015
      65.821      68.602      59.647       0.960       3.179
       2.571    2938.996     -999.25
    2309.412
       9.073       0.081      -0.002      22.814      96.780
      62.316      56.211      34.585       0.744       3.355
       2.569    2939.009     -999.25
    2309.912
       9.109       0.087      -0.002      20.652     100.894
      56.145      52.675      31.368       0.703       3.131
       2.565    2939.021     -999.25
    2310.412
       8.972       0.094       0.006      16.672      96.482
      91.814     101.191      64.742       0.774       3.073
       2.556    2939.033     -999.25
    2310.912
       9.071       0.109      -0.002      12.701     112.550
      99.815      95.774      51.789       0.843       3.125
       2.518    2939.045     -999.25
    2311.412
       9.171       0.070       0.003       9.363     115.891
      50.962      43.623      22.260       0.913       3.304
       2.582    2939.057     -999.25
    2311.912
       9.151       0.091       0.000       6.972     111.836
      47.784      59.404      44.788       0.984       3.326
       2.562    2939.070     -999.25
    2312.412
       8.972       0.115      -0.006       6.117     111.241
     118.178     167.073     151.001       0.923       3.165
       2.516    2939.082     -999.25
    2312.912
       8.816       0.043      -0.011       6.115      61.525
     337.273     288.366     564.305       0.981       4.080
       2.627    2939.094     -999.25
    2313.412
       8.893       0.030      -0.001       5.854      67.974
     199.925     193.093     367.711       0.960       4.111
       2.686    2939.106     -999.25
