~Version Information
 VERS.                 2.0: 
 WRAP.                 YES: 
 END.                PETRA:GeoPLUS Corporation
~Well Information Block
#MNEM.UNIT       Data Type    Information
#---------    -------------   ---------------------------------
 STRT.F           1066.8000:
 STOP.F           7799.8000:
 STEP.F              0.5000:
 NULL.              -999.25:
 COMP.                           : COMPANY
 FLD.       FLAT ROCK            : FIELD
 LOC.                            : LOCATION
 DATE.      14-OCT-2016          : DATE
 WELL.                           : Well Name
 LABL.      42461318260000                   : Well Label
 APIN.      42461318260000       : API Number
 UWI.       42461318260000       : Unique Well Number
 NUMB.      1                    : Well Number
 OPER.      KIMBARK OIL & GAS CO : Operator Name
 LEAS.      UNIVERSITY `31-3`    : Lease Name
~Parameter Block
#MNEM.UNIT           VALUE            Description
#---------    --------------------   ---------------------------------
 EKB.F                  2786.0 : KB Elevation
~Curve Information Block
#MNEM.UNIT      API CODE      Curve Description
#---------    -------------   ---------------------------------
 DEPT.F                   00 000 00 00: Depth (MD)
 CALI.IN                  00 001 00 00: Density Caliper
 DPHI.FRAC                00 002 00 00: Density Porosity
 DRHO.G/CM3               00 003 00 00: Density Correction
 GR.GAPI                  00 004 00 00: GAMMA RAY
 ILD.OHM.M                00 005 00 00: Induction Deep Resistivity
 NPHI.FRAC                00 006 00 00: Neutron Porosity
 PAY_TOC.                 00 007 00 00: TOC proxy
 SP.MV                    00 008 00 00: Spontaneous Potential
~A
# ...
    2855.300
      34.429       0.139      -0.911      58.592      66.757
      -0.980     -999.25    -103.021
    2855.800
      34.404       0.139      -0.914      58.033      66.754
      -0.980     -999.25    -103.041
    2856.300
      34.379       0.139      -0.917      57.474      66.751
      -0.981     -999.25    -103.062
    2856.800
      34.354       0.139      -0.920      56.914      66.749
      -0.981     -999.25    -103.083
    2857.300
      34.328       0.139      -0.923      56.355      66.746
      -0.981     -999.25    -103.103
    2857.800
      34.303       0.139      -0.927      55.795      66.743
      -0.981     -999.25    -103.124
    2858.300
      34.278       0.139      -0.930      55.234      66.741
      -0.981     -999.25    -103.144
    2858.800
      34.252       0.139      -0.933      54.674      66.738
      -0.981     -999.25    -103.165
    2859.300
      34.227       0.139      -0.936      54.113      66.735
      -0.982     -999.25    -103.185
    2859.800
      34.201       0.139      -0.939      53.552      66.732
      -0.982     -999.25    -103.205
    2860.300
      34.176       0.139      -0.942      52.991      66.729
      -0.982     -999.25    -103.226
    2860.800
      34.150       0.139      -0.946      52.430      66.727
      -0.982     -999.25    -103.246
    2861.300
      34.124       0.140      -0.949      51.868      66.724
      -0.982     -999.25    -103.266
    2861.800
      34.099       0.140      -0.952      51.306      66.721
      -0.982     -999.25    -103.287
    2862.300
      34.073       0.140      -0.955      50.744      66.718
      -0.983     -999.25    -103.307
    2862.800
      34.047       0.140      -0.958      50.182      66.715
      -0.983     -999.25    -103.327
    2863.300
      34.021       0.140      -0.961      49.620      66.712
      -0.983     -999.25    -103.347
    2863.800
      33.995       0.140      -0.964      49.057      66.709
      -0.983     -999.25    -103.367
    2864.300
      33.969       0.140      -0.968      48.494      66.706
      -0.983     -999.25    -103.387
    2864.800
      33.943       0.140      -0.971      47.931      66.703
      -0.983     -999.25    -103.407
    2865.300
      33.917       0.140      -0.974      47.368      66.700
      -0.983     -999.25    -103.427
    2865.800
      33.890       0.140      -0.977      46.804      66.697
      -0.984     -999.25    -103.447
    2866.300
      33.864       0.140      -0.980      46.240      66.694
      -0.984     -999.25    -103.467
    2866.800
      33.838       0.140      -0.983      45.676      66.691
      -0.984     -999.25    -103.487
    2867.300
      33.811       0.140      -0.986      45.112      66.688
      -0.984     -999.25    -103.507
    2867.800
      33.785       0.140      -0.990      44.548      66.685
      -0.984     -999.25    -103.527
    2868.300
      33.758       0.140      -0.993      43.983      66.682
      -0.984     -999.25    -103.547
    2868.800
      33.732       0.140      -0.996      43.419      66.679
      -0.984     -999.25    -103.567
    2869.300
      33.705       0.140      -0.999      42.854      66.676
      -0.985     -999.25    -103.586
    2869.800
      33.679       0.140      -1.002      42.289      66.672
      -0.985     -999.25    -103.606
    2870.300
      33.652       0.140      -1.005      41.723      66.669
      -0.985     -999.25    -103.626
    2870.800
      33.625       0.140      -1.008      41.158      66.666
      -0.985     -999.25    -103.645
    2871.300
      33.598       0.140      -1.012      40.592      66.663
      -0.985     -999.25    -103.665
    2871.800
      33.571       0.140      -1.015      40.026      66.659
      -0.985     -999.25    -103.685
    2872.300
      33.544       0.140      -1.018      39.461      66.656
      -0.985     -999.25    -103.704
    2872.800
      33.517       0.141      -1.021      38.894      66.653
      -0.985     -999.25    -103.724
    2873.300
      33.490       0.141      -1.024      38.328      66.650
      -0.986     -999.25    -103.743
    2873.800
      33.463       0.141      -1.027      37.762      66.646
      -0.986     -999.25    -103.762
    2874.300
      33.436       0.141      -1.030      37.195      66.643
      -0.986     -999.25    -103.782
    2874.800
      33.409       0.141      -1.034      36.628      66.639
      -0.986     -999.25    -103.801
    2875.300
      33.382       0.141      -1.037      36.061      66.636
      -0.986     -999.25    -103.820
    2875.800
      33.354       0.141      -1.040      35.494      66.633
      -0.986     -999.25    -103.840
    2876.300
      33.327       0.141      -1.043      34.927      66.629
      -0.986     -999.25    -103.859
    2876.800
      33.299       0.141      -1.046      34.359      66.626
      -0.986     -999.25    -103.878
    2877.300
      33.272       0.141      -1.049      33.792      66.622
      -0.986     -999.25    -103.897
    2877.800
      33.244       0.141      -1.052      33.224      66.619
      -0.986     -999.25    -103.917
    2878.300
      33.217       0.141      -1.055      32.656      66.615
      -0.987     -999.25    -103.936
    2878.800
      33.189       0.141      -1.059      32.088      66.612
      -0.987     -999.25    -103.955
    2879.300
      33.161       0.141      -1.062      31.520      66.608
      -0.987     -999.25    -103.974
    2879.800
      33.134       0.141      -1.065      30.952      66.605
      -0.987     -999.25    -103.993
    2880.300
      33.106       0.141      -1.068      30.384      66.601
      -0.987     -999.25    -104.012
    2880.800
      33.078       0.141      -1.071      29.815      66.597
      -0.987     -999.25    -104.031
    2881.300
      33.050       0.141      -1.074      29.246      66.594
      -0.987     -999.25    -104.049
    2881.800
      33.022       0.141      -1.077      28.678      66.590
      -0.987     -999.25    -104.068
    2882.300
      32.994       0.141      -1.080      28.109      66.586
      -0.987     -999.25    -104.087
    2882.800
      32.966       0.141      -1.083      27.540      66.583
      -0.987     -999.25    -104.106
    2883.300
      32.938       0.141      -1.087      26.971      66.579
      -0.987     -999.25    -104.125
    2883.800
      32.910       0.141      -1.090      26.401      66.575
      -0.988     -999.25    -104.143
    2884.300
      32.882       0.141      -1.093      25.832      66.571
      -0.988     -999.25    -104.162
    2884.800
      32.853       0.141      -1.096      25.263      66.568
      -0.988     -999.25    -104.181
    2885.300
      32.825       0.142      -1.099      24.693      66.564
      -0.988     -999.25    -104.199
    2885.800
      32.797       0.142      -1.102      24.123      66.560
      -0.988     -999.25    -104.218
    2886.300
      32.768       0.142      -1.105      23.554      66.556
      -0.988     -999.25    -104.236
    2886.800
      32.740       0.142      -1.108      22.984      66.552
      -0.988     -999.25    -104.255
    2887.300
      32.711       0.142      -1.112      22.414      66.548
      -0.988     -999.25    -104.273
    2887.800
      32.683       0.142      -1.115      21.844      66.545
      -0.988     -999.25    -104.292
    2888.300
      32.654       0.142      -1.118      21.274      66.541
      -0.988     -999.25    -104.310
    2888.800
      32.626       0.142      -1.121      20.704      66.537
      -0.988     -999.25    -104.328
    2889.300
      32.597       0.142      -1.124      20.133      66.533
      -0.988     -999.25    -104.346
    2889.800
      32.568       0.142      -1.127      19.563      66.529
      -0.988     -999.25    -104.365
    2890.300
      32.539       0.142      -1.130      18.992      66.525
      -0.988     -999.25    -104.383
    2890.800
      32.510       0.142      -1.133      18.422      66.521
      -0.988     -999.25    -104.401
    2891.300
      32.482       0.142      -1.136      17.851      66.517
      -0.988     -999.25    -104.419
