~Version Information
 VERS.                 2.0: 
 WRAP.                  NO: 
 END.                PETRA:GeoPLUS Corporation
~Well Information Block
#MNEM.UNIT       Data Type    Information
#---------    -------------   ---------------------------------
 STRT.F              0.0000:
 STOP.F          10696.1560:
 STEP.F              0.5000:
 NULL.              -999.25:
 COMP.                           : COMPANY
 FLD.       FLAT ROCK            : FIELD
 LOC.                            : LOCATION
 DATE.      14-OCT-2016          : DATE
 WELL.                           : Well Name
 LABL.      42461037730000                   : Well Label
 APIN.      42461037730000       : API Number
 UWI.       42461037730000       : Unique Well Number
 NUMB.      3                    : Well Number
 OPER.      OXY U S A INC        : Operator Name
 LEAS.      UNIVERSITY-AQ        : Lease Name
~Parameter Block
#MNEM.UNIT           VALUE            Description
#---------    --------------------   ---------------------------------
~Curve Information Block
#MNEM.UNIT      API CODE      Curve Description
#---------    -------------   ---------------------------------
 DEPT.F                   00 000 00 00: Depth (MD)
 ASN.OHM.M                00 001 00 00: AMPLIFIED SHORT NORMAL
 GR.GAPI                  00 002 00 00: GAMMA RAY
 LAT19.OHM.M              00 003 00 00: 
 LAT32.OHM.M              00 004 00 00: 
 SN.OHM.M                 00 005 00 00: 16-in Short Normal
 SP.MV                    00 006 00 00: Spontaneous Potential
 XGR.API                  00 007 00 00: gamma ray
~A        DEPT         ASN          GR       LAT19       LAT32          SN          SP         XGR
# ...
      5062.500      12.025       7.619      10.025      16.059     -999.25    -150.185      80.975
      5063.000      11.599       7.704       9.618      15.527     -999.25    -150.332      81.877
      5063.500      11.389       7.789       9.324      15.354     -999.25    -149.087      82.780
      5064.000      11.352       7.910       9.202      15.175     -999.25    -148.066      84.072
      5064.500      11.654       7.995       9.082      15.189     -999.25    -147.102      84.971
      5065.000      12.011       8.092       9.088      15.369     -999.25    -146.719      86.000
      5065.500      12.517       8.177       9.149      15.554     -999.25    -147.613      86.903
      5066.000      12.957       8.261       9.212      16.300     -999.25    -148.311      87.798
      5066.500      13.441       8.273       9.401      17.213     -999.25    -148.365      87.922
      5067.000      13.893       8.225       9.782      18.473     -999.25    -147.656      87.414
      5067.500      14.358       8.251      10.387      19.182     -999.25    -145.145      87.695
      5068.000      14.725       8.349      10.988      19.719     -999.25    -142.572      88.733
      5068.500      14.971       8.393      11.464      20.080     -999.25    -140.169      89.206
      5069.000      15.265       8.298      11.820      20.618     -999.25    -137.777      88.190
      5069.500      15.533       8.202      12.055      20.980     -999.25    -135.900      87.171
      5070.000      15.834       8.106      12.175      21.348     -999.25    -135.776      86.154
      5070.500      16.155       8.049      12.235      21.896     -999.25    -136.347      85.540
      5071.000      16.047       8.185      12.170      21.690     -999.25    -137.370      86.989
      5071.500      15.593       8.377      11.990      21.160     -999.25    -138.759      89.026
      5072.000      15.216       8.521      11.748      20.803     -999.25    -140.194      90.561
      5072.500      14.726       8.654      11.390      20.269     -999.25    -141.234      91.970
      5073.000      14.317       8.848      11.158      19.738     -999.25    -143.140      94.038
      5073.500      13.963       8.987      11.043      19.399     -999.25    -145.772      95.517
      5074.000      13.595       8.914      10.992      19.227     -999.25    -148.329      94.738
      5074.500      13.787       8.830      11.313      19.057     -999.25    -149.739      93.842
      5075.000      14.084       8.758      11.803      19.073     -999.25    -149.181      93.075
      5075.500      14.423       8.661      12.414      19.281     -999.25    -147.534      92.049
      5076.000      14.786       8.589      13.143      20.019     -999.25    -145.244      91.282
      5076.500      15.114       8.504      13.932      20.570     -999.25    -142.699      90.382
      5077.000      15.562       8.407      14.846      21.121     -999.25    -139.407      89.354
      5077.500      15.985       8.273      16.058      21.672     -999.25    -136.444      87.930
      5078.000      16.368       8.093      16.397      22.206     -999.25    -134.784      86.010
      5078.500      16.732       7.912      16.386      22.396     -999.25    -134.450      84.089
      5079.000      16.630       7.735      16.079      22.580     -999.25    -134.740      82.212
      5079.500      16.317       8.069      15.642      22.210     -999.25    -135.697      85.756
      5080.000      16.002       8.453      14.666      21.843     -999.25    -137.093      89.834
      5080.500      15.686       8.691      14.002      21.302     -999.25    -138.522      92.369
      5081.000      15.370       8.872      13.219      20.760     -999.25    -139.954      94.292
      5081.500      15.055       9.015      12.437      20.216     -999.25    -141.202      95.811
      5082.000      14.752       8.939      11.782      19.491     -999.25    -141.587      95.003
      5082.500      14.380       8.795      11.312      19.152     -999.25    -141.991      93.473
      5083.000      14.096       8.651      11.205      19.162     -999.25    -142.473      91.942
      5083.500      14.269       8.483      11.335      19.348     -999.25    -142.630      90.154
      5084.000      14.884       8.352      11.919      19.719     -999.25    -141.953      88.765
      5084.500      15.526       8.244      13.061      20.469     -999.25    -141.231      87.619
      5085.000      16.269       8.136      14.205      21.748     -999.25    -139.985      86.470
      5085.500      17.549       8.016      15.293      23.192     -999.25    -138.302      85.195
      5086.000      18.679       7.901      16.882      24.456     -999.25    -136.265      83.974
      5086.500      19.686       8.253      18.039      25.913     -999.25    -134.122      87.708
      5087.000      20.810       8.353      19.263      27.540     -999.25    -131.313      88.779
      5087.500      21.866       8.161      20.712      29.174     -999.25    -129.400      86.732
      5088.000      22.577       7.960      21.776      31.334     -999.25    -129.286      84.597
      5088.500      23.084       8.207      23.128      32.906     -999.25    -129.286      87.222
      5089.000      23.513       8.400      23.084      33.192     -999.25    -129.940      89.277
      5089.500      23.143       8.591      22.712      32.485     -999.25    -131.229      91.308
      5090.000      22.632       8.551      22.118      32.133     -999.25    -132.416      90.881
      5090.500      22.122       8.407      21.523      31.782     -999.25    -133.596      89.344
      5091.000      21.610       8.250      20.928      31.244     -999.25    -135.228      87.682
      5091.500      21.232       8.220      20.332      30.539     -999.25    -135.403      87.361
      5092.000      20.926       8.511      19.731      30.027     -999.25    -135.067      90.452
      5092.500      20.539       8.740      19.135      29.856     -999.25    -134.484      92.884
      5093.000      20.267       8.955      19.538      29.504     -999.25    -133.867      95.174
      5093.500      20.201       9.011      20.143      29.151     -999.25    -133.572      95.770
      5094.000      20.059       8.963      20.684      28.599     -999.25    -133.323      95.255
      5094.500      19.920       8.902      21.283      27.725     -999.25    -133.249      94.614
      5095.000      19.793       8.845      21.885      27.371     -999.25    -132.808      94.002
      5095.500      19.707       9.064      22.666      27.018     -999.25    -131.839      96.328
      5096.000      19.583       9.232      22.737      26.859     -999.25    -131.313      98.121
      5096.500      19.289       9.401      22.132      26.867     -999.25    -131.228      99.914
      5097.000      19.017       9.567      21.400      26.687     -999.25    -131.408     101.678
      5097.500      18.764       9.146      20.311      26.322     -999.25    -131.635      97.203
      5098.000      18.076       8.729      19.173      25.789     -999.25    -132.002      92.770
      5098.500      17.451       8.730      18.698      25.245     -999.25    -132.274      92.786
      5099.000      16.914       8.562      17.916      23.780     -999.25    -132.853      91.000
      5099.500      16.096       8.343      17.133      22.341     -999.25    -133.556      88.666
      5100.000      15.162       8.030      16.292      20.714     -999.25    -134.425      85.340
      5100.500      14.269       7.718      15.509      19.087     -999.25    -135.213      82.027
      5101.000      13.388       7.615      14.722      17.653     -999.25    -135.928      80.937
      5101.500      12.534       7.616      13.932      16.394     -999.25    -136.749      80.940
      5102.000      11.792       7.604      13.142      15.324     -999.25    -136.905      80.820
      5102.500      10.951       7.593      12.353      14.784     -999.25    -136.905      80.695
