~Version Information
 VERS.                 2.0: 
 WRAP.                  NO: 
 END.                PETRA:GeoPLUS Corporation
~Well Information Block
#MNEM.UNIT       Data Type    Information
#---------    -------------   ---------------------------------
 STRT.F           1828.6476:
 STOP.F           8230.1476:
 STEP.F              0.5000:
 NULL.              -999.25:
 COMP.                           : COMPANY
 FLD.       SPRABERRY            : FIELD
 LOC.                            : LOCATION
 DATE.      14-OCT-2016          : DATE
 WELL.                           : Well Name
 LABL.      42461324180000                   : Well Label
 APIN.      42461324180000       : API Number
 UWI.       42461324180000       : Unique Well Number
 NUMB.      3                    : Well Number
 OPER.      PIONEER NAT RES USA  : Operator Name
 LEAS.      UNIVERSITY `8`       : Lease Name
~Parameter Block
#MNEM.UNIT           VALUE            Description
#---------    --------------------   ---------------------------------
 EKB.F                  2684.0 : KB Elevation
~Curve Information Block
#MNEM.UNIT      API CODE      Curve Description
#---------    -------------   ---------------------------------
 DEPT.F                   00 000 00 00: Depth (MD)
 CALI.IN                  00 001 00 00: Density Caliper
 DPHI.FRAC                00 002 00 00: Density Porosity
 DRHO.G/CM3               00 003 00 00: Density Correction
 GR.GAPI                  00 004 00 00: GAMMA RAY
 LGRD.OHM.M               00 005 00 00: Long Guard Resistivity
 NPHI.FRAC                00 006 00 00: Neutron Porosity
~A        DEPT        CALI        DPHI        DRHO          GR        LGRD        NPHI
# ...
      3944.648       5.066      -4.570      -3.148     105.569    1245.865       0.236
      3945.148       5.065      -4.572      -3.151     105.557    1244.987       0.236
      3945.648       5.065      -4.573      -3.155     105.545    1244.108       0.236
      3946.148       5.065      -4.575      -3.159     105.532    1243.230       0.236
      3946.648       5.065      -4.576      -3.162     105.520    1242.350       0.236
      3947.148       5.064      -4.578      -3.166     105.507    1241.471       0.236
      3947.648       5.064      -4.579      -3.170     105.495    1240.591       0.236
      3948.148       5.064      -4.581      -3.173     105.483    1239.711       0.236
      3948.648       5.064      -4.583      -3.177     105.470    1238.830       0.236
      3949.148       5.064      -4.584      -3.180     105.458    1237.949       0.236
      3949.648       5.064      -4.586      -3.184     105.445    1237.068       0.236
      3950.148       5.063      -4.587      -3.188     105.433    1236.186       0.236
      3950.648       5.063      -4.589      -3.191     105.421    1235.304       0.236
      3951.148       5.063      -4.590      -3.195     105.408    1234.422       0.236
      3951.648       5.063      -4.592      -3.199     105.396    1233.539       0.236
      3952.148       5.063      -4.594      -3.202     105.383    1232.656       0.236
      3952.648       5.062      -4.595      -3.206     105.371    1231.773       0.236
      3953.148       5.062      -4.597      -3.210     105.358    1230.889       0.236
      3953.648       5.062      -4.598      -3.213     105.346    1230.005       0.236
      3954.148       5.062      -4.600      -3.217     105.334    1229.121       0.236
      3954.648       5.062      -4.601      -3.221     105.321    1228.236       0.236
      3955.148       5.061      -4.603      -3.224     105.309    1227.351       0.236
      3955.648       5.061      -4.605      -3.228     105.296    1226.465       0.236
      3956.148       5.061      -4.606      -3.231     105.284    1225.579       0.236
      3956.648       5.061      -4.608      -3.235     105.272    1224.693       0.236
      3957.148       5.061      -4.609      -3.239     105.259    1223.806       0.236
      3957.648       5.060      -4.611      -3.242     105.247    1222.920       0.236
      3958.148       5.060      -4.612      -3.246     105.234    1222.032       0.236
      3958.648       5.060      -4.614      -3.250     105.222    1221.145       0.236
      3959.148       5.060      -4.615      -3.253     105.210    1220.257       0.236
      3959.648       5.060      -4.617      -3.257     105.197    1219.369       0.236
      3960.148       5.059      -4.619      -3.261     105.185    1218.480       0.236
      3960.648       5.059      -4.620      -3.264     105.172    1217.591       0.236
      3961.148       5.059      -4.622      -3.268     105.160    1216.702       0.236
      3961.648       5.059      -4.623      -3.272     105.148    1215.812       0.236
      3962.148       5.059      -4.625      -3.275     105.135    1214.922       0.236
      3962.648       5.059      -4.626      -3.279     105.123    1214.032       0.236
      3963.148       5.058      -4.628      -3.282     105.111    1213.141       0.236
      3963.648       5.058      -4.629      -3.286     105.098    1212.250       0.236
      3964.148       5.058      -4.631      -3.290     105.086    1211.358       0.236
      3964.648       5.058      -4.632      -3.293     105.073    1210.467       0.236
      3965.148       5.058      -4.634      -3.297     105.061    1209.575       0.236
      3965.648       5.057      -4.636      -3.301     105.049    1208.682       0.236
      3966.148       5.057      -4.637      -3.304     105.036    1207.790       0.236
      3966.648       5.057      -4.639      -3.308     105.024    1206.896       0.236
      3967.148       5.057      -4.640      -3.312     105.011    1206.003       0.236
      3967.648       5.057      -4.642      -3.315     104.999    1205.109       0.236
      3968.148       5.057      -4.643      -3.319     104.987    1204.215       0.236
      3968.648       5.056      -4.645      -3.323     104.974    1203.321       0.236
      3969.148       5.056      -4.646      -3.326     104.962    1202.426       0.236
      3969.648       5.056      -4.648      -3.330     104.950    1201.531       0.236
      3970.148       5.056      -4.649      -3.334     104.937    1200.635       0.236
      3970.648       5.056      -4.651      -3.337     104.925    1199.740       0.236
      3971.148       5.055      -4.653      -3.341     104.912    1198.844       0.236
      3971.648       5.055      -4.654      -3.344     104.900    1197.947       0.236
      3972.148       5.055      -4.656      -3.348     104.888    1197.050       0.236
      3972.648       5.055      -4.657      -3.352     104.875    1196.153       0.236
      3973.148       5.055      -4.659      -3.355     104.863    1195.256       0.236
      3973.648       5.055      -4.660      -3.359     104.851    1194.358       0.236
      3974.148       5.054      -4.662      -3.363     104.838    1193.460       0.236
      3974.648       5.054      -4.663      -3.366     104.826    1192.561       0.236
      3975.148       5.054      -4.665      -3.370     104.814    1191.663       0.236
      3975.648       5.054      -4.666      -3.374     104.801    1190.764       0.236
      3976.148       5.054      -4.668      -3.377     104.789    1189.864       0.236
      3976.648       5.054      -4.670      -3.381     104.776    1188.964       0.236
      3977.148       5.053      -4.671      -3.385     104.764    1188.064       0.236
      3977.648       5.053      -4.673      -3.388     104.752    1187.164       0.236
      3978.148       5.053      -4.674      -3.392     104.739    1186.263       0.236
      3978.648       5.053      -4.676      -3.395     104.727    1185.362       0.236
      3979.148       5.053      -4.677      -3.399     104.715    1184.461       0.236
      3979.648       5.053      -4.679      -3.403     104.702    1183.559       0.236
      3980.148       5.052      -4.680      -3.406     104.690    1182.657       0.236
      3980.648       5.052      -4.682      -3.410     104.678    1181.754       0.236
      3981.148       5.052      -4.683      -3.414     104.665    1180.852       0.236
      3981.648       5.052      -4.685      -3.417     104.653    1179.949       0.236
      3982.148       5.052      -4.686      -3.421     104.641    1179.045       0.236
      3982.648       5.052      -4.688      -3.425     104.628    1178.142       0.236
      3983.148       5.051      -4.689      -3.428     104.616    1177.238       0.236
      3983.648       5.051      -4.691      -3.432     104.604    1176.333       0.236
      3984.148       5.051      -4.692      -3.436     104.591    1175.429       0.236
      3984.648       5.051      -4.694      -3.439     104.579    1174.524       0.236
      3985.148       5.051      -4.696      -3.443     104.567    1173.618       0.236
      3985.648       5.051      -4.697      -3.447     104.554    1172.713       0.236
      3986.148       5.050      -4.699      -3.450     104.542    1171.807       0.236
      3986.648       5.050      -4.700      -3.454     104.530    1170.901       0.236
      3987.148       5.050      -4.702      -3.457     104.517    1169.994       0.236
      3987.648       5.050      -4.703      -3.461     104.505    1169.087       0.236
      3988.148       5.050      -4.705      -3.465     104.493    1168.180       0.236
      3988.648       5.050      -4.706      -3.468     104.480    1167.272       0.236
      3989.148       5.049      -4.708      -3.472     104.468    1166.364       0.236
      3989.648       5.049      -4.709      -3.476     104.456    1165.456       0.236
      3990.148       5.049      -4.711      -3.479     104.443    1164.548       0.236
