~Version Information
 VERS.                 2.0: 
 WRAP.                 YES: 
 END.                PETRA:GeoPLUS Corporation
~Well Information Block
#MNEM.UNIT       Data Type    Information
#---------    -------------   ---------------------------------
 STRT.F             54.8640:
 STOP.F          11443.3640:
 STEP.F              0.5000:
 NULL.              -999.25:
 COMP.                           : COMPANY
 FLD.       BENEDUM              : FIELD
 LOC.                            : LOCATION
 DATE.      14-OCT-2016          : DATE
 WELL.                           : Well Name
 LABL.      42461338640000                   : Well Label
 APIN.      42461338640000       : API Number
 UWI.       42461338640000       : Unique Well Number
 NUMB.      1                    : Well Number
 OPER.      APACHE CORP          : Operator Name
 LEAS.      UNIVERSITY `4`       : Lease Name
~Parameter Block
#MNEM.UNIT           VALUE            Description
#---------    --------------------   ---------------------------------
 EKB.F                  2672.0 : KB Elevation
~Curve Information Block
#MNEM.UNIT      API CODE      Curve Description
#---------    -------------   ---------------------------------
 DEPT.F                   00 000 00 00: Depth (MD)
 DPLS.FRAC                00 001 00 00: DENSITY POROSITY  LIMESTONE
 DT.US/FT                 00 002 00 00: Delta-T Compressional
 GR.GAPI                  00 003 00 00: GAMMA RAY
 HCAL.IN                  00 004 00 00: HIGH RESOLUTION CALIPER
 HDRA.G/CM3               00 005 00 00: HIGH RESOLUTION DENSITY CORRECTION
 LLD.OHM.M                00 006 00 00: Laterolog Deep
 LLS.OHM.M                00 007 00 00: Laterolog Shallow
 PAY_TOC.                 00 008 00 00: TOC proxy
 PEFZ.B/E                 00 009 00 00: PHOTO ELECTRIC FACTOR - HIGH RESOLUTION
 RHOZ.G/CM3               00 010 00 00: BULK DENSITY - STD RESOLUTION
 RXOZ.OHM.M               00 011 00 00: RESISTIVITY OF FLUSHED ZONE - STD RESOLU
 TENS.LB                  00 012 00 00: Tension
 TNPH.V/V                 00 013 00 00: Thermal Neutron Porosity
 XDPHI.FRAC               00 014 00 00: 
~A
# ...
    6082.864
       0.017      97.142      49.951       8.261      -0.010
    2081.419    3022.570       0.000       5.630       2.575
    2082.210    2857.143       0.080       0.080
    6083.364
       0.018     120.705      75.303       8.239      -0.018
     881.779    1242.673       0.000       5.356       2.560
     287.974    2857.143       0.115       0.089
    6083.864
       0.028     130.829     107.718       8.257      -0.018
     206.822     238.400       0.000       4.901       2.544
     155.128    2857.143       0.153       0.098
    6084.364
       0.049     118.723     132.608       8.277      -0.016
     119.653     134.802       1.000       4.304       2.530
     100.213    2857.143       0.190       0.106
    6084.864
       0.078      95.133     141.359       8.318      -0.010
      73.169      82.890      -0.002       3.704       2.516
      60.241    2857.143       0.224       0.115
    6085.364
       0.111      82.871     144.410       8.320       0.001
      64.860      66.506       0.003       3.273       2.500
      59.500    2857.143       0.249       0.124
    6085.864
       0.140      82.541     146.201       8.319       0.007
      88.854      91.903       1.000       3.182       2.486
      79.699    2857.143       0.254       0.132
    6086.364
       0.145      82.599     144.222       8.337       0.014
     119.571     128.454       1.000       3.376       2.457
     110.960    2857.143       0.252       0.150
    6086.864
       0.138      80.622     132.578       8.357       0.023
     108.362     119.697       1.000       3.517       2.440
      93.320    2857.143       0.245       0.159
    6087.364
       0.121      78.657     119.574       8.393       0.033
      74.642      81.625       0.000       3.487       2.429
      56.983    2857.143       0.239       0.165
    6087.864
       0.107      79.885     110.553       8.453       0.046
      49.958      54.748       0.000       3.435       2.418
      36.532    2857.143       0.235       0.171
    6088.364
       0.093      82.886     106.561       8.459       0.057
      33.592      36.818       0.000       3.268       2.418
      31.190    2857.143       0.243       0.171
    6088.864
       0.118      84.563     103.757       8.504       0.076
      22.232      24.735       0.000       3.069       2.418
       6.062    2857.143       0.251       0.171
    6089.364
       0.171      84.229     101.238       8.728       0.093
      19.032      19.631       0.000       2.826       2.436
       2.127    2857.143       0.254       0.158
    6089.864
       0.206      80.998     100.178       8.881       0.088
      19.968      19.766       0.000       2.687       2.461
       1.877    2857.143       0.211       0.144
    6090.364
       0.174      77.433     100.449       8.684       0.068
      21.672      23.528       0.000       2.615       2.485
       5.680    2875.096       0.185       0.130
    6090.864
       0.127      73.386     100.539       8.582       0.042
      23.797      27.167       0.000       2.703       2.486
      15.495    2877.551       0.183       0.130
    6091.364
       0.080      72.678      99.547       8.600       0.033
      24.536      27.183       0.000       3.004       2.509
      16.240    2877.551       0.186       0.116
    6091.864
       0.045      72.775      99.204       8.580       0.024
      24.124      26.686       0.000       3.201       2.533
      17.423    2877.551       0.190       0.102
    6092.364
       0.050      74.342     100.889       8.599       0.016
      23.480      25.988       0.000       3.286       2.563
      16.605    2877.551       0.193       0.086
    6092.864
       0.071      77.828     108.008       8.600       0.010
      23.354      26.491       0.000       3.211       2.547
      15.823    2877.551       0.205       0.097
    6093.364
       0.091      81.182     117.147       8.600       0.010
      25.386      33.243       0.000       3.123       2.529
      17.454    2877.551       0.230       0.108
    6093.864
       0.112      84.553     126.221       8.597       0.013
      34.679      37.697       0.000       3.120       2.509
      29.872    2877.551       0.264       0.119
    6094.364
       0.133      84.322     130.353       8.651       0.016
      32.134      33.793       0.000       3.119       2.470
      14.096    2877.551       0.284       0.142
    6094.864
       0.145      82.028     122.179       8.712       0.019
      29.304      30.198       0.000       3.137       2.468
       9.857    2877.551       0.270       0.142
    6095.364
       0.149      78.764     109.823       8.636       0.021
      27.229      29.074       0.000       3.157       2.466
       9.181    2877.551       0.247       0.143
    6095.864
       0.133      76.898     112.707       8.547       0.019
      46.649      48.663       0.000       3.243       2.466
      49.030    2877.551       0.225       0.143
    6096.364
       0.102      78.641     125.641       8.538       0.010
      48.500      55.426       0.000       3.366       2.466
      51.723    2877.551       0.224       0.143
    6096.864
       0.096      80.474     139.176       8.556       0.007
      45.670      48.631       0.000       3.431       2.465
      45.187    2877.551       0.240       0.141
    6097.364
       0.102      81.024     138.167       8.598       0.006
      40.565      42.566       0.000       3.510       2.494
      39.069    2877.551       0.248       0.124
    6097.864
       0.122      78.750     122.844       8.600       0.008
      38.254      40.292       0.000       3.571       2.524
      37.522    2877.551       0.214       0.106
    6098.364
       0.122      73.359     105.623       8.600       0.010
      38.893      41.358       0.000       3.648       2.557
      37.186    2877.551       0.181       0.087
    6098.864
       0.094      72.642      92.307       8.600       0.009
      37.338      42.843       0.000       3.748       2.561
      36.852    2877.551       0.170       0.087
    6099.364
       0.065      76.581      92.897       8.618       0.005
      31.893      36.174       0.000       3.751       2.559
      31.120    2877.551       0.170       0.090
    6099.864
       0.050      79.534     108.550       8.619       0.001
      27.539      28.847       0.000       3.641       2.532
      23.935    2877.551       0.200       0.107
    6100.364
       0.083      81.955     125.191       8.639       0.000
      28.953      28.889       0.000       3.463       2.499
      21.073    2877.551       0.236       0.124
    6100.864
       0.100      83.316     141.116       8.640       0.007
      32.712      32.668       0.000       3.331       2.498
      27.321    2856.927       0.257       0.124
    6101.364
       0.100      84.598     147.758       8.640       0.015
      36.057      36.915       0.000       3.283       2.498
      31.844    2873.093       0.264       0.124
    6101.864
       0.101      84.039     146.150       8.622       0.015
      35.374      39.014       0.000       3.291       2.498
      30.474    2896.523       0.268       0.124
    6102.364
       0.118      83.439     140.673       8.619       0.015
      39.220      44.713       0.000       3.194       2.503
      30.429    2897.959       0.255       0.120
    6102.864
       0.121      83.055     135.323       8.639       0.015
      47.955      51.033       0.000       3.094       2.511
      36.519    2897.959       0.236       0.116
    6103.364
       0.122      82.646     135.017       8.621       0.015
      42.440      48.828       0.000       3.019       2.517
      29.879    2897.959       0.225       0.112
    6103.864
       0.118      81.915     136.631       8.638       0.013
      37.527      37.254       0.000       3.069       2.525
      24.906    2897.959       0.226       0.108
    6104.364
       0.112      80.822     132.943       8.641       0.010
      41.954      41.483       0.000       3.149       2.533
      27.672    2897.959       0.229       0.103
