~Version Information
 VERS.                 2.0: 
 WRAP.                 YES: 
 END.                PETRA:GeoPLUS Corporation
~Well Information Block
#MNEM.UNIT       Data Type    Information
#---------    -------------   ---------------------------------
 STRT.F           1066.8000:
 STOP.F           7799.8000:
 STEP.F              0.5000:
 NULL.              -999.25:
 COMP.                           : COMPANY
 FLD.       FLAT ROCK            : FIELD
 LOC.                            : LOCATION
 DATE.      14-OCT-2016          : DATE
 WELL.                           : Well Name
 LABL.      42461318260000                   : Well Label
 APIN.      42461318260000       : API Number
 UWI.       42461318260000       : Unique Well Number
 NUMB.      1                    : Well Number
 OPER.      KIMBARK OIL & GAS CO : Operator Name
 LEAS.      UNIVERSITY `31-3`    : Lease Name
~Parameter Block
#MNEM.UNIT           VALUE            Description
#---------    --------------------   ---------------------------------
 EKB.F                  2786.0 : KB Elevation
~Curve Information Block
#MNEM.UNIT      API CODE      Curve Description
#---------    -------------   ---------------------------------
 DEPT.F                   00 000 00 00: Depth (MD)
 CALI.IN                  00 001 00 00: Density Caliper
 DPHI.FRAC                00 002 00 00: Density Porosity
 DRHO.G/CM3               00 003 00 00: Density Correction
 GR.GAPI                  00 004 00 00: GAMMA RAY
 ILD.OHM.M                00 005 00 00: Induction Deep Resistivity
 NPHI.FRAC                00 006 00 00: Neutron Porosity
 PAY_TOC.                 00 007 00 00: TOC proxy
 SP.MV                    00 008 00 00: Spontaneous Potential
~A
# ...
    4643.800
      10.044       0.097       0.015      98.982       8.220
       0.252       0.000     -65.865
    4644.300
      10.020       0.108       0.014     105.433       8.430
       0.247       0.000     -64.526
    4644.800
      10.006       0.113       0.012     108.359       8.568
       0.244       0.000     -63.201
    4645.300
      10.000       0.108       0.009     107.576       8.801
       0.245       0.000     -62.118
    4645.800
       9.988       0.104       0.006     100.017       9.004
       0.259       0.000     -60.928
    4646.300
       9.969       0.106       0.005      97.885       9.195
       0.266       0.000     -59.242
    4646.800
       9.968       0.111       0.005      99.821       9.342
       0.275       0.000     -57.808
    4647.300
       9.979       0.110       0.007     100.562       9.518
       0.266       0.000     -56.800
    4647.800
       9.969       0.104       0.011      99.858       9.689
       0.256       0.000     -56.175
    4648.300
       9.969       0.096       0.016      97.849       9.860
       0.250       0.000     -55.815
    4648.800
       9.965       0.091       0.022      99.203       9.948
       0.242       0.000     -55.889
    4649.300
       9.932       0.089       0.026     102.893      10.033
       0.243       0.000     -56.176
    4649.800
       9.931       0.096       0.029     106.245      10.041
       0.243       0.000     -56.342
    4650.300
       9.931       0.116       0.030     109.304      10.011
       0.258       0.000     -56.582
    4650.800
       9.881       0.121       0.022     110.179       9.954
       0.273       0.000     -56.320
    4651.300
       9.839       0.124      -0.011     109.822       9.829
       0.283       0.000     -55.550
    4651.800
       9.819       0.123      -0.017     105.425       9.774
       0.288       0.000     -54.722
    4652.300
       9.819       0.121      -0.009      96.884       9.643
       0.270       0.000     -53.977
    4652.800
       9.837       0.118       0.003      92.847       9.588
       0.258       0.000     -53.277
    4653.300
       9.857       0.115       0.011      92.044       9.634
       0.245       0.000     -52.762
    4653.800
       9.857       0.109       0.017      92.828       9.741
       0.245       0.000     -52.438
    4654.300
       9.857       0.104       0.019      94.558       9.738
       0.266       0.000     -52.924
    4654.800
       9.822       0.102       0.020      98.492       9.927
       0.274       0.000     -53.158
    4655.300
       9.773       0.102       0.018     100.840      10.077
       0.269       0.000     -54.083
    4655.800
       9.692       0.110       0.011     103.639      10.122
       0.259       0.000     -54.706
    4656.300
       9.611       0.121       0.008     103.524      10.247
       0.252       0.000     -55.880
    4656.800
       9.522       0.124       0.015      96.816      10.502
       0.251       0.000     -56.971
    4657.300
       9.465       0.116       0.022      97.699      10.991
       0.256       0.000     -57.794
    4657.800
       9.406       0.111       0.027      99.741      11.620
       0.254       0.000     -58.323
    4658.300
       9.359       0.111       0.028     102.185      12.061
       0.233       0.000     -58.648
    4658.800
       9.331       0.115       0.027     103.896      12.587
       0.216       0.000     -58.664
    4659.300
       9.368       0.125       0.026     104.837      12.911
       0.205       0.000     -58.674
    4659.800
       9.392       0.123       0.023     105.385      13.283
       0.199       0.000     -58.550
    4660.300
       9.441       0.119       0.020     105.407      13.466
       0.232       0.000     -57.973
    4660.800
       9.549       0.117       0.016     105.477      13.646
       0.242       0.000     -57.384
    4661.300
       9.667       0.117       0.012     106.102      13.765
       0.245       0.000     -57.085
    4661.800
       9.731       0.118       0.009     107.665      13.672
       0.247       0.000     -56.483
    4662.300
       9.800       0.120       0.005     108.952      12.848
       0.257       0.000     -56.045
    4662.800
       9.840       0.121       0.002     109.874      11.834
       0.267       0.000     -56.045
    4663.300
       9.915       0.121       0.000     110.209      10.609
       0.262       0.000     -56.052
    4663.800
       9.945       0.121      -0.001     110.775       9.975
       0.255       0.000     -56.400
    4664.300
       9.974       0.123       0.001     110.837       9.541
       0.253       0.000     -56.584
    4664.800
      10.008       0.127       0.003     110.881       9.402
       0.260       0.000     -57.179
    4665.300
      10.020       0.127       0.006     100.832       9.272
       0.256       0.000     -57.784
    4665.800
      10.046       0.114       0.009      98.328       9.187
       0.234       0.000     -58.757
    4666.300
      10.072       0.105       0.010      96.335       9.187
       0.221       0.000     -60.166
    4666.800
      10.085       0.099       0.009      92.191       9.323
       0.199       0.000     -61.178
    4667.300
      10.085       0.097       0.007      86.110       9.418
       0.178       0.000     -62.469
    4667.800
      10.104       0.105       0.006      91.025       9.486
       0.183       0.000     -63.931
    4668.300
      10.123       0.119       0.009      93.188       9.643
       0.207       0.000     -65.211
    4668.800
      10.123       0.126       0.014      93.795       9.739
       0.216       0.000     -66.018
    4669.300
      10.123       0.128       0.017      94.655       9.741
       0.223       0.000     -67.199
    4669.800
      10.142       0.122       0.021      95.686       9.726
       0.237       0.000     -68.014
    4670.300
      10.142       0.118       0.023      98.566       9.660
       0.250       0.000     -68.042
    4670.800
      10.148       0.118       0.026     100.984       9.555
       0.254       0.000     -68.410
    4671.300
      10.161       0.119       0.027     104.563       9.410
       0.237       0.000     -68.890
    4671.800
      10.161       0.122       0.029     105.846       9.262
       0.228       0.000     -70.165
    4672.300
      10.161       0.125       0.029     106.490       9.026
       0.218       0.000     -72.229
    4672.800
      10.161       0.126       0.028      98.471       8.675
       0.211       0.000     -75.050
    4673.300
      10.161       0.119       0.027      86.332       8.316
       0.206       0.000     -77.785
    4673.800
      10.161       0.111       0.022      77.956       7.694
       0.213       0.000     -80.258
    4674.300
      10.164       0.105       0.015      71.019       6.856
       0.214       0.000     -81.869
    4674.800
      10.180       0.098       0.006      54.783       6.249
       0.197       0.000     -83.315
    4675.300
      10.185       0.081      -0.001      49.480       6.044
       0.174       0.000     -84.859
    4675.800
      10.199       0.048      -0.007      48.495       5.945
       0.150       0.000     -85.915
    4676.300
      10.206       0.032       0.021      50.121       5.934
       0.133       0.000     -87.247
    4676.800
      10.232       0.028       0.038      53.671       5.990
       0.117       0.000     -87.494
    4677.300
      10.237       0.044       0.045      58.608       5.961
       0.112       0.000     -88.146
    4677.800
      10.255       0.088       0.038      62.839       5.930
       0.138       0.000     -87.984
    4678.300
      10.285       0.117       0.025      65.814       5.856
       0.159       0.000     -87.780
    4678.800
      10.314       0.122       0.013      69.880       5.717
       0.163       0.000     -87.476
    4679.300
      10.340       0.126       0.007      74.737       5.336
       0.166       0.000     -86.674
    4679.800
      10.386       0.129       0.003      77.984       4.970
       0.163       0.000     -85.970
