~Version Information
 VERS.                 2.0: 
 WRAP.                  NO: 
 END.                PETRA:GeoPLUS Corporation
~Well Information Block
#MNEM.UNIT       Data Type    Information
#---------    -------------   ---------------------------------
 STRT.F              0.0000:
 STOP.F          10696.1560:
 STEP.F              0.5000:
 NULL.              -999.25:
 COMP.                           : COMPANY
 FLD.       FLAT ROCK            : FIELD
 LOC.                            : LOCATION
 DATE.      14-OCT-2016          : DATE
 WELL.                           : Well Name
 LABL.      42461037730000                   : Well Label
 APIN.      42461037730000       : API Number
 UWI.       42461037730000       : Unique Well Number
 NUMB.      3                    : Well Number
 OPER.      OXY U S A INC        : Operator Name
 LEAS.      UNIVERSITY-AQ        : Lease Name
~Parameter Block
#MNEM.UNIT           VALUE            Description
#---------    --------------------   ---------------------------------
~Curve Information Block
#MNEM.UNIT      API CODE      Curve Description
#---------    -------------   ---------------------------------
 DEPT.F                   00 000 00 00: Depth (MD)
 ASN.OHM.M                00 001 00 00: AMPLIFIED SHORT NORMAL
 GR.GAPI                  00 002 00 00: GAMMA RAY
 LAT19.OHM.M              00 003 00 00: 
 LAT32.OHM.M              00 004 00 00: 
 SN.OHM.M                 00 005 00 00: 16-in Short Normal
 SP.MV                    00 006 00 00: Spontaneous Potential
 XGR.API                  00 007 00 00: gamma ray
~A        DEPT         ASN          GR       LAT19       LAT32          SN          SP         XGR
# ...
      1579.500      21.668       2.497      31.326       1.034       5.904    -147.970      85.111
      1580.000      18.141       2.572      31.325       1.041       5.904    -151.349      83.034
      1580.500      18.380       2.538      31.327       1.048       5.904    -153.011      74.764
      1581.000      18.492       2.462      31.573       1.048       5.904    -158.936      64.705
      1581.500      16.144       2.394      31.814       1.048       5.903    -163.999      61.651
      1582.000      15.940       2.377      32.056       1.048       5.879    -165.545      65.715
      1582.500      15.852       2.419      32.293       1.048       5.867    -161.776      67.039
      1583.000      15.270       2.528      32.289       1.041       5.855    -152.774      66.755
      1583.500      18.451       2.621      32.289       1.019       5.831    -143.090      73.724
      1584.000      21.994       2.713      32.289       0.982       5.819    -136.968      79.969
      1584.500      23.332       2.822      32.289       0.961       5.794    -139.289      80.479
      1585.000      25.173       2.941      31.788       0.947       5.758    -134.343      78.529
      1585.500      27.522       2.991      31.060       0.940       5.747    -131.108      81.233
      1586.000      25.254       3.025      30.095       0.932       5.723    -132.079      80.883
      1586.500      21.990       3.032      29.384       0.932       5.723    -138.135      85.742
      1587.000      20.308       2.972      29.154       0.925       5.710    -137.496      82.539
      1587.500      20.134       2.870      29.164       0.933       5.699    -137.555      81.818
      1588.000      19.690       2.793      29.405       0.948       5.699    -141.205      85.474
      1588.500      18.401       2.733      29.647       0.977       5.699    -136.828      76.723
      1589.000      17.624       2.614      30.135       1.013       5.711    -134.016      77.564
      1589.500      16.600       2.488      30.379       1.042       5.698    -134.830      76.070
      1590.000      15.302       2.437      31.349       1.055       5.674    -134.933      76.442
      1590.500      15.900       2.403      32.066       1.055       5.686    -131.458      69.116
      1591.000      18.216       2.404      32.542       1.054       5.674    -130.408      73.842
      1591.500      20.044       2.429      33.260       1.039       5.662    -132.767      80.600
      1592.000      18.455       2.446      33.501       1.032       5.650    -135.001      80.771
      1592.500      16.224       2.420      33.741       1.032       5.638    -135.270      76.041
      1593.000      17.582       2.344      33.742       1.031       5.626    -134.311      81.129
      1593.500      17.281       2.277      33.983       1.031       5.614    -134.298      88.686
      1594.000      17.972       2.226      34.223       1.031       5.602    -133.660      83.182
      1594.500      17.311       2.235      34.221       1.045       5.590    -136.971      86.034
      1595.000      17.150       2.303      34.708       1.052       5.566    -134.878      78.668
      1595.500      16.133       2.388      34.941       1.051       5.554    -135.068      77.963
      1596.000      16.337       2.674      34.956       1.043       5.530    -137.077      86.417
      1596.500      15.794       2.792      35.436       1.036       5.518    -136.525      82.540
      1597.000      13.530       2.894      35.918       1.028       5.517    -140.500      80.662
      1597.500      15.997       3.021      36.400       1.021       5.493    -141.438      73.755
      1598.000      15.221       3.224      36.882       1.005       5.469    -144.236      66.085
      1598.500      12.288       3.324      37.363       0.983       5.445    -148.160      58.505
      1599.000      12.698       3.400      37.850       0.953       5.421    -145.024      61.302
      1599.500      15.980       3.442      38.298       0.895       5.409    -135.133      73.121
      1600.000      18.689       3.424      36.332       0.829       5.385    -132.558      90.734
      1600.500      18.737       3.373      34.402       0.757       5.373    -134.040      98.810
      1601.000      16.571       3.322      32.468       0.700       5.350    -136.822     101.953
      1601.500      15.162       3.265      29.802       0.665       5.349    -140.642      95.055
      1602.000      14.553       3.332      26.896       0.643       5.349    -145.854      88.795
      1602.500      12.099       3.400      23.017       0.621       5.338    -148.956      83.120
      1603.000      11.629       3.484      20.218       0.622       5.350    -157.312      71.392
      1603.500      11.343       3.492      19.976       0.614       5.362    -158.873      67.729
      1604.000       9.916       3.491      19.976       0.615       5.399    -155.168      70.279
      1604.500       8.729       3.272      19.947       0.622       5.435    -150.975      64.854
      1605.000       9.520       3.062      19.340       0.651       5.471    -148.260      69.806
      1605.500      12.297       2.828      19.203       0.688       5.507    -143.533      72.025
      1606.000      14.713       2.737      19.131       0.746       5.543    -139.699      77.936
      1606.500      15.128       2.619      19.108       0.811       5.579    -136.963      81.699
      1607.000      14.988       2.502      19.132       0.854       5.628    -135.296      84.808
      1607.500      13.497       2.435      19.107       0.861       5.688    -136.155      86.126
      1608.000      12.174       2.410      19.059       0.875       5.724    -137.094      88.760
      1608.500      11.800       2.419      19.036       0.882       5.748    -136.412      90.689
      1609.000      10.580       2.462      19.087       0.897       5.784    -135.500      86.902
      1609.500       9.261       2.530      19.185       0.911       5.821    -138.883      83.594
      1610.000       7.864       2.606      19.330       0.918       5.869    -148.271      80.075
      1610.500       8.340       2.682      19.475       0.918       5.916    -152.353      77.120
      1611.000       8.891       2.758      19.693       0.911       5.941    -152.456      73.151
      1611.500       7.875       2.834      19.887       0.911       5.965    -149.767      67.031
      1612.000       6.982       2.909      20.190       0.918       5.989    -144.278      62.378
      1612.500       7.035       2.984      20.191       0.918       6.013    -140.531      65.338
      1613.000       6.699       3.059      20.191       0.918       6.037    -143.871      75.521
      1613.500       6.347       2.966      20.191       0.918       6.061    -146.861      76.157
      1614.000       6.987       2.866      20.191       0.925       6.085    -146.447      74.889
      1614.500       7.346       2.808      20.194       0.933       6.109    -148.929      74.055
      1615.000       7.101       2.749      20.737       0.932       6.133    -154.797      75.486
      1615.500       7.460       2.681      20.965       0.925       6.157    -157.065      74.957
      1616.000       7.957       2.606      20.723       0.918       6.193    -159.248      74.387
      1616.500       8.850       2.538      20.723       0.903       6.205    -162.121      73.622
      1617.000       9.759       2.471      20.721       0.889       6.218    -163.848      65.097
      1617.500      10.747       2.403      20.476       0.882       6.242    -164.333      67.699
      1618.000      12.161       2.310      20.236       0.882       6.266    -165.183      68.430
      1618.500      12.512       2.303      20.234       0.882       6.290    -166.513      71.041
      1619.000      12.966       2.328      19.992       0.882       6.314    -165.736      68.628
      1619.500      12.788       2.362      19.755       0.882       6.338    -160.546      71.300
