~Version Information
 VERS.                 2.0: 
 WRAP.                 YES: 
 END.                PETRA:GeoPLUS Corporation
~Well Information Block
#MNEM.UNIT       Data Type    Information
#---------    -------------   ---------------------------------
 STRT.F             54.8640:
 STOP.F          11443.3640:
 STEP.F              0.5000:
 NULL.              -999.25:
 COMP.                           : COMPANY
 FLD.       BENEDUM              : FIELD
 LOC.                            : LOCATION
 DATE.      14-OCT-2016          : DATE
 WELL.                           : Well Name
 LABL.      42461338640000                   : Well Label
 APIN.      42461338640000       : API Number
 UWI.       42461338640000       : Unique Well Number
 NUMB.      1                    : Well Number
 OPER.      APACHE CORP          : Operator Name
 LEAS.      UNIVERSITY `4`       : Lease Name
~Parameter Block
#MNEM.UNIT           VALUE            Description
#---------    --------------------   ---------------------------------
 EKB.F                  2672.0 : KB Elevation
~Curve Information Block
#MNEM.UNIT      API CODE      Curve Description
#---------    -------------   ---------------------------------
 DEPT.F                   00 000 00 00: Depth (MD)
 DPLS.FRAC                00 001 00 00: DENSITY POROSITY  LIMESTONE
 DT.US/FT                 00 002 00 00: Delta-T Compressional
 GR.GAPI                  00 003 00 00: GAMMA RAY
 HCAL.IN                  00 004 00 00: HIGH RESOLUTION CALIPER
 HDRA.G/CM3               00 005 00 00: HIGH RESOLUTION DENSITY CORRECTION
 LLD.OHM.M                00 006 00 00: Laterolog Deep
 LLS.OHM.M                00 007 00 00: Laterolog Shallow
 PAY_TOC.                 00 008 00 00: TOC proxy
 PEFZ.B/E                 00 009 00 00: PHOTO ELECTRIC FACTOR - HIGH RESOLUTION
 RHOZ.G/CM3               00 010 00 00: BULK DENSITY - STD RESOLUTION
 RXOZ.OHM.M               00 011 00 00: RESISTIVITY OF FLUSHED ZONE - STD RESOLU
 TENS.LB                  00 012 00 00: Tension
 TNPH.V/V                 00 013 00 00: Thermal Neutron Porosity
 XDPHI.FRAC               00 014 00 00: 
~A
# ...
   11384.864
       0.011     -999.25     110.373       7.980       0.024
      18.783      19.651       0.000       3.923       2.691
      21.040    4180.000       0.133       0.010
   11385.364
       0.015     -999.25      97.616       7.980       0.020
      19.871      20.624       0.000       3.884       2.696
      21.140    4180.000       0.121       0.008
   11385.864
       0.019     -999.25      84.873       7.980       0.016
      21.551      23.434       0.000       3.875       2.700
      21.839    4180.000       0.112       0.006
   11386.364
       0.010     -999.25      77.151       7.980       0.011
      25.999      30.468       0.000       3.990       2.704
      29.325    4180.000       0.100       0.003
   11386.864
      -0.001     -999.25      72.175       7.980       0.010
      31.360      40.450       0.000       4.053       2.710
      41.053    4180.000       0.088       0.000
   11387.364
       0.001     -999.25      67.854       7.980       0.009
      38.237      38.865       0.000       4.131       2.710
      47.492    4180.000       0.076       0.000
   11387.864
       0.002     -999.25      63.568       7.980       0.007
      34.896      38.742       0.000       4.292       2.708
      43.317    4180.000       0.064       0.001
   11388.364
       0.003     -999.25      60.756       7.980       0.003
      38.318      47.920       0.000       4.379       2.704
      51.239    4218.848       0.049       0.004
   11388.864
       0.003     -999.25      61.465       7.980      -0.002
      47.778      57.717       0.000       4.439       2.700
      65.998    4203.919       0.042       0.006
   11389.364
       0.003     -999.25      65.616       7.962      -0.002
      59.799      69.754       0.000       4.482       2.695
      85.296    4181.269       0.041       0.009
   11389.864
       0.004     -999.25      69.902       7.961       0.000
      67.998      80.815       0.000       4.481       2.689
      99.355    4180.000       0.048       0.013
   11390.364
       0.008     -999.25      73.935       7.941       0.003
      68.192      73.130       0.000       4.482       2.688
      87.924    4180.000       0.053       0.013
   11390.864
       0.013     -999.25      78.360       7.941       0.006
      50.348      62.848       0.000       4.433       2.686
      71.148    4162.046       0.061       0.014
   11391.364
       0.015     -999.25      82.034       7.921       0.007
      47.968      56.759       0.000       4.360       2.688
      60.526    4160.000       0.070       0.013
   11391.864
       0.014     -999.25      83.578       7.920       0.014
      45.831      55.372       0.000       4.229       2.690
      62.359    4160.000       0.079       0.012
   11392.364
       0.013     -999.25      83.822       7.920       0.021
      41.519      44.725       0.000       4.111       2.693
      57.183    4160.000       0.081       0.009
   11392.864
       0.011     -999.25      82.262       7.920       0.027
      30.748      28.794       0.000       4.010       2.698
      35.630    4177.149       0.078       0.007
   11393.364
       0.010     -999.25      78.443       7.920       0.025
      25.042      24.498       0.000       3.978       2.700
      28.181    4161.532       0.071       0.006
   11393.864
       0.009     -999.25     -999.25       7.920       0.017
      39.739      39.888       0.000       4.017       2.704
      38.803    4178.223       0.067       0.003
   11394.364
       0.005     -999.25     -999.25       7.920       0.009
      54.543      59.981       0.000       4.020       2.708
      63.462    4180.000       0.068       0.001
   11394.864
       0.000     -999.25     -999.25       7.920       0.004
      45.568      49.656       0.000       4.005       2.714
      59.634    4180.000       0.078      -0.002
   11395.364
       0.000     -999.25     -999.25       7.920       0.008
      36.379      39.268       0.000       3.914       2.714
      41.079    4197.744       0.089      -0.002
   11395.864
       0.001     -999.25     -999.25       7.920       0.014
      32.149      33.735       0.000       3.772       2.714
      35.423    4182.842       0.102      -0.002
   11396.364
       0.002     -999.25     -999.25       7.920       0.023
      33.946      38.956       0.000       3.736       2.711
      39.767    4178.418       0.110       0.000
   11396.864
       0.005     -999.25     -999.25       7.920       0.028
      27.812      30.423       0.000       3.775       2.706
      31.504    4198.477       0.109       0.002
   11397.364
       0.009     -999.25     -999.25       7.901       0.033
      22.323      23.093       0.000       3.815       2.702
      24.367    4200.000       0.098       0.005
   11397.864
       0.013     -999.25     -999.25       7.900       0.034
      18.975      19.924       0.000       3.839       2.698
      20.803    4200.000       0.088       0.007
   11398.364
       0.016     -999.25     -999.25       7.900       0.029
      19.554      25.402       0.000       3.838       2.694
      28.230    4200.000       0.079       0.009
   11398.864
       0.015     -999.25     -999.25       7.881       0.024
      29.378      41.161       0.000       3.875       2.690
      40.055    4217.745       0.074       0.012
   11399.364
       0.013     -999.25     -999.25       7.880       0.018
      39.413      42.958       0.000       3.935       2.686
      41.807    4202.046       0.074       0.014
   11399.864
       0.011     -999.25     -999.25       7.880       0.015
      36.658      35.884       0.000       3.895       2.681
      34.619    4200.000       0.080       0.018
   11400.364
       0.016     -999.25     -999.25       7.880       0.017
      30.671      29.859       0.000       3.735       2.679
      28.535    4200.000       0.085       0.017
   11400.864
       0.019     -999.25     -999.25       7.880       0.019
      25.453      24.792       0.000       3.645       2.688
      23.517    4200.000     -999.25       0.012
   11401.364
       0.020     -999.25     -999.25       7.880       0.022
      23.437      22.341       0.000       3.620       2.700
      19.616    4200.000     -999.25       0.005
   11401.864
       0.018     -999.25     -999.25       7.880       0.024
      23.655      25.446       0.000       3.636       2.712
      25.984    4200.000     -999.25      -0.002
   11402.364
       0.016     -999.25     -999.25       7.880       0.023
      26.388      29.235       0.000       3.676       2.722
      33.361    4200.000     -999.25      -0.008
   11402.864
       0.001     -999.25     -999.25       7.880       0.022
      31.899      33.630       0.000       3.697       2.748
      37.278    4179.452     -999.25      -0.024
   11403.364
       0.001     -999.25     -999.25       7.880       0.025
      33.999      38.430       0.000       3.736       2.751
      38.771    4196.074     -999.25      -0.023
   11403.864
      -0.011     -999.25     -999.25       7.880       0.029
      35.079      38.715       0.000       3.739       2.743
      39.543    4218.733     -999.25      -0.018
   11404.364
      -0.018     -999.25     -999.25       7.880       0.030
      33.115      36.930       0.000       3.817       2.733
      41.768    4204.458     -999.25      -0.013
   11404.864
      -0.005     -999.25     -999.25       7.880       0.030
      33.423      39.089       0.000       4.050       2.723
      54.547    4183.918     -999.25      -0.007
   11405.364
       0.000     -999.25     -999.25       7.880       0.029
      42.299      48.733       0.000       4.310       2.714
      80.038    4163.918     -999.25      -0.002
   11405.864
       0.004     -999.25     -999.25       7.880       0.024
      52.621      60.487       0.000       4.521       2.704
      80.070    4195.618     -999.25       0.004
   11406.364
       0.011     -999.25     -999.25       7.880       0.019
      58.725      61.793       0.000       4.602       2.694
      80.642    4200.000     -999.25       0.010
