~Version Information
 VERS.                 2.0: 
 WRAP.                 YES: 
 END.                PETRA:GeoPLUS Corporation
~Well Information Block
#MNEM.UNIT       Data Type    Information
#---------    -------------   ---------------------------------
 STRT.F             54.8640:
 STOP.F          11443.3640:
 STEP.F              0.5000:
 NULL.              -999.25:
 COMP.                           : COMPANY
 FLD.       BENEDUM              : FIELD
 LOC.                            : LOCATION
 DATE.      14-OCT-2016          : DATE
 WELL.                           : Well Name
 LABL.      42461338640000                   : Well Label
 APIN.      42461338640000       : API Number
 UWI.       42461338640000       : Unique Well Number
 NUMB.      1                    : Well Number
 OPER.      APACHE CORP          : Operator Name
 LEAS.      UNIVERSITY `4`       : Lease Name
~Parameter Block
#MNEM.UNIT           VALUE            Description
#---------    --------------------   ---------------------------------
 EKB.F                  2672.0 : KB Elevation
~Curve Information Block
#MNEM.UNIT      API CODE      Curve Description
#---------    -------------   ---------------------------------
 DEPT.F                   00 000 00 00: Depth (MD)
 DPLS.FRAC                00 001 00 00: DENSITY POROSITY  LIMESTONE
 DT.US/FT                 00 002 00 00: Delta-T Compressional
 GR.GAPI                  00 003 00 00: GAMMA RAY
 HCAL.IN                  00 004 00 00: HIGH RESOLUTION CALIPER
 HDRA.G/CM3               00 005 00 00: HIGH RESOLUTION DENSITY CORRECTION
 LLD.OHM.M                00 006 00 00: Laterolog Deep
 LLS.OHM.M                00 007 00 00: Laterolog Shallow
 PAY_TOC.                 00 008 00 00: TOC proxy
 PEFZ.B/E                 00 009 00 00: PHOTO ELECTRIC FACTOR - HIGH RESOLUTION
 RHOZ.G/CM3               00 010 00 00: BULK DENSITY - STD RESOLUTION
 RXOZ.OHM.M               00 011 00 00: RESISTIVITY OF FLUSHED ZONE - STD RESOLU
 TENS.LB                  00 012 00 00: Tension
 TNPH.V/V                 00 013 00 00: Thermal Neutron Porosity
 XDPHI.FRAC               00 014 00 00: 
~A
# ...
    5422.864
       0.100      67.247      71.719       8.940       0.014
      12.117      11.761       0.000       2.808       2.551
      16.655    2707.245       0.155       0.095
    5423.364
       0.106      68.129      71.078       8.940       0.019
      11.951      11.717       0.000       2.779       2.527
      16.364    2754.708       0.157       0.108
    5423.864
       0.113      69.637      73.710       8.940       0.018
      11.641      11.520       0.000       2.741       2.526
      16.064    2739.180       0.173       0.108
    5424.364
       0.107      71.583      79.238       8.940       0.004
      11.215      11.115       0.000       2.700       2.528
      16.581    2718.772       0.195       0.106
    5424.864
       0.101      73.325      87.711       8.940      -0.007
      13.173      12.340       0.000       2.738       2.529
      20.538    2714.148       0.217       0.106
    5425.364
       0.103      74.218      93.085       8.957      -0.009
      17.109      16.568       0.000       2.880       2.523
      30.072    2694.943       0.232       0.110
    5425.864
       0.118      74.142      94.263       8.977       0.000
      22.458      21.624       0.000       2.988       2.517
      45.542    2726.974       0.230       0.113
    5426.364
       0.121      72.201      91.434       8.983       0.010
      25.121      25.923       0.000       3.038       2.513
      45.783    2750.616       0.213       0.116
    5426.864
       0.123      70.744      86.979       8.928       0.020
      20.141      21.441       0.000       3.029       2.507
      27.946    2773.931       0.199       0.119
    5427.364
       0.120      70.882      84.266       8.899       0.030
      15.744      16.819       0.000       2.936       2.503
      15.002    2775.510       0.192       0.122
    5427.864
       0.115      71.976      83.807       8.936       0.034
      12.186      12.534       0.000       2.795       2.497
      13.217    2775.510       0.185       0.125
    5428.364
       0.112      73.020      87.302       8.943       0.034
      11.427      11.675       0.000       2.684       2.491
      15.347    2775.509       0.201       0.129
    5428.864
       0.122      73.625      91.778       8.904       0.028
      13.642      13.221       0.000       2.661       2.487
      18.618    2757.565       0.219       0.131
    5429.364
       0.135      73.653      93.633       8.883       0.025
      19.114      19.307       0.000       2.761       2.481
      24.584    2755.102       0.227       0.135
    5429.864
       0.142      72.184      89.345       8.863       0.028
      17.153      18.100       0.000       2.863       2.476
      25.769    2755.102       0.216       0.137
    5430.364
       0.142      70.798      83.685       8.843       0.030
      14.159      15.105       0.000       2.958       2.476
      17.652    2755.102       0.200       0.137
    5430.864
       0.134      69.514      79.123       8.859       0.024
      11.659      12.212       0.000       2.875       2.477
      13.665    2737.480       0.184       0.136
    5431.364
       0.126      68.984      78.362       8.860       0.018
      10.525      10.596       0.000       2.753       2.488
      14.132    2752.416       0.167       0.129
    5431.864
       0.126      69.157      79.826       8.860       0.014
      10.312       9.885       0.000       2.612       2.502
      15.547    2755.102       0.164       0.120
    5432.364
       0.125      69.913      82.959       8.860       0.019
      10.121       9.662       0.000       2.500       2.516
      14.922    2755.102       0.172       0.112
    5432.864
       0.119      70.807      86.516       8.860       0.021
      10.238       9.852       0.000       2.525       2.530
      14.236    2737.176       0.183       0.104
    5433.364
       0.118      71.820      90.607       8.860       0.018
      11.237      10.975       0.000       2.726       2.534
      15.095    2734.694       0.195       0.103
    5433.864
       0.120      72.464      93.903       8.860       0.015
      15.039      14.444       0.000       2.930       2.534
      20.183    2734.694       0.199       0.103
    5434.364
       0.122      72.098      93.170       8.860       0.012
      16.687      17.202       0.000       3.117       2.534
      25.382    2734.694       0.191       0.103
    5434.864
       0.115      71.498      89.078       8.841       0.009
      14.111      15.051       0.000       3.191       2.534
      22.229    2734.694       0.184       0.103
    5435.364
       0.107      70.998      85.271       8.840       0.006
      11.702      12.411       0.000       3.076       2.532
      16.241    2751.192       0.175       0.104
    5435.864
       0.101      70.931      84.520       8.840       0.005
      10.530      10.878       0.000       2.974       2.530
      13.424    2754.643       0.174       0.105
    5436.364
       0.101      71.284      88.431       8.859       0.006
      10.715      10.762       0.000       2.861       2.527
      13.876    2773.016       0.188       0.108
    5436.864
       0.106      71.644      93.229       8.841       0.008
      12.688      12.339       0.000       2.857       2.524
      16.183    2757.682       0.195       0.109
    5437.364
       0.111      71.889      96.923       8.840       0.009
      16.245      15.635       0.000       2.857       2.521
      19.256    2755.102       0.195       0.111
    5437.864
       0.112      72.244      99.064       8.840       0.009
      19.252      19.255       0.000       2.891       2.517
      23.439    2755.102       0.191       0.113
    5438.364
       0.113      72.553      99.451       8.840       0.006
      20.101      20.312       0.000       2.955       2.514
      27.831    2755.102       0.193       0.115
    5438.864
       0.112      72.553      98.206       8.840       0.004
      20.673      20.864       0.000       2.944       2.517
      29.157    2755.103       0.201       0.112
    5439.364
       0.111      71.954      95.864       8.855       0.001
      20.955      21.288       0.000       2.902       2.521
      29.715    2772.916       0.209       0.110
    5439.864
       0.115      70.945      91.291       8.913       0.000
      18.939      20.384       0.000       2.881       2.525
      23.353    2758.691       0.198       0.108
    5440.364
       0.118      69.868      87.271       8.954       0.000
      13.277      14.204       0.000       2.860       2.529
      16.831    2753.502       0.182       0.105
    5440.864
       0.111      68.837      82.263       8.994      -0.002
      10.682      11.306       0.000       2.842       2.533
      13.244    2773.456       0.170       0.103
    5441.364
       0.100      68.280      78.815       9.055       0.000
       8.653       9.148       0.000       2.802       2.537
      10.735    2775.510       0.164       0.101
    5441.864
       0.099      68.194      76.675       9.041       0.000
       7.014       7.385       0.000       2.757       2.541
       8.282    2775.510       0.159       0.098
    5442.364
       0.099      68.304      74.094       9.057       0.001
       6.528       6.657       0.000       2.755       2.548
       7.795    2760.391       0.154       0.095
    5442.864
       0.100      68.529      70.302       9.097       0.000
       6.450       6.566       0.000       2.755       2.546
       8.050    2739.179       0.148       0.096
    5443.364
       0.102      69.029      68.528       9.100      -0.003
       6.506       6.625       0.000       2.755       2.544
       8.152    2718.771       0.154       0.097
    5443.864
       0.104      69.888      71.985       9.138      -0.003
       6.473       6.589       0.000       2.755       2.542
       8.025    2712.170       0.172       0.098
    5444.364
       0.106      71.056      78.235       9.163      -0.001
       6.254       6.365       0.000       2.738       2.540
       7.804    2732.658       0.185       0.099
