~Version Information
 VERS.                 2.0: 
 WRAP.                  NO: 
 END.                PETRA:GeoPLUS Corporation
~Well Information Block
#MNEM.UNIT       Data Type    Information
#---------    -------------   ---------------------------------
 STRT.F           1828.6476:
 STOP.F           8230.1476:
 STEP.F              0.5000:
 NULL.              -999.25:
 COMP.                           : COMPANY
 FLD.       SPRABERRY            : FIELD
 LOC.                            : LOCATION
 DATE.      14-OCT-2016          : DATE
 WELL.                           : Well Name
 LABL.      42461324180000                   : Well Label
 APIN.      42461324180000       : API Number
 UWI.       42461324180000       : Unique Well Number
 NUMB.      3                    : Well Number
 OPER.      PIONEER NAT RES USA  : Operator Name
 LEAS.      UNIVERSITY `8`       : Lease Name
~Parameter Block
#MNEM.UNIT           VALUE            Description
#---------    --------------------   ---------------------------------
 EKB.F                  2684.0 : KB Elevation
~Curve Information Block
#MNEM.UNIT      API CODE      Curve Description
#---------    -------------   ---------------------------------
 DEPT.F                   00 000 00 00: Depth (MD)
 CALI.IN                  00 001 00 00: Density Caliper
 DPHI.FRAC                00 002 00 00: Density Porosity
 DRHO.G/CM3               00 003 00 00: Density Correction
 GR.GAPI                  00 004 00 00: GAMMA RAY
 LGRD.OHM.M               00 005 00 00: Long Guard Resistivity
 NPHI.FRAC                00 006 00 00: Neutron Porosity
~A        DEPT        CALI        DPHI        DRHO          GR        LGRD        NPHI
# ...
      2242.648       9.298       0.108       0.005     113.803      48.900       0.196
      2243.148       9.315       0.104       0.001     104.350     153.998       0.184
      2243.648       9.316       0.097       0.018      95.326      23.560       0.175
      2244.148       9.330       0.094       0.035     107.068      26.941       0.187
      2244.648       9.329       0.090       0.036     106.826      22.529       0.190
      2245.148       9.345       0.100       0.021     100.355      16.447       0.171
      2245.648       9.362       0.102       0.008     107.897      14.252       0.156
      2246.148       9.380       0.082       0.007      92.692      78.273       0.167
      2246.648       9.395       0.094       0.013      87.893      37.034       0.164
      2247.148       9.437       0.108       0.028      96.319      21.818       0.143
      2247.648       9.462       0.103       0.039      89.247      28.254       0.154
      2248.148       9.527       0.088       0.035      78.595      20.487       0.178
      2248.648       9.529       0.090       0.023     103.979      14.182       0.168
      2249.148       9.549       0.090       0.015     101.646      18.535       0.168
      2249.648       9.589       0.088       0.012      84.652      20.137       0.185
      2250.148       9.596       0.090       0.025     101.721      16.273       0.196
      2250.648       9.595       0.090       0.029     103.447      12.031       0.205
      2251.148       9.531       0.098       0.024     106.024      15.862       0.211
      2251.648       9.453       0.101       0.014     114.933      21.138       0.203
      2252.148       9.387       0.105       0.007     112.943      27.270       0.192
      2252.648       9.328       0.087       0.020     107.983      25.198       0.189
      2253.148       9.289       0.067       0.035     100.619      26.279       0.193
      2253.648       9.245       0.086       0.027     100.413      32.810       0.205
      2254.148       9.173       0.106       0.014     115.362      26.895       0.190
      2254.648       9.127       0.120       0.007     116.250      22.402       0.153
      2255.148       9.096       0.113       0.011      96.822      21.251       0.145
      2255.648       9.026       0.109       0.028     103.223      16.817       0.148
      2256.148       8.962       0.114       0.020      99.119      22.625       0.131
      2256.648       8.925       0.087       0.007      97.463      56.690       0.076
      2257.148       8.908       0.045       0.008      71.132      80.924       0.042
      2257.648       8.890       0.033       0.023      38.512     126.711       0.050
      2258.148       8.910       0.050       0.037      60.110     160.209       0.100
      2258.648       8.945       0.073       0.041      80.027      55.830       0.165
      2259.148       9.012       0.095       0.035     100.315      18.039       0.200
      2259.648       9.098       0.087       0.029     123.208      19.154       0.210
      2260.148       9.170       0.097       0.028     118.982      21.732       0.213
      2260.648       9.257       0.102       0.028     125.049      26.482       0.219
      2261.148       9.332       0.089       0.034     111.493      31.439       0.219
      2261.648       9.379       0.081       0.042     110.310      33.112       0.215
      2262.148       9.441       0.079       0.040     103.620      14.447       0.212
      2262.648       9.474       0.104       0.021     109.871      17.934       0.216
      2263.148       9.475       0.111       0.021     105.552      23.243       0.223
      2263.648       9.498       0.105       0.031     119.717      21.941       0.218
      2264.148       9.517       0.083       0.031     106.872      27.124       0.208
      2264.648       9.577       0.098       0.008     112.170      20.256       0.210
      2265.148       9.570       0.112       0.022     108.479      15.240       0.214
      2265.648       9.508       0.102       0.035     121.597      23.275       0.206
      2266.148       9.489       0.101       0.035      94.632      31.625       0.210
      2266.648       9.507       0.105       0.015     108.032      12.812       0.215
      2267.148       9.544       0.111       0.007     117.148      15.408       0.202
      2267.648       9.509       0.103       0.013     111.058      18.308       0.192
      2268.148       9.444       0.102       0.028     104.057      16.104       0.168
      2268.648       9.329       0.107       0.029     101.370      17.836       0.140
      2269.148       9.163       0.107       0.028      95.044      19.209       0.154
      2269.648       9.065       0.107       0.021     104.125      19.675       0.139
      2270.148       8.993       0.088       0.010      98.553      19.556       0.116
      2270.648       8.971       0.037       0.032      55.887      17.706       0.123
      2271.148       9.014       0.066       0.041      87.217      21.904       0.157
      2271.648       9.007       0.099       0.041     100.344      15.629       0.157
      2272.148       8.950       0.116       0.034      94.424       9.120       0.154
      2272.648       8.949       0.110       0.027     108.636       7.271       0.131
      2273.148       8.882       0.090       0.018      92.741       8.629       0.108
      2273.648       8.796       0.051       0.014      34.714      14.348       0.105
      2274.148       8.710       0.095       0.047      29.429      18.287       0.146
      2274.648       8.620       0.143       0.112      35.295       9.715       0.159
      2275.148       8.422       0.187       0.162      48.148       7.379       0.174
      2275.648       7.655       0.222       0.211      49.414       6.082       0.175
      2276.148       7.564       0.228       0.248      53.094       5.773       0.171
      2276.648       7.551       0.229       0.269      52.668       5.621       0.176
      2277.148       7.911       0.236       0.269      54.591       5.672       0.174
      2277.648       8.792       0.197       0.296      52.614       5.284       0.167
      2278.148       9.016       0.094       0.274      58.250       5.001       0.179
      2278.648       9.017       0.070       0.137      94.718       6.525       0.168
      2279.148       9.086       0.055       0.072      80.219      11.090       0.143
      2279.648       9.217       0.098       0.040      45.633      26.547       0.127
      2280.148       9.302       0.131       0.017      50.143      25.224       0.139
      2280.648       9.360       0.135       0.029      45.995      14.633       0.142
      2281.148       9.378       0.123       0.027      60.683      18.419       0.156
      2281.648       9.424       0.116       0.019      99.496      13.650       0.198
      2282.148       9.479       0.114       0.020     104.220      15.165       0.191
      2282.648       9.550       0.103       0.022      97.159      14.953       0.202
      2283.148       9.567       0.090       0.037     107.817      18.722       0.210
      2283.648       9.555       0.106       0.041     111.111      27.653       0.204
      2284.148       9.546       0.115       0.026     106.540      20.226       0.210
      2284.648       9.512       0.107       0.019     112.161      25.225       0.206
      2285.148       9.497       0.103       0.020     100.951      26.079       0.196
      2285.648       9.496       0.103       0.034      92.482      13.286       0.205
      2286.148       9.476       0.109       0.020     103.544      18.249       0.205
      2286.648       9.404       0.106       0.006      94.694      13.657       0.208
      2287.148       9.374       0.091       0.004     109.077      13.903       0.204
      2287.648       9.423       0.067       0.020     105.396      28.854       0.188
      2288.148       9.388       0.064       0.013      74.609      33.711       0.164
