~Version Information
 VERS.                 2.0: 
 WRAP.                  NO: 
 END.                PETRA:GeoPLUS Corporation
~Well Information Block
#MNEM.UNIT       Data Type    Information
#---------    -------------   ---------------------------------
 STRT.F           1828.6476:
 STOP.F           8230.1476:
 STEP.F              0.5000:
 NULL.              -999.25:
 COMP.                           : COMPANY
 FLD.       SPRABERRY            : FIELD
 LOC.                            : LOCATION
 DATE.      14-OCT-2016          : DATE
 WELL.                           : Well Name
 LABL.      42461324180000                   : Well Label
 APIN.      42461324180000       : API Number
 UWI.       42461324180000       : Unique Well Number
 NUMB.      3                    : Well Number
 OPER.      PIONEER NAT RES USA  : Operator Name
 LEAS.      UNIVERSITY `8`       : Lease Name
~Parameter Block
#MNEM.UNIT           VALUE            Description
#---------    --------------------   ---------------------------------
 EKB.F                  2684.0 : KB Elevation
~Curve Information Block
#MNEM.UNIT      API CODE      Curve Description
#---------    -------------   ---------------------------------
 DEPT.F                   00 000 00 00: Depth (MD)
 CALI.IN                  00 001 00 00: Density Caliper
 DPHI.FRAC                00 002 00 00: Density Porosity
 DRHO.G/CM3               00 003 00 00: Density Correction
 GR.GAPI                  00 004 00 00: GAMMA RAY
 LGRD.OHM.M               00 005 00 00: Long Guard Resistivity
 NPHI.FRAC                00 006 00 00: Neutron Porosity
~A        DEPT        CALI        DPHI        DRHO          GR        LGRD        NPHI
# ...
      3530.648       5.391      -3.127      -0.346     115.658    1805.323       0.237
      3531.148       5.390      -3.128      -0.349     115.646    1804.902       0.237
      3531.648       5.390      -3.130      -0.352     115.635    1804.481       0.237
      3532.148       5.389      -3.132      -0.355     115.624    1804.059       0.237
      3532.648       5.389      -3.134      -0.358     115.612    1803.637       0.237
      3533.148       5.388      -3.136      -0.361     115.601    1803.213       0.237
      3533.648       5.388      -3.138      -0.364     115.589    1802.789       0.237
      3534.148       5.387      -3.140      -0.367     115.578    1802.364       0.237
      3534.648       5.386      -3.141      -0.370     115.567    1801.939       0.237
      3535.148       5.386      -3.143      -0.373     115.555    1801.512       0.237
      3535.648       5.385      -3.145      -0.376     115.544    1801.085       0.237
      3536.148       5.385      -3.147      -0.379     115.533    1800.658       0.237
      3536.648       5.384      -3.149      -0.382     115.521    1800.229       0.237
      3537.148       5.384      -3.151      -0.385     115.510    1799.800       0.237
      3537.648       5.383      -3.153      -0.388     115.498    1799.370       0.237
      3538.148       5.382      -3.154      -0.391     115.487    1798.939       0.237
      3538.648       5.382      -3.156      -0.394     115.476    1798.507       0.237
      3539.148       5.381      -3.158      -0.397     115.464    1798.075       0.237
      3539.648       5.381      -3.160      -0.400     115.453    1797.642       0.237
      3540.148       5.380      -3.162      -0.402     115.441    1797.208       0.237
      3540.648       5.380      -3.164      -0.405     115.430    1796.774       0.237
      3541.148       5.379      -3.166      -0.408     115.418    1796.339       0.237
      3541.648       5.378      -3.167      -0.411     115.407    1795.903       0.237
      3542.148       5.378      -3.169      -0.414     115.396    1795.466       0.237
      3542.648       5.377      -3.171      -0.417     115.384    1795.029       0.237
      3543.148       5.377      -3.173      -0.420     115.373    1794.591       0.237
      3543.648       5.376      -3.175      -0.423     115.361    1794.152       0.237
      3544.148       5.376      -3.177      -0.426     115.350    1793.712       0.237
      3544.648       5.375      -3.178      -0.429     115.338    1793.272       0.237
      3545.148       5.374      -3.180      -0.432     115.327    1792.831       0.237
      3545.648       5.374      -3.182      -0.435     115.316    1792.389       0.237
      3546.148       5.373      -3.184      -0.438     115.304    1791.946       0.237
      3546.648       5.373      -3.186      -0.441     115.293    1791.503       0.237
      3547.148       5.372      -3.188      -0.444     115.281    1791.059       0.237
      3547.648       5.372      -3.190      -0.447     115.270    1790.614       0.237
      3548.148       5.371      -3.191      -0.450     115.258    1790.169       0.237
      3548.648       5.370      -3.193      -0.453     115.247    1789.723       0.237
      3549.148       5.370      -3.195      -0.456     115.235    1789.276       0.237
      3549.648       5.369      -3.197      -0.459     115.224    1788.828       0.237
      3550.148       5.369      -3.199      -0.462     115.212    1788.380       0.237
      3550.648       5.368      -3.201      -0.465     115.201    1787.930       0.237
      3551.148       5.368      -3.202      -0.468     115.189    1787.481       0.237
      3551.648       5.367      -3.204      -0.471     115.178    1787.030       0.237
      3552.148       5.367      -3.206      -0.474     115.166    1786.579       0.237
      3552.648       5.366      -3.208      -0.477     115.155    1786.127       0.237
      3553.148       5.365      -3.210      -0.480     115.143    1785.674       0.237
      3553.648       5.365      -3.212      -0.483     115.132    1785.220       0.237
      3554.148       5.364      -3.214      -0.486     115.120    1784.766       0.237
      3554.648       5.364      -3.215      -0.489     115.109    1784.311       0.237
      3555.148       5.363      -3.217      -0.492     115.097    1783.856       0.237
      3555.648       5.363      -3.219      -0.495     115.086    1783.399       0.237
      3556.148       5.362      -3.221      -0.498     115.074    1782.942       0.237
      3556.648       5.362      -3.223      -0.501     115.063    1782.484       0.237
      3557.148       5.361      -3.225      -0.504     115.051    1782.026       0.237
      3557.648       5.360      -3.226      -0.507     115.040    1781.566       0.237
      3558.148       5.360      -3.228      -0.510     115.028    1781.106       0.237
      3558.648       5.359      -3.230      -0.513     115.017    1780.646       0.237
      3559.148       5.359      -3.232      -0.516     115.005    1780.184       0.237
      3559.648       5.358      -3.234      -0.519     114.994    1779.722       0.237
      3560.148       5.358      -3.236      -0.522     114.982    1779.259       0.237
      3560.648       5.357      -3.238      -0.525     114.970    1778.796       0.237
      3561.148       5.357      -3.239      -0.528     114.959    1778.331       0.237
      3561.648       5.356      -3.241      -0.531     114.947    1777.866       0.237
      3562.148       5.355      -3.243      -0.534     114.936    1777.401       0.237
      3562.648       5.355      -3.245      -0.537     114.924    1776.934       0.237
      3563.148       5.354      -3.247      -0.540     114.913    1776.467       0.237
      3563.648       5.354      -3.249      -0.543     114.901    1775.999       0.237
      3564.148       5.353      -3.250      -0.546     114.890    1775.530       0.237
      3564.648       5.353      -3.252      -0.550     114.878    1775.061       0.237
      3565.148       5.352      -3.254      -0.553     114.866    1774.591       0.237
      3565.648       5.352      -3.256      -0.556     114.855    1774.120       0.237
      3566.148       5.351      -3.258      -0.559     114.843    1773.649       0.237
      3566.648       5.351      -3.260      -0.562     114.832    1773.177       0.237
      3567.148       5.350      -3.262      -0.565     114.820    1772.704       0.237
      3567.648       5.349      -3.263      -0.568     114.808    1772.230       0.237
      3568.148       5.349      -3.265      -0.571     114.797    1771.756       0.237
      3568.648       5.348      -3.267      -0.574     114.785    1771.281       0.237
      3569.148       5.348      -3.269      -0.577     114.774    1770.805       0.237
      3569.648       5.347      -3.271      -0.580     114.762    1770.329       0.237
      3570.148       5.347      -3.273      -0.583     114.750    1769.851       0.237
      3570.648       5.346      -3.274      -0.586     114.739    1769.373       0.237
      3571.148       5.346      -3.276      -0.589     114.727    1768.895       0.237
      3571.648       5.345      -3.278      -0.592     114.716    1768.416       0.237
      3572.148       5.345      -3.280      -0.595     114.704    1767.936       0.237
      3572.648       5.344      -3.282      -0.598     114.692    1767.455       0.237
      3573.148       5.344      -3.284      -0.601     114.681    1766.973       0.237
      3573.648       5.343      -3.285      -0.604     114.669    1766.491       0.237
      3574.148       5.342      -3.287      -0.607     114.658    1766.008       0.237
      3574.648       5.342      -3.289      -0.611     114.646    1765.525       0.237
      3575.148       5.341      -3.291      -0.614     114.634    1765.041       0.237
      3575.648       5.341      -3.293      -0.617     114.623    1764.556       0.237
      3576.148       5.340      -3.295      -0.620     114.611    1764.070       0.237
