~Version Information
 VERS.                 2.0: 
 WRAP.                  NO: 
 END.                PETRA:GeoPLUS Corporation
~Well Information Block
#MNEM.UNIT       Data Type    Information
#---------    -------------   ---------------------------------
 STRT.F              0.0000:
 STOP.F          10696.1560:
 STEP.F              0.5000:
 NULL.              -999.25:
 COMP.                           : COMPANY
 FLD.       FLAT ROCK            : FIELD
 LOC.                            : LOCATION
 DATE.      14-OCT-2016          : DATE
 WELL.                           : Well Name
 LABL.      42461037730000                   : Well Label
 APIN.      42461037730000       : API Number
 UWI.       42461037730000       : Unique Well Number
 NUMB.      3                    : Well Number
 OPER.      OXY U S A INC        : Operator Name
 LEAS.      UNIVERSITY-AQ        : Lease Name
~Parameter Block
#MNEM.UNIT           VALUE            Description
#---------    --------------------   ---------------------------------
~Curve Information Block
#MNEM.UNIT      API CODE      Curve Description
#---------    -------------   ---------------------------------
 DEPT.F                   00 000 00 00: Depth (MD)
 ASN.OHM.M                00 001 00 00: AMPLIFIED SHORT NORMAL
 GR.GAPI                  00 002 00 00: GAMMA RAY
 LAT19.OHM.M              00 003 00 00: 
 LAT32.OHM.M              00 004 00 00: 
 SN.OHM.M                 00 005 00 00: 16-in Short Normal
 SP.MV                    00 006 00 00: Spontaneous Potential
 XGR.API                  00 007 00 00: gamma ray
~A        DEPT         ASN          GR       LAT19       LAT32          SN          SP         XGR
# ...
      7857.000     204.404       6.997     875.094     102.235     -999.25     -89.062      74.359
      7857.500     205.109       6.868     909.562     100.640     -999.25     -89.055      72.992
      7858.000     205.863       6.680     883.927      99.938     -999.25     -89.055      70.992
      7858.500     206.218       6.550     853.790      98.676     -999.25     -88.901      69.617
      7859.000     206.475       6.411     823.669      97.251     -999.25     -88.635      68.131
      7859.500     207.013       6.366     793.549      96.404     -999.25     -88.485      67.658
      7860.000     207.616       6.407     763.428      96.258     -999.25     -88.807      68.094
      7860.500     208.556       6.457     733.473      96.436     -999.25     -89.524      68.627
      7861.000     209.811       6.497     742.480      96.439     -999.25     -90.070      69.051
      7861.500     211.613       6.527     772.480      96.451     -999.25     -90.558      69.369
      7862.000     213.318       6.579     796.688      97.025     -999.25     -90.927      69.926
      7862.500     214.824       6.730     826.597      98.356     -999.25     -90.969      71.530
      7863.000     216.954       6.859     850.703     101.034     -999.25     -91.105      72.901
      7863.500     218.526       6.977     874.767     102.653     -999.25     -91.541      74.152
      7864.000     219.945       7.036     899.223     104.460     -999.25     -91.862      74.776
      7864.500     221.451       7.105     929.343     106.413     -999.25     -92.273      75.510
      7865.000     222.712       7.198     959.464     104.136     -999.25     -92.513      76.499
      7865.500     223.085       7.407     989.600     103.547     -999.25     -92.114      78.723
      7866.000     223.387       7.607     998.338     100.848     -999.25     -91.799      80.852
      7866.500     223.688       7.759     968.247      98.722     -999.25     -91.386      82.458
      7867.000     223.989       7.890     938.126      97.548     -999.25     -91.263      83.852
      7867.500     224.290       7.991     908.006      97.391     -999.25     -90.906      84.928
      7868.000     224.871       8.081     877.826      97.385     -999.25     -90.418      85.880
      7868.500     226.222       7.972     841.527      97.209     -999.25     -90.029      84.727
      7869.000     227.917       7.789     826.072      97.041     -999.25     -90.000      82.779
      7869.500     229.971       7.595     851.071      98.223     -999.25     -90.000      80.717
      7870.000     232.079       7.354     880.802     100.034     -999.25     -89.831      78.157
      7870.500     234.187       7.126     904.921     101.508     -999.25     -89.756      75.732
      7871.000     236.296       6.898     929.051     105.666     -999.25     -89.738      73.308
      7871.500     238.662       6.668     959.122     107.304     -999.25     -89.903      70.867
      7872.000     240.620       6.548     983.234     110.150     -999.25     -90.157      69.592
      7872.500     242.428       6.865    1007.398     111.376     -999.25     -90.573      72.963
      7873.000     244.088       7.182    1037.654     112.274     -999.25     -90.735      76.335
      7873.500     245.263       7.396    1061.822     112.981     -999.25     -90.861      78.602
      7874.000     245.476       7.381    1097.693     113.338     -999.25     -91.483      78.442
      7874.500     245.978       7.074    1121.789     113.865     -999.25     -91.691      75.180
      7875.000     245.891       6.773    1145.939     114.046     -999.25     -91.864      71.985
      7875.500     245.632       6.363    1176.225     114.218     -999.25     -92.108      67.622
      7876.000     245.096       5.948    1200.216     113.820     -999.25     -92.352      63.216
      7876.500     244.492       5.273    1229.896     112.891     -999.25     -92.768      56.040
      7877.000     243.890       4.814    1247.968     111.397     -999.25     -93.084      51.163
      7877.500     243.287       4.655    1266.041     109.040     -999.25     -93.328      49.474
      7878.000     242.685       5.105    1284.257     107.073     -999.25     -93.571      54.255
      7878.500     241.872       5.610    1299.180     105.619     -999.25     -93.815      59.621
      7879.000     241.387       5.747    1263.099     103.261     -999.25     -94.059      61.081
      7879.500     240.878       5.867    1226.864     101.479     -999.25     -94.303      62.350
      7880.000     240.275       5.916    1184.629     100.272     -999.25     -94.547      62.875
      7880.500     239.985       6.074    1148.281      99.912     -999.25     -94.791      64.557
      7881.000     240.223       6.436    1107.746      99.373     -999.25     -95.035      68.405
      7881.500     240.714       6.765    1127.181      99.022     -999.25     -95.279      71.900
      7882.000     241.510       7.043    1139.402      98.848     -999.25     -95.523      74.849
      7882.500     242.649       7.307    1157.480      98.878     -999.25     -95.030      77.657
      7883.000     243.711       7.250    1169.486     100.223     -999.25     -94.261      77.051
      7883.500     244.363       7.160    1187.519     102.558     -999.25     -94.109      76.093
      7884.000     244.966       7.060    1199.794     104.001     -999.25     -94.313      75.034
      7884.500     245.758       6.930    1217.848     105.840     -999.25     -94.418      73.652
      7885.000     246.469       6.771    1235.857     108.735     -999.25     -94.255      71.964
      7885.500     247.273       6.642    1247.813     110.076     -999.25     -93.823      70.591
      7886.000     247.912       6.470    1265.906     110.043     -999.25     -93.597      68.760
      7886.500     247.563       6.269    1277.914     109.673     -999.25     -93.997      66.626
      7887.000     246.736       6.078    1295.969     109.137     -999.25     -94.136      64.599
      7887.500     245.579       5.876    1308.050     108.776     -999.25     -94.314      62.451
      7888.000     244.599       5.628    1326.138     108.412     -999.25     -94.418      59.810
      7888.500     243.696       5.539    1337.922     107.852     -999.25     -94.231      58.868
      7889.000     242.982       5.428    1343.113     107.129     -999.25     -94.205      57.692
      7889.500     242.159       5.442    1331.008     106.407     -999.25     -93.833      57.842
      7890.000     241.480       6.748    1324.974     105.684     -999.25     -93.345      71.715
      7890.500     240.878       6.982    1318.910     104.959     -999.25     -92.854      74.202
      7891.000     240.275       7.220    1306.913     103.856     -999.25     -92.781      76.732
      7891.500     240.039       7.458    1300.878     102.784     -999.25     -93.084      79.261
      7892.000     239.833       7.680    1294.759     102.457     -999.25     -93.501      81.621
      7892.500     239.759       7.825    1282.805     102.285     -999.25     -93.815      83.164
      7893.000     239.759       7.772    1276.781     102.293     -999.25     -94.059      82.603
      7893.500     239.971       7.701    1270.757     102.488     -999.25     -94.003      81.847
      7894.000     240.060       7.630    1264.692     103.052     -999.25     -93.860      81.092
      7894.500     240.060       7.579    1252.424     103.946     -999.25     -94.059      80.554
      7895.000     240.230       7.518    1246.925     104.289     -999.25     -94.303      79.905
      7895.500     240.598       7.459    1253.784     104.483     -999.25     -94.686      79.272
      7896.000     240.663       7.438    1272.341     105.212     -999.25     -95.192      79.050
      7896.500     240.663       7.160    1296.144     105.755     -999.25     -95.560      76.098
      7897.000     240.663       6.755    1314.235     106.496     -999.25     -95.658      71.791
