~Version Information
 VERS.                 2.0: 
 WRAP.                 YES: 
 END.                PETRA:GeoPLUS Corporation
~Well Information Block
#MNEM.UNIT       Data Type    Information
#---------    -------------   ---------------------------------
 STRT.F             57.9120:
 STOP.F          11474.9360:
 STEP.F              0.5000:
 NULL.              -999.25:
 COMP.                           : COMPANY
 FLD.       BENEDUM              : FIELD
 LOC.                            : LOCATION
 DATE.      14-OCT-2016          : DATE
 WELL.                           : Well Name
 LABL.      42461342620000                   : Well Label
 APIN.      42461342620000       : API Number
 UWI.       42461342620000       : Unique Well Number
 NUMB.      1                    : Well Number
 OPER.      W T G EXPLORATION    : Operator Name
 LEAS.      UNIVERSITY `3-4`     : Lease Name
~Parameter Block
#MNEM.UNIT           VALUE            Description
#---------    --------------------   ---------------------------------
 EKB.F                  2682.0 : KB Elevation
~Curve Information Block
#MNEM.UNIT      API CODE      Curve Description
#---------    -------------   ---------------------------------
 DEPT.F                   00 000 00 00: Depth (MD)
 CALI.IN                  00 001 00 00: Density Caliper
 DPLS.FRAC                00 002 00 00: DENSITY POROSITY  LIMESTONE
 DRHO.G/CM3               00 003 00 00: Density Correction
 GRD.GAPI                 00 004 00 00: Guard
 GRR.GAPI                 00 005 00 00: Gamma Ray Resistivity Device
 LLD.OHM.M                00 006 00 00: Laterolog Deep
 LLS.OHM.M                00 007 00 00: Laterolog Shallow
 MSFL.OHM.M               00 008 00 00: MICRO SFL
 NPLS.FRAC                00 009 00 00: NEUTRON POROSITY  LIMESTONE
 PEF.B/E                  00 010 00 00: Photo-Electric Factor
 RHOB.G/CM3               00 011 00 00: Bulk Density
 TENS.LB                  00 012 00 00: Tension
 XDPHI.FRAC               00 013 00 00: 
~A
# ...
    5932.912
       9.283       3.882      -0.592     114.513     416.831
     153.250     331.574      31.056       0.267     -41.292
       1.988    4238.885     -999.25
    5933.412
       9.291       3.882      -0.593     113.032     416.073
     153.242     331.526      31.047       0.249     -41.296
       1.987    4219.078     -999.25
    5933.912
       9.307       3.882      -0.593     107.474     415.315
     153.235     331.477      31.038       0.231     -41.300
       1.987    4219.553     -999.25
    5934.412
       9.298       3.882      -0.594     103.496     414.557
     153.228     331.429      31.029       0.238     -41.304
       1.987    4200.003     -999.25
    5934.912
       9.278       3.882      -0.594      95.127     413.799
     153.221     331.380      31.021       0.238     -41.309
       1.987    4200.000     -999.25
    5935.412
       9.235       3.882      -0.595      92.975     413.042
     153.214     331.331      31.012       0.230     -41.313
       1.986    4200.000     -999.25
    5935.912
       9.181       3.882      -0.595      93.684     412.284
     153.206     331.283      31.003       0.214     -41.317
       1.986    4200.658     -999.25
    5936.412
       9.159       3.882      -0.596      98.710     411.527
     153.199     331.234      30.994       0.198     -41.321
       1.986    4240.613     -999.25
    5936.912
       9.192       3.882      -0.597     116.838     410.770
     153.192     331.185      30.985       0.183     -41.325
       1.985    4241.135     -999.25
    5937.412
       9.233       3.882      -0.597     128.597     410.013
     153.184     331.137      30.977       0.270     -41.330
       1.985    4261.115     -999.25
    5937.912
       9.273       3.883      -0.598     134.351     409.256
     153.177     331.088      30.968       0.270     -41.334
       1.985    4281.180     -999.25
    5938.412
       9.314       3.883      -0.598     133.551     408.499
     153.170     331.039      30.959       0.269     -41.338
       1.985    4300.501     -999.25
    5938.912
       9.366       3.883      -0.599     112.043     407.742
     153.162     330.990      30.950       0.275     -41.342
       1.984    4300.002     -999.25
    5939.412
       9.415       3.883      -0.600     102.035     406.986
     153.155     330.941      30.942       0.282     -41.346
       1.984    4300.000     -999.25
    5939.912
       9.468       3.883      -0.600     102.000     406.229
     153.148     330.892      30.933       0.294     -41.350
       1.984    4299.762     -999.25
    5940.412
       9.517       3.883      -0.601     101.972     405.473
     153.140     330.843      30.924       0.297     -41.354
       1.983    4280.009     -999.25
    5940.912
       9.575       3.883      -0.601     101.253     404.717
     153.133     330.794      30.915       0.301     -41.359
       1.983    4280.000     -999.25
    5941.412
       9.537       3.883      -0.602     103.951     403.961
     153.125     330.745      30.907       0.285     -41.363
       1.983    4279.699     -999.25
    5941.912
       9.450       3.883      -0.602     106.656     403.205
     153.118     330.696      30.898       0.288     -41.367
       1.983    4258.884     -999.25
    5942.412
       9.414       3.883      -0.603     101.199     402.449
     153.111     330.647      30.889       0.282     -41.371
       1.982    4239.078     -999.25
    5942.912
       9.410       3.883      -0.604      92.476     401.693
     153.103     330.598      30.880       0.239     -41.375
       1.982    4239.778     -999.25
    5943.412
       9.410       3.883      -0.604      92.584     400.938
     153.096     330.549      30.872       0.191     -41.379
       1.982    4220.105     -999.25
    5943.912
       9.410       3.883      -0.605      89.928     400.182
     153.088     330.499      30.863       0.191     -41.383
       1.981    4240.231     -999.25
    5944.412
       9.409       3.883      -0.605      90.442     399.427
     153.081     330.450      30.854       0.192     -41.387
       1.981    4241.188     -999.25
    5944.912
       9.409       3.883      -0.606      93.158     398.672
     153.073     330.401      30.845       0.239     -41.391
       1.981    4261.116     -999.25
    5945.412
       9.409       3.883      -0.606      96.133     397.917
     153.065     330.352      30.837       0.237     -41.395
       1.981    4280.986     -999.25
    5945.912
       9.409       3.884      -0.607      95.164     397.162
     153.058     330.302      30.828       0.223     -41.399
       1.980    4281.158     -999.25
    5946.412
       9.409       3.884      -0.608     100.060     396.407
     153.050     330.253      30.819       0.242     -41.403
       1.980    4301.116     -999.25
    5946.912
       9.409       3.884      -0.608     108.552     395.653
     153.043     330.204      30.810       0.250     -41.407
       1.980    4320.986     -999.25
    5947.412
       9.409       3.884      -0.609     105.772     394.898
     153.035     330.154      30.802       0.245     -41.411
       1.980    4318.884     -999.25
    5947.912
       9.421       3.884      -0.609     102.573     394.144
     153.028     330.105      30.793       0.233     -41.416
       1.979    4298.884     -999.25
    5948.412
       9.427       3.884      -0.610      96.882     393.390
     153.020     330.055      30.784       0.224     -41.420
       1.979    4279.187     -999.25
    5948.912
       9.441       3.884      -0.611      91.213     392.636
     153.012     330.006      30.775       0.216     -41.424
       1.979    4278.884     -999.25
    5949.412
       9.461       3.884      -0.611      92.178     391.882
     153.005     329.956      30.767       0.212     -41.427
       1.978    4258.884     -999.25
    5949.912
       9.468       3.884      -0.612      95.904     391.128
     152.997     329.906      30.758       0.222     -41.431
       1.978    4238.886     -999.25
    5950.412
       9.482       3.884      -0.612     108.067     390.374
     152.989     329.857      30.749       0.239     -41.435
       1.978    4219.385     -999.25
    5950.912
       9.502       3.884      -0.613     118.562     389.621
     152.982     329.807      30.740       0.256     -41.439
       1.978    4219.898     -999.25
    5951.412
       9.540       3.884      -0.613     124.839     388.867
     152.974     329.757      30.732       0.264     -41.443
       1.977    4200.506     -999.25
    5951.912
       9.634       3.884      -0.614     130.921     388.114
     152.966     329.708      30.723       0.280     -41.447
       1.977    4221.278     -999.25
    5952.412
       9.725       3.884      -0.615     133.897     387.361
     152.959     329.658      30.714       0.280     -41.451
       1.977    4222.098     -999.25
    5952.912
       9.794       3.884      -0.615     121.985     386.608
     152.951     329.608      30.706       0.280     -41.455
       1.976    4242.292     -999.25
    5953.412
       9.844       3.884      -0.616     110.060     385.855
     152.943     329.558      30.697       0.291     -41.459
       1.976    4262.234     -999.25
    5953.912
       9.863       3.884      -0.616     110.574     385.102
     152.935     329.508      30.688       0.301     -41.463
       1.976    4262.075     -999.25
    5954.412
       9.836       3.884      -0.617     112.106     384.349
     152.927     329.458      30.679       0.344     -41.467
       1.976    4281.758     -999.25
    5954.912
       9.765       3.884      -0.617     111.897     383.597
     152.920     329.408      30.671       0.364     -41.471
       1.975    4281.953     -999.25
    5955.412
       9.724       3.884      -0.618     105.595     382.844
     152.912     329.358      30.662       0.351     -41.475
       1.975    4282.147     -999.25
    5955.912
       9.681       3.885      -0.619     118.630     382.092
     152.904     329.308      30.653       0.319     -41.479
       1.975    4282.341     -999.25
