~Version Information
 VERS.                 2.0: 
 WRAP.                 YES: 
 END.                PETRA:GeoPLUS Corporation
~Well Information Block
#MNEM.UNIT       Data Type    Information
#---------    -------------   ---------------------------------
 STRT.F             57.9120:
 STOP.F          11474.9360:
 STEP.F              0.5000:
 NULL.              -999.25:
 COMP.                           : COMPANY
 FLD.       BENEDUM              : FIELD
 LOC.                            : LOCATION
 DATE.      14-OCT-2016          : DATE
 WELL.                           : Well Name
 LABL.      42461342620000                   : Well Label
 APIN.      42461342620000       : API Number
 UWI.       42461342620000       : Unique Well Number
 NUMB.      1                    : Well Number
 OPER.      W T G EXPLORATION    : Operator Name
 LEAS.      UNIVERSITY `3-4`     : Lease Name
~Parameter Block
#MNEM.UNIT           VALUE            Description
#---------    --------------------   ---------------------------------
 EKB.F                  2682.0 : KB Elevation
~Curve Information Block
#MNEM.UNIT      API CODE      Curve Description
#---------    -------------   ---------------------------------
 DEPT.F                   00 000 00 00: Depth (MD)
 CALI.IN                  00 001 00 00: Density Caliper
 DPLS.FRAC                00 002 00 00: DENSITY POROSITY  LIMESTONE
 DRHO.G/CM3               00 003 00 00: Density Correction
 GRD.GAPI                 00 004 00 00: Guard
 GRR.GAPI                 00 005 00 00: Gamma Ray Resistivity Device
 LLD.OHM.M                00 006 00 00: Laterolog Deep
 LLS.OHM.M                00 007 00 00: Laterolog Shallow
 MSFL.OHM.M               00 008 00 00: MICRO SFL
 NPLS.FRAC                00 009 00 00: NEUTRON POROSITY  LIMESTONE
 PEF.B/E                  00 010 00 00: Photo-Electric Factor
 RHOB.G/CM3               00 011 00 00: Bulk Density
 TENS.LB                  00 012 00 00: Tension
 XDPHI.FRAC               00 013 00 00: 
~A
# ...
   10162.912
       8.669      -0.002       0.099      44.619      39.586
    4287.868    1466.545    1958.866       0.025       3.732
       2.698    5856.448       0.006
   10163.412
       8.661       0.008       0.052      40.900      33.281
   22634.178    2044.770    1963.372       0.011       3.911
       2.685    5877.195       0.013
   10163.912
       8.656       0.002       0.005      34.526      28.949
   23263.240    1809.204    1963.372       0.011       4.112
       2.673    5897.278       0.020
   10164.412
       8.656       0.023      -0.008      28.211      27.939
     935.229    1098.949    1963.372       0.011       4.185
       2.645    5875.223       0.034
   10164.912
       8.665       0.030      -0.008      27.963      31.372
     234.272     426.497     971.164       0.012       4.046
       2.611    5874.841       0.054
   10165.412
       8.702       0.055      -0.008      31.924      35.615
     150.247     189.597     133.870       0.035       4.009
       2.578    5854.271       0.074
   10165.912
       8.727       0.084      -0.010      35.849      38.401
     103.387     117.305      89.047       0.073       3.997
       2.561    5855.917       0.084
   10166.412
       8.762       0.111      -0.010      38.408      38.537
     136.035     134.594     215.182       0.095       4.035
       2.528    5876.502       0.104
   10166.912
       8.802       0.107      -0.012      36.444      34.964
     208.075     211.637     593.573       0.090       4.046
       2.530    5876.795       0.107
   10167.412
       8.818       0.091      -0.012      31.580      30.321
     688.528    1248.759    1515.028       0.083       4.162
       2.557    5897.139       0.093
   10167.912
       8.830       0.076      -0.015      27.022      26.511
    6031.247    1977.919    1963.372       0.069       4.301
       2.590    5898.121       0.073
   10168.412
       8.850       0.056      -0.016      23.066      22.970
   27691.594    1981.601    1963.372       0.050       4.394
       2.613    5918.800       0.059
   10168.912
       8.872       0.038      -0.016      19.420      19.634
   39403.636    1981.601    1963.372       0.032       4.462
       2.637    5939.488       0.045
   10169.412
       8.879       0.032      -0.016      17.149      17.367
   39407.242    1981.601    1963.372       0.020       4.578
       2.658    5959.970       0.031
   10169.912
       8.878       0.026      -0.016      16.221      16.365
   39410.847    1981.601    1963.372       0.017       4.634
       2.666    5956.153       0.027
   10170.412
       8.866       0.020      -0.016      15.308      15.879
   39414.454    1981.601    1963.372       0.017       4.669
       2.674    5892.606       0.022
   10170.912
       8.854       0.019      -0.016      15.635      15.831
   39418.062    1981.601    1963.372       0.019       4.689
       2.677    5855.697       0.020
   10171.412
       8.870       0.018      -0.016      15.017      15.224
   39421.780    1981.601    1973.805       0.020       4.707
       2.676    5898.671       0.020
   10171.912
       8.891       0.020      -0.017      14.666      14.417
   39425.414    1981.601    1981.601       0.022       4.648
       2.670    5917.418       0.023
   10172.412
       8.911       0.027      -0.022      13.741      13.687
   39428.884    1981.601    1981.601       0.022       4.548
       2.667    5917.435       0.025
   10172.912
       8.931       0.027      -0.022      12.831      12.958
   39432.491    1981.601    1981.601       0.019       4.526
       2.663    5917.452       0.027
   10173.412
       8.943       0.029      -0.022      12.946      13.824
   39436.099    1981.601    1981.601       0.017       4.574
       2.661    5917.468       0.029
   10173.912
       8.912       0.031      -0.022      13.857      15.101
   39439.708    1981.601    1981.601       0.016       4.632
       2.659    5917.312       0.030
   10174.412
       8.900       0.031      -0.022      14.782      16.020
   39443.318    1991.926    1981.601       0.016       4.674
       2.660    5896.135       0.030
   10174.912
       8.885       0.028      -0.020      16.634      16.938
   39447.251    2000.000    1992.113       0.016       4.733
       2.662    5896.179       0.029
   10175.412
       8.865       0.027      -0.018      17.094      17.596
   39451.259    2000.000    2000.000       0.015       4.743
       2.664    5875.403       0.027
   10175.912
       8.844       0.027      -0.018      16.478      17.332
   39454.871    2000.000    2000.000       0.014       4.684
       2.666    5877.371       0.026
   10176.412
       8.824       0.026      -0.014      15.838      16.936
   39458.482    2000.000    2000.000       0.016       4.582
       2.668    5923.355       0.025
   10176.912
       8.814       0.032      -0.012      14.910      15.920
   39462.091    2000.000    2000.000       0.017       4.484
       2.668    6021.534       0.024
   10177.412
       8.819       0.041      -0.012      13.989      14.363
   39465.702    2000.000    2000.000       0.016       4.414
       2.649    5973.640       0.034
   10177.912
       8.792       0.048      -0.008      14.157      14.903
   39635.278    2000.000    2000.000       0.016       4.236
       2.631    5891.544       0.045
   10178.412
       8.749       0.050      -0.008      16.603      16.928
   27399.447    2000.000    2000.000       0.017       4.038
       2.626    5832.665       0.050
   10178.912
       8.688       0.046      -0.008      18.125      18.306
    8417.363    2000.000    1889.035       0.019       3.936
       2.631    5837.309       0.047
   10179.412
       8.672       0.036      -0.010      19.648      19.773
    4181.525    1959.332    1494.979       0.019       3.876
       2.639    5876.511       0.043
   10179.912
       8.672       0.031      -0.012      20.815      21.277
    1835.611    1650.899    1298.482       0.017       3.815
       2.649    5876.535       0.037
   10180.412
       8.672       0.029      -0.015      20.683      21.274
    1401.741    1295.265    1003.922       0.015       3.758
       2.660    5876.957       0.030
   10180.912
       8.659       0.024      -0.016      19.759      20.139
    1172.716    1064.384     722.549       0.012       3.766
       2.667    5897.154       0.026
   10181.412
       8.652       0.022      -0.016      18.844      19.055
    1103.549     933.836     606.503       0.012       3.766
       2.671    5897.174       0.023
   10181.912
       8.638       0.023      -0.016      18.965      19.837
    1068.702     856.365     723.070       0.012       3.763
       2.672    5898.260       0.022
   10182.412
       8.632       0.023      -0.016      19.875      20.918
    1029.547     805.085     815.895       0.011       3.680
       2.671    5914.770       0.023
   10182.912
       8.605       0.022      -0.016      20.784      21.805
     916.337     725.169     813.239       0.012       3.537
       2.670    5873.696       0.023
   10183.412
       8.577       0.024      -0.016      21.394      22.890
     703.434     610.210     705.877       0.013       3.431
       2.668    5832.701       0.024
   10183.912
       8.498       0.026      -0.013      22.612      24.115
     541.854     502.487     453.115       0.015       3.371
       2.670    5816.840       0.024
   10184.412
       8.461       0.024      -0.006      23.521      25.449
     445.713     431.771     300.728       0.016       3.311
       2.673    5879.753       0.023
   10184.912
       8.477       0.020      -0.003      24.480      26.729
     447.891     414.725     334.638       0.017       3.285
       2.685    5921.170       0.015
   10185.412
       8.516       0.016       0.003      26.005      28.029
     484.557     431.899     418.381       0.019       3.327
       2.685    5958.937       0.014
   10185.912
       8.526       0.014       0.006      27.562      30.008
     521.235     457.491     513.439       0.019       3.343
       2.682    5958.947       0.016
