~Version Information
 VERS.                 2.0: 
 WRAP.                  NO: 
 END.                PETRA:GeoPLUS Corporation
~Well Information Block
#MNEM.UNIT       Data Type    Information
#---------    -------------   ---------------------------------
 STRT.F              0.0000:
 STOP.F          10696.1560:
 STEP.F              0.5000:
 NULL.              -999.25:
 COMP.                           : COMPANY
 FLD.       FLAT ROCK            : FIELD
 LOC.                            : LOCATION
 DATE.      14-OCT-2016          : DATE
 WELL.                           : Well Name
 LABL.      42461037730000                   : Well Label
 APIN.      42461037730000       : API Number
 UWI.       42461037730000       : Unique Well Number
 NUMB.      3                    : Well Number
 OPER.      OXY U S A INC        : Operator Name
 LEAS.      UNIVERSITY-AQ        : Lease Name
~Parameter Block
#MNEM.UNIT           VALUE            Description
#---------    --------------------   ---------------------------------
~Curve Information Block
#MNEM.UNIT      API CODE      Curve Description
#---------    -------------   ---------------------------------
 DEPT.F                   00 000 00 00: Depth (MD)
 ASN.OHM.M                00 001 00 00: AMPLIFIED SHORT NORMAL
 GR.GAPI                  00 002 00 00: GAMMA RAY
 LAT19.OHM.M              00 003 00 00: 
 LAT32.OHM.M              00 004 00 00: 
 SN.OHM.M                 00 005 00 00: 16-in Short Normal
 SP.MV                    00 006 00 00: Spontaneous Potential
 XGR.API                  00 007 00 00: gamma ray
~A        DEPT         ASN          GR       LAT19       LAT32          SN          SP         XGR
# ...
      2268.000      72.161       1.491      25.496       1.725       4.883     -95.904      90.534
      2268.500      69.063       1.416      24.050       1.876       5.004     -96.933      87.207
      2269.000      70.437       1.349      22.604       2.034       5.112     -96.626      93.242
      2269.500      72.209       1.374      21.427       2.183       5.220     -96.935      98.964
      2270.000      73.802       1.400      21.451       2.250       5.291     -98.804     102.322
      2270.500      71.872       1.425      21.703       2.212       5.364     -98.401     100.077
      2271.000      69.942       1.450      22.685       2.126       5.423     -96.803     101.129
      2271.500      68.485       1.442      24.127       2.083       5.459     -96.335      90.776
      2272.000      71.024       1.425      24.837       1.982       5.495     -96.857      83.544
      2272.500      74.512       1.382      25.311       1.847       5.518     -96.868      79.724
      2273.000      77.864       1.330      25.566       1.769       5.530     -96.868      74.580
      2273.500      81.252       1.279      26.288       1.704       5.543     -96.626      70.841
      2274.000      78.360       1.262      27.013       1.662       5.554     -97.486      79.252
      2274.500      72.956       1.271      27.982       1.678       5.554     -99.067      76.649
      2275.000      67.561       1.306      28.942       1.713       5.579    -100.641      72.316
      2275.500      65.539       1.375      29.661       1.698       5.591    -101.965      77.901
      2276.000      64.172       1.442      30.384       1.676       5.603    -102.074      85.197
      2276.500      61.528       1.501      31.110       1.655       5.639    -100.205      85.251
      2277.000      60.588       1.568      32.071       1.641       5.651     -99.502      85.208
      2277.500      63.480       1.659      32.794       1.633       5.675    -100.864      91.901
      2278.000      68.813       1.751      33.517       1.634       5.687    -100.867      89.397
      2278.500      78.873       1.817      34.240       1.656       5.711     -99.572      85.642
      2279.000      84.745       1.934      34.964       1.678       5.723     -98.283      69.332
      2279.500      86.286       2.026      36.193       1.699       5.723     -97.172      58.375
      2280.000      85.746       2.161      37.877       1.721       5.723     -97.266      63.662
      2280.500      86.257       2.338      39.076       1.735       5.710     -98.056      71.758
      2281.000      86.939       2.506      40.541       1.735       5.698     -99.088      81.215
      2281.500      86.167       2.607      43.173       1.735       5.674     -98.556      89.959
      2282.000      87.442       2.716      45.548       1.727       5.650     -96.975      94.599
      2282.500      89.191       2.724      47.685       1.698       5.626     -95.399      91.945
      2283.000      90.537       2.664      49.577       1.715       5.589     -96.226      88.329
      2283.500      96.218       2.571      50.766       1.758       5.553     -96.626      83.716
      2284.000     101.380       2.419      52.683       1.809       5.542     -96.636      74.502
      2284.500     102.744       2.233      54.842       1.851       5.518     -96.385      82.252
      2285.000     100.294       2.049      57.953       1.887       5.506     -96.268      92.249
      2285.500     100.554       1.890      60.569       1.960       5.494     -95.288      99.966
      2286.000     101.486       1.766      63.669       2.038       5.494     -95.424     106.707
      2286.500     102.965       1.683      66.505       2.110       5.494     -96.396     101.489
      2287.000     107.308       1.641      68.389       2.188       5.482     -98.860      90.081
      2287.500     110.470       1.625      70.049       2.267       5.469     -96.710      80.514
      2288.000     106.967       1.668      71.469       2.346       5.433     -95.386      69.178
      2288.500     100.518       1.895      72.662       2.461       5.396     -95.422      70.978
      2289.000      94.365       2.397      74.334       2.454       5.348     -94.187      83.647
      2289.500      89.828       2.650      75.760       2.332       5.300     -96.380      93.512
      2290.000      85.385       2.895      76.905       2.210       5.239     -98.720      89.979
      2290.500      80.322       3.157      74.232       2.083       5.166     -99.136      91.207
      2291.000      75.259       3.333      72.320       2.078       5.094     -98.828      89.183
      2291.500      72.892       3.527      70.413       2.050       5.010     -98.801      83.641
      2292.000      74.025       3.788      67.757       2.035       4.962     -99.332      86.508
      2292.500      75.726       3.991      64.688       2.021       4.902    -100.545      84.386
      2293.000      77.442       4.193      63.804       1.999       4.842     -99.323      87.069
      2293.500      79.103       4.259      63.821       1.970       4.794     -97.108      80.929
      2294.000      79.130       4.284      64.295       1.927       4.745     -97.108      75.676
      2294.500      76.977       4.284      64.284       1.848       4.673     -97.108      83.033
      2295.000      75.926       4.207      63.748       1.776       4.624     -97.108      85.093
      2295.500      76.678       4.098      61.844       1.717       4.552     -97.160      78.819
      2296.000      82.392       3.971      59.920       1.491       4.480     -97.986      85.557
      2296.500      87.533       3.836      56.036       1.311       4.408     -98.551      79.979
      2297.000      86.256       3.684      50.509       1.220       4.347     -98.554      71.333
      2297.500      82.279       3.524      43.846       1.170       4.287     -98.795      76.884
      2298.000      78.378       3.389      37.886       1.134       4.240     -98.795      72.641
      2298.500      76.235       3.203      32.634       1.083       4.204     -99.036      81.859
      2299.000      77.153       3.034      30.330       1.047       4.180     -99.346      90.825
      2299.500      79.695       2.840      29.361       1.011       4.169     -99.905      85.418
      2300.000      79.973       2.646      28.157       0.975       4.169     -99.311      81.544
      2300.500      76.941       2.461      27.203       0.946       4.169     -98.514      78.336
      2301.000      75.278       2.327      26.747       0.918       4.182     -97.482      79.541
      2301.500      77.266       2.268      27.002       0.934       4.231     -99.244      75.192
      2302.000      75.830       2.218      27.493       1.002       4.291    -103.298      79.374
      2302.500      72.508       2.193      28.216       1.124       4.339    -101.010      75.512
      2303.000      69.219       2.184      28.941       1.247       4.411    -101.782      81.663
      2303.500      69.949       2.227      29.654       1.310       4.459    -101.390      89.280
      2304.000      74.648       2.278      30.137       1.369       4.508    -101.159      84.046
      2304.500      81.073       2.336      30.611       1.470       4.556    -100.138      74.003
      2305.000      84.783       2.379      30.603       1.519       4.592     -99.416      74.757
      2305.500      84.880       2.421      30.603       1.540       4.652     -98.801      77.441
      2306.000      85.235       2.437      30.855       1.547       4.700     -98.010      83.455
      2306.500      86.770       2.446      31.350       1.570       4.736     -97.220      84.335
      2307.000      87.362       2.429      32.071       1.613       4.760     -97.969      79.977
      2307.500      85.078       2.395      32.795       1.657       4.784     -99.566      91.359
      2308.000      80.762       2.344      34.035       1.708       4.796    -101.383      87.233
