~Version Information
 VERS.                 2.0: 
 WRAP.                 YES: 
 END.                PETRA:GeoPLUS Corporation
~Well Information Block
#MNEM.UNIT       Data Type    Information
#---------    -------------   ---------------------------------
 STRT.F             57.9120:
 STOP.F          11474.9360:
 STEP.F              0.5000:
 NULL.              -999.25:
 COMP.                           : COMPANY
 FLD.       BENEDUM              : FIELD
 LOC.                            : LOCATION
 DATE.      14-OCT-2016          : DATE
 WELL.                           : Well Name
 LABL.      42461342620000                   : Well Label
 APIN.      42461342620000       : API Number
 UWI.       42461342620000       : Unique Well Number
 NUMB.      1                    : Well Number
 OPER.      W T G EXPLORATION    : Operator Name
 LEAS.      UNIVERSITY `3-4`     : Lease Name
~Parameter Block
#MNEM.UNIT           VALUE            Description
#---------    --------------------   ---------------------------------
 EKB.F                  2682.0 : KB Elevation
~Curve Information Block
#MNEM.UNIT      API CODE      Curve Description
#---------    -------------   ---------------------------------
 DEPT.F                   00 000 00 00: Depth (MD)
 CALI.IN                  00 001 00 00: Density Caliper
 DPLS.FRAC                00 002 00 00: DENSITY POROSITY  LIMESTONE
 DRHO.G/CM3               00 003 00 00: Density Correction
 GRD.GAPI                 00 004 00 00: Guard
 GRR.GAPI                 00 005 00 00: Gamma Ray Resistivity Device
 LLD.OHM.M                00 006 00 00: Laterolog Deep
 LLS.OHM.M                00 007 00 00: Laterolog Shallow
 MSFL.OHM.M               00 008 00 00: MICRO SFL
 NPLS.FRAC                00 009 00 00: NEUTRON POROSITY  LIMESTONE
 PEF.B/E                  00 010 00 00: Photo-Electric Factor
 RHOB.G/CM3               00 011 00 00: Bulk Density
 TENS.LB                  00 012 00 00: Tension
 XDPHI.FRAC               00 013 00 00: 
~A
# ...
    4099.912
       7.988       1.091       1.010      29.760    1702.738
     162.792     283.452      65.189       0.177      -2.342
       3.043    3640.000     -999.25
    4100.412
       7.988       1.092       1.010      31.600    1703.428
     162.774     283.527      65.181       0.177      -2.351
       3.043    3640.000     -999.25
    4100.912
       7.988       1.093       1.010      32.823    1704.116
     162.755     283.601      65.173       0.159      -2.359
       3.043    3640.000     -999.25
    4101.412
       7.988       1.094       1.010      34.359    1704.804
     162.736     283.675      65.165       0.163      -2.368
       3.043    3640.296     -999.25
    4101.912
       7.989       1.095       1.011      35.187    1705.491
     162.717     283.750      65.157       0.167      -2.377
       3.043    3660.270     -999.25
    4102.412
       7.989       1.096       1.011      32.383    1706.177
     162.698     283.824      65.149       0.171      -2.386
       3.043    3640.005     -999.25
    4102.912
       7.989       1.097       1.011      31.190    1706.862
     162.679     283.898      65.141       0.175      -2.395
       3.043    3640.000     -999.25
    4103.412
       7.989       1.098       1.011      30.589    1707.546
     162.661     283.973      65.133       0.171      -2.404
       3.043    3640.000     -999.25
    4103.912
       7.989       1.099       1.012      30.305    1708.230
     162.642     284.047      65.126       0.171      -2.413
       3.043    3640.000     -999.25
    4104.412
       7.990       1.100       1.012      30.978    1708.912
     162.623     284.121      65.118       0.174      -2.422
       3.043    3640.000     -999.25
    4104.912
       7.990       1.101       1.012      33.218    1709.594
     162.605     284.195      65.110       0.170      -2.431
       3.043    3640.000     -999.25
    4105.412
       7.990       1.102       1.013      36.899    1710.274
     162.586     284.269      65.102       0.166      -2.440
       3.043    3640.000     -999.25
    4105.912
       7.990       1.103       1.013      39.576    1710.954
     162.567     284.343      65.094       0.162      -2.448
       3.043    3640.000     -999.25
    4106.412
       7.991       1.104       1.013      40.422    1711.632
     162.549     284.417      65.086       0.167      -2.457
       3.043    3640.000     -999.25
    4106.912
       7.991       1.105       1.013      40.396    1712.310
     162.530     284.491      65.078       0.178      -2.466
       3.043    3639.722     -999.25
    4107.412
       7.991       1.106       1.014      39.378    1712.987
     162.511     284.565      65.070       0.189      -2.475
       3.043    3619.963     -999.25
    4107.912
       7.991       1.107       1.014      36.590    1713.663
     162.493     284.639      65.062       0.185      -2.484
       3.043    3620.000     -999.25
    4108.412
       7.991       1.108       1.014      33.504    1714.338
     162.474     284.713      65.054       0.178      -2.493
       3.043    3620.000     -999.25
    4108.912
       7.992       1.109       1.014      29.923    1715.012
     162.456     284.787      65.046       0.168      -2.502
       3.043    3620.000     -999.25
    4109.412
       7.992       1.110       1.015      29.670    1715.686
     162.437     284.861      65.038       0.161      -2.511
       3.043    3620.000     -999.25
    4109.912
       7.992       1.111       1.015      29.182    1716.358
     162.419     284.934      65.030       0.164      -2.520
       3.043    3620.088     -999.25
    4110.412
       7.992       1.112       1.015      31.007    1717.029
     162.400     285.008      65.022       0.167      -2.529
       3.043    3639.935     -999.25
    4110.912
       7.993       1.113       1.016      32.843    1717.700
     162.382     285.082      65.015       0.168      -2.538
       3.043    3640.000     -999.25
    4111.412
       7.993       1.114       1.016      33.966    1718.370
     162.363     285.156      65.007       0.159      -2.547
       3.043    3640.000     -999.25
    4111.912
       7.993       1.115       1.016      31.463    1719.038
     162.345     285.229      64.999       0.159      -2.556
       3.043    3640.000     -999.25
    4112.412
       7.993       1.116       1.016      30.263    1719.706
     162.326     285.303      64.991       0.160      -2.565
       3.043    3640.000     -999.25
    4112.912
       7.994       1.117       1.017      29.356    1720.373
     162.308     285.376      64.983       0.157      -2.574
       3.043    3640.000     -999.25
    4113.412
       7.994       1.118       1.017      28.456    1721.039
     162.290     285.450      64.975       0.152      -2.583
       3.043    3640.000     -999.25
    4113.912
       7.994       1.119       1.017      27.909    1721.704
     162.271     285.523      64.967       0.157      -2.592
       3.042    3640.000     -999.25
    4114.412
       7.994       1.120       1.017      28.861    1722.368
     162.253     285.597      64.959       0.166      -2.601
       3.042    3640.000     -999.25
    4114.912
       7.994       1.121       1.018      30.027    1723.032
     162.235     285.670      64.951       0.174      -2.610
       3.042    3640.000     -999.25
    4115.412
       7.995       1.122       1.018      29.985    1723.694
     162.217     285.744      64.943       0.178      -2.619
       3.042    3640.000     -999.25
    4115.912
       7.995       1.123       1.018      29.701    1724.355
     162.198     285.817      64.935       0.165      -2.628
       3.042    3640.000     -999.25
    4116.412
       7.995       1.124       1.018      29.700    1725.016
     162.180     285.891      64.927       0.158      -2.637
       3.042    3640.000     -999.25
    4116.912
       7.995       1.125       1.019      29.703    1725.676
     162.162     285.964      64.919       0.162      -2.646
       3.042    3640.000     -999.25
    4117.412
       7.996       1.126       1.019      30.677    1726.334
     162.144     286.037      64.911       0.162      -2.655
       3.042    3639.842     -999.25
    4117.912
       7.996       1.127       1.019      32.233    1726.992
     162.125     286.110      64.903       0.160      -2.664
       3.042    3619.325     -999.25
    4118.412
       7.996       1.128       1.019      34.402    1727.649
     162.107     286.184      64.895       0.157      -2.673
       3.042    3620.473     -999.25
    4118.912
       7.996       1.129       1.020      37.202    1728.305
     162.089     286.257      64.887       0.159      -2.682
       3.042    3640.000     -999.25
    4119.412
       7.997       1.130       1.020      40.872    1728.961
     162.071     286.330      64.879       0.161      -2.692
       3.042    3640.000     -999.25
    4119.912
       7.997       1.131       1.020      43.928    1729.615
     162.053     286.403      64.871       0.162      -2.701
       3.042    3640.000     -999.25
    4120.412
       7.997       1.132       1.020      47.260    1730.268
     162.035     286.476      64.863       0.157      -2.710
       3.042    3640.000     -999.25
    4120.912
       7.997       1.133       1.021      48.805    1730.921
     162.017     286.549      64.855       0.153      -2.719
       3.042    3640.000     -999.25
    4121.412
       7.997       1.134       1.021      45.092    1731.572
     161.999     286.622      64.847       0.149      -2.728
       3.042    3640.000     -999.25
    4121.912
       7.998       1.135       1.021      40.828    1732.223
     161.981     286.695      64.839       0.144      -2.737
       3.042    3640.000     -999.25
    4122.412
       7.998       1.136       1.021      36.848    1732.872
     161.963     286.768      64.831       0.147      -2.746
       3.042    3640.000     -999.25
    4122.912
       7.998       1.137       1.022      32.864    1733.521
     161.945     286.841      64.823       0.150      -2.755
       3.042    3640.000     -999.25
