~Version Information
 VERS.                 2.0: 
 WRAP.                 YES: 
 END.                PETRA:GeoPLUS Corporation
~Well Information Block
#MNEM.UNIT       Data Type    Information
#---------    -------------   ---------------------------------
 STRT.F           1066.8000:
 STOP.F           7799.8000:
 STEP.F              0.5000:
 NULL.              -999.25:
 COMP.                           : COMPANY
 FLD.       FLAT ROCK            : FIELD
 LOC.                            : LOCATION
 DATE.      14-OCT-2016          : DATE
 WELL.                           : Well Name
 LABL.      42461318260000                   : Well Label
 APIN.      42461318260000       : API Number
 UWI.       42461318260000       : Unique Well Number
 NUMB.      1                    : Well Number
 OPER.      KIMBARK OIL & GAS CO : Operator Name
 LEAS.      UNIVERSITY `31-3`    : Lease Name
~Parameter Block
#MNEM.UNIT           VALUE            Description
#---------    --------------------   ---------------------------------
 EKB.F                  2786.0 : KB Elevation
~Curve Information Block
#MNEM.UNIT      API CODE      Curve Description
#---------    -------------   ---------------------------------
 DEPT.F                   00 000 00 00: Depth (MD)
 CALI.IN                  00 001 00 00: Density Caliper
 DPHI.FRAC                00 002 00 00: Density Porosity
 DRHO.G/CM3               00 003 00 00: Density Correction
 GR.GAPI                  00 004 00 00: GAMMA RAY
 ILD.OHM.M                00 005 00 00: Induction Deep Resistivity
 NPHI.FRAC                00 006 00 00: Neutron Porosity
 PAY_TOC.                 00 007 00 00: TOC proxy
 SP.MV                    00 008 00 00: Spontaneous Potential
~A
# ...
    1942.800
       9.931       0.095       0.012      93.119       5.607
       0.203     -999.25     -93.485
    1943.300
       9.933       0.102       0.000      89.907       5.941
       0.200     -999.25     -91.705
    1943.800
       9.948       0.105       0.015      91.798       6.340
       0.216     -999.25     -89.862
    1944.300
       9.948       0.083       0.028      99.266       6.778
       0.222     -999.25     -89.361
    1944.800
       9.927       0.089       0.029      94.705       7.295
       0.209     -999.25     -90.553
    1945.300
       9.826       0.097       0.016     100.274       7.733
       0.228     -999.25     -89.606
    1945.800
       9.681       0.112       0.017     101.795       8.197
       0.258     -999.25     -88.750
    1946.300
       9.739       0.121       0.005     108.471       8.570
       0.234     -999.25     -87.514
    1946.800
       9.871       0.090       0.021     108.014       8.793
       0.237     -999.25     -87.242
    1947.300
       9.925       0.101       0.029      90.187       8.823
       0.230     -999.25     -88.487
    1947.800
       9.943       0.099       0.025     103.607       8.644
       0.242     -999.25     -91.298
    1948.300
       9.943       0.094       0.012      87.270       8.203
       0.207     -999.25     -93.648
    1948.800
       9.921       0.105       0.014      97.562       7.826
       0.206     -999.25     -98.344
    1949.300
       9.872       0.097       0.015      96.349       7.622
       0.210     -999.25    -100.281
    1949.800
       9.817       0.101      -0.008      76.801       7.506
       0.180     -999.25     -98.356
    1950.300
       9.769       0.093      -0.007      83.908       7.557
       0.181     -999.25     -95.416
    1950.800
       9.742       0.110       0.000      94.994       7.674
       0.209     -999.25     -94.628
    1951.300
       9.698       0.104       0.009     102.217       7.860
       0.234     -999.25     -96.068
    1951.800
       9.655       0.083       0.019     109.041       8.013
       0.224     -999.25     -96.974
    1952.300
       9.618       0.110       0.030      94.203       8.144
       0.201     -999.25     -96.143
    1952.800
       9.599       0.091       0.008      99.915       8.091
       0.211     -999.25     -94.591
    1953.300
       9.579       0.107       0.013      91.673       7.928
       0.198     -999.25     -92.114
    1953.800
       9.579       0.098       0.004      99.220       7.698
       0.209     -999.25     -90.154
    1954.300
       9.550       0.104       0.000      91.234       7.467
       0.215     -999.25     -90.177
    1954.800
       9.504       0.100       0.002      91.306       7.374
       0.221     -999.25     -90.946
    1955.300
       9.439       0.099       0.014      89.573       7.453
       0.237     -999.25     -91.370
    1955.800
       9.424       0.115      -0.002     111.262       7.983
       0.264     -999.25     -91.012
    1956.300
       9.406       0.126       0.006     110.084       8.643
       0.272     -999.25     -90.705
    1956.800
       9.387       0.111       0.016     116.563       8.702
       0.238     -999.25     -91.716
    1957.300
       9.386       0.088       0.026      99.490       7.944
       0.188     -999.25     -96.092
    1957.800
       9.358       0.084       0.031      80.716       6.957
       0.194     -999.25    -100.053
    1958.300
       9.297       0.085       0.011      86.964       6.448
       0.199     -999.25    -100.643
    1958.800
       9.234       0.089       0.009      81.567       6.380
       0.168     -999.25     -99.204
    1959.300
       9.190       0.107       0.014      80.456       6.604
       0.191     -999.25     -96.111
    1959.800
       9.124       0.124       0.012      97.391       6.964
       0.246     -999.25     -93.272
    1960.300
       9.085       0.087       0.005     100.081       7.275
       0.246     -999.25     -90.130
    1960.800
       9.062       0.107       0.012      89.575       7.840
       0.216     -999.25     -87.567
    1961.300
       9.043       0.127       0.003     104.605       8.521
       0.267     -999.25     -85.701
    1961.800
       9.042       0.105       0.008     107.555       9.065
       0.284     -999.25     -85.133
    1962.300
       9.023       0.107       0.081     100.283       8.937
       0.253     -999.25     -84.086
    1962.800
       9.022       0.106       0.033     102.211       8.535
       0.252     -999.25     -84.768
    1963.300
       9.040       0.078       0.012      96.936       8.147
       0.237     -999.25     -88.694
    1963.800
       9.040       0.119       0.026     107.599       7.890
       0.246     -999.25     -91.677
    1964.300
       9.039       0.102       0.018      95.729       7.749
       0.256     -999.25     -93.336
    1964.800
       9.038       0.081       0.031      80.186       7.820
       0.217     -999.25     -92.581
    1965.300
       9.004       0.099       0.030      89.370       8.117
       0.218     -999.25     -91.038
    1965.800
       8.981       0.094       0.006      84.690       8.520
       0.212     -999.25     -90.730
    1966.300
       8.980       0.129       0.002      97.504       8.914
       0.244     -999.25     -92.470
    1966.800
       8.979       0.097       0.017     106.021       8.864
       0.224     -999.25     -94.948
    1967.300
       8.979       0.090       0.025      87.856       8.172
       0.186     -999.25     -97.214
    1967.800
       8.997       0.091       0.006      71.384       7.708
       0.163     -999.25     -98.730
    1968.300
       9.022       0.090       0.008      80.637       6.714
       0.191     -999.25     -98.838
    1968.800
       9.039       0.089       0.017      97.212       5.914
       0.212     -999.25     -97.654
    1969.300
       9.052       0.078       0.023     107.341       6.108
       0.235     -999.25     -95.606
    1969.800
       9.070       0.114       0.024      96.977       6.609
       0.207     -999.25     -92.333
    1970.300
       9.069       0.126       0.016     105.349       7.138
       0.252     -999.25     -90.457
    1970.800
       9.068       0.113       0.033     114.574       7.484
       0.263     -999.25     -89.467
    1971.300
       9.049       0.129       0.048     113.189       7.378
       0.255     -999.25     -89.885
    1971.800
       9.016       0.092       0.037      97.173       6.977
       0.235     -999.25     -90.569
    1972.300
       8.959       0.098       0.033      96.354       6.889
       0.228     -999.25     -91.338
    1972.800
       8.952       0.100       0.011      89.372       7.211
       0.224     -999.25     -91.848
    1973.300
       8.915       0.102       0.017      94.341       7.829
       0.230     -999.25     -92.675
    1973.800
       8.906       0.123       0.014     102.750       8.448
       0.236     -999.25     -92.702
    1974.300
       8.856       0.107      -0.003      83.652       8.799
       0.215     -999.25     -92.554
    1974.800
       8.834       0.132      -0.006      95.868       8.712
       0.248     -999.25     -91.490
    1975.300
       8.815       0.117       0.003     101.187       8.378
       0.238     -999.25     -90.358
    1975.800
       8.799       0.097       0.022      92.657       7.836
       0.206     -999.25     -89.418
    1976.300
       8.780       0.101       0.030      96.832       7.509
       0.220     -999.25     -89.000
    1976.800
       8.798       0.103       0.013     104.038       7.503
       0.245     -999.25     -89.030
    1977.300
       8.816       0.076       0.015      84.384       7.499
       0.159     -999.25     -89.848
    1977.800
       8.815       0.092       0.018      88.619       6.220
       0.199     -999.25     -90.234
    1978.300
       8.833       0.111       0.003      98.425       5.362
       0.235     -999.25     -90.147
    1978.800
       8.833       0.050      -0.003     100.235       5.749
       0.229     -999.25     -89.905
