~Version Information
 VERS.                 2.0: 
 WRAP.                  NO: 
 END.                PETRA:GeoPLUS Corporation
~Well Information Block
#MNEM.UNIT       Data Type    Information
#---------    -------------   ---------------------------------
 STRT.F              0.0000:
 STOP.F          10696.1560:
 STEP.F              0.5000:
 NULL.              -999.25:
 COMP.                           : COMPANY
 FLD.       FLAT ROCK            : FIELD
 LOC.                            : LOCATION
 DATE.      14-OCT-2016          : DATE
 WELL.                           : Well Name
 LABL.      42461037730000                   : Well Label
 APIN.      42461037730000       : API Number
 UWI.       42461037730000       : Unique Well Number
 NUMB.      3                    : Well Number
 OPER.      OXY U S A INC        : Operator Name
 LEAS.      UNIVERSITY-AQ        : Lease Name
~Parameter Block
#MNEM.UNIT           VALUE            Description
#---------    --------------------   ---------------------------------
~Curve Information Block
#MNEM.UNIT      API CODE      Curve Description
#---------    -------------   ---------------------------------
 DEPT.F                   00 000 00 00: Depth (MD)
 ASN.OHM.M                00 001 00 00: AMPLIFIED SHORT NORMAL
 GR.GAPI                  00 002 00 00: GAMMA RAY
 LAT19.OHM.M              00 003 00 00: 
 LAT32.OHM.M              00 004 00 00: 
 SN.OHM.M                 00 005 00 00: 16-in Short Normal
 SP.MV                    00 006 00 00: Spontaneous Potential
 XGR.API                  00 007 00 00: gamma ray
~A        DEPT         ASN          GR       LAT19       LAT32          SN          SP         XGR
# ...
     10651.500     107.867       5.534      33.751     104.452     -999.25     -31.250      58.814
     10652.000     105.685       5.513      34.955     100.957     -999.25     -31.497      58.591
     10652.500     102.818       5.687      35.406      94.121     -999.25     -31.745      60.437
     10653.000      99.829       5.729      34.631      87.201     -999.25     -31.992      60.885
     10653.500      96.936       5.404      33.236      82.521     -999.25     -32.239      57.430
     10654.000      94.876       5.126      31.064      81.809     -999.25     -32.486      54.484
     10654.500      92.843       5.875      28.976      80.907     -999.25     -32.733      62.444
     10655.000      91.928       6.279      27.893      80.221     -999.25     -32.810      66.731
     10655.500      92.796       5.988      27.941      81.069     -999.25     -32.992      63.644
     10656.000      93.466       5.732      30.230      82.858     -999.25     -33.237      60.922
     10656.500      94.069       6.093      32.810      84.129     -999.25     -33.624      64.759
     10657.000      94.501       6.065      35.144      85.541     -999.25     -34.122      64.459
     10657.500      93.106       6.267      37.306      86.445     -999.25     -34.605      66.610
     10658.000      91.502       6.679      39.366      87.321     -999.25     -35.088      70.981
     10658.500      89.772       6.934      39.854      85.560     -999.25     -35.570      73.699
     10659.000      88.204       6.873      40.511      78.672     -999.25     -35.984      73.050
     10659.500      86.468       7.175      40.193      74.146     -999.25     -35.575      76.253
     10660.000      84.661       7.740      38.770      69.172     -999.25     -34.621      82.259
     10660.500      83.148       7.481      35.711      65.917     -999.25     -35.444      79.507
     10661.000      82.525       7.641      31.856      63.799     -999.25     -38.729      81.208
     10661.500      82.822       7.907      28.015      62.060     -999.25     -40.806      84.040
     10662.000      84.015       8.288      25.219      62.230     -999.25     -40.768      88.082
     10662.500      86.080       8.712      23.529      64.276     -999.25     -40.791      92.590
     10663.000      89.173       9.013      22.480      67.176     -999.25     -41.420      95.786
     10663.500      92.632       8.171      22.038      71.016     -999.25     -42.134      86.839
     10664.000      96.736       7.858      22.198      75.867     -999.25     -42.848      83.520
     10664.500     100.937       7.988      22.969      80.954     -999.25     -43.190      84.899
     10665.000     105.108       7.416      24.230      86.743     -999.25     -42.434      78.814
     10665.500     109.274       6.828      25.316      91.993     -999.25     -42.824      72.563
     10666.000     113.186       5.893      26.579      96.836     -999.25     -42.736      62.628
     10666.500     116.087       5.984      27.595     100.083     -999.25     -41.208      63.596
     10667.000     118.576       5.879      28.475     103.184     -999.25     -40.646      62.480
     10667.500     120.524       5.811      28.680     105.887     -999.25     -41.924      61.762
     10668.000     122.551       5.361      28.685     107.431     -999.25     -43.024      56.972
     10668.500     123.603       4.888      29.078     107.938     -999.25     -43.839      51.948
     10669.000     124.586       5.154      29.739     108.122     -999.25     -44.032      54.777
     10669.500     125.788       5.438      30.339     108.307     -999.25     -44.545      57.799
     10670.000     126.993       5.543      30.887     108.679     -999.25     -44.892      58.915
     10670.500     128.198       5.793      31.549     108.863     -999.25     -45.312      61.572
     10671.000     129.222       5.821      32.214     109.642     -999.25     -45.788      61.866
     10671.500     130.398       5.661      33.006     111.100     -999.25     -46.539      60.167
     10672.000     130.547       5.908      33.848     111.160     -999.25     -47.528      62.792
     10672.500     130.422       6.184      34.561     110.074     -999.25     -48.143      65.729
     10673.000     130.422       5.720      35.156     109.342     -999.25     -48.957      60.791
     10673.500     130.227       5.289      35.629     108.607     -999.25     -49.909      56.216
     10674.000     130.128       4.657      35.935     107.271     -999.25     -51.031      49.490
     10674.500     129.895       4.903      36.665     105.663     -999.25     -52.052      52.109
     10675.000     129.819       5.216      37.149     104.942     -999.25     -53.004      55.438
     10675.500     129.819       5.559      37.869     104.023     -999.25     -53.957      59.084
     10676.000     129.516       5.564      38.360     102.889     -999.25     -54.909      59.130
     10676.500     128.625       5.440      39.146     100.309     -999.25     -56.138      57.814
     10677.000     127.676       5.763      39.860      99.111     -999.25     -57.602      61.253
     10677.500     127.015       6.057      40.056      98.983     -999.25     -58.877      64.374
     10678.000     126.413       6.013      39.996      99.490     -999.25     -60.232      63.910
     10678.500     125.635       6.087      39.938      97.700     -999.25     -61.485      64.692
     10679.000     124.715       5.745      40.206      94.806     -999.25     -62.874      61.056
     10679.500     123.820       5.374      40.633      93.416     -999.25     -64.320      57.114
     10680.000     123.143       5.482      41.170      92.640     -999.25     -65.591      58.258
     10680.500     122.332       5.626      41.044      90.612     -999.25     -66.965      59.794
     10681.000     121.439       5.822      40.319      89.021     -999.25     -68.405      61.879
     10681.500     120.824       6.123      39.797      88.346     -999.25     -69.671      65.074
     10682.000     121.099       6.439      39.894      87.982     -999.25     -71.038      68.432
     10682.500     122.208       6.946      41.286      87.442     -999.25     -72.473      73.824
     10683.000     123.398       6.387      51.426      87.500     -999.25     -73.736      67.885
     10683.500     124.804       5.994      52.027      88.253     -999.25     -75.097      63.706
     10684.000     125.808       5.030      55.078      89.350     -999.25     -76.526      53.456
     10684.500     125.946       5.554      58.106      91.369     -999.25     -77.955      59.027
     10685.000     125.671       5.283      59.272      97.125     -999.25     -79.381      56.144
     10685.500     125.602       5.093      61.719     102.163     -999.25     -80.638      54.125
     10686.000     125.602       4.786      63.494     102.058     -999.25     -82.355      50.864
     10686.500     124.948       4.962      64.714      97.244     -999.25     -83.717      52.740
     10687.000     123.431       5.046      65.934      90.347     -999.25     -84.896      53.626
     10687.500     121.943       5.153      67.136      84.573     -999.25     -86.259      54.769
     10688.000     120.669       5.475      65.095      78.971     -999.25     -87.128      58.192
     10688.500     119.264       5.804      62.600      73.400     -999.25     -87.163      61.681
     10689.000     117.776       5.998      58.223      69.288     -999.25     -87.331      63.751
     10689.500     116.459       5.390      51.873      66.809     -999.25     -87.364      57.280
     10690.000     115.292       4.780      38.881      64.432     -999.25     -87.538      50.797
     10690.500     114.891       4.557      32.892      58.911     -999.25     -87.775      48.435
     10691.000     115.795       4.797      29.370      52.697     -999.25     -87.857      50.985
     10691.500     117.927       5.274      25.106      54.989     -999.25     -87.986      56.053
