~Version Information
 VERS.                 2.0: 
 WRAP.                 YES: 
 END.                PETRA:GeoPLUS Corporation
~Well Information Block
#MNEM.UNIT       Data Type    Information
#---------    -------------   ---------------------------------
 STRT.F             54.8640:
 STOP.F          11443.3640:
 STEP.F              0.5000:
 NULL.              -999.25:
 COMP.                           : COMPANY
 FLD.       BENEDUM              : FIELD
 LOC.                            : LOCATION
 DATE.      14-OCT-2016          : DATE
 WELL.                           : Well Name
 LABL.      42461338640000                   : Well Label
 APIN.      42461338640000       : API Number
 UWI.       42461338640000       : Unique Well Number
 NUMB.      1                    : Well Number
 OPER.      APACHE CORP          : Operator Name
 LEAS.      UNIVERSITY `4`       : Lease Name
~Parameter Block
#MNEM.UNIT           VALUE            Description
#---------    --------------------   ---------------------------------
 EKB.F                  2672.0 : KB Elevation
~Curve Information Block
#MNEM.UNIT      API CODE      Curve Description
#---------    -------------   ---------------------------------
 DEPT.F                   00 000 00 00: Depth (MD)
 DPLS.FRAC                00 001 00 00: DENSITY POROSITY  LIMESTONE
 DT.US/FT                 00 002 00 00: Delta-T Compressional
 GR.GAPI                  00 003 00 00: GAMMA RAY
 HCAL.IN                  00 004 00 00: HIGH RESOLUTION CALIPER
 HDRA.G/CM3               00 005 00 00: HIGH RESOLUTION DENSITY CORRECTION
 LLD.OHM.M                00 006 00 00: Laterolog Deep
 LLS.OHM.M                00 007 00 00: Laterolog Shallow
 PAY_TOC.                 00 008 00 00: TOC proxy
 PEFZ.B/E                 00 009 00 00: PHOTO ELECTRIC FACTOR - HIGH RESOLUTION
 RHOZ.G/CM3               00 010 00 00: BULK DENSITY - STD RESOLUTION
 RXOZ.OHM.M               00 011 00 00: RESISTIVITY OF FLUSHED ZONE - STD RESOLU
 TENS.LB                  00 012 00 00: Tension
 TNPH.V/V                 00 013 00 00: Thermal Neutron Porosity
 XDPHI.FRAC               00 014 00 00: 
~A
# ...
   10064.864
       0.031      59.159      70.490       8.145       0.014
      78.799      64.162       0.000       4.342       2.661
      61.897    3820.000       0.036       0.023
   10065.364
       0.038      63.336      73.548       8.105       0.021
     196.326      92.445       0.000       4.324       2.672
    1098.636    3803.062       0.049       0.022
   10065.864
       0.074      65.950      78.388       8.129       0.039
      97.624      86.745       0.000       4.018       2.672
      39.929    3827.939       0.076       0.022
   10066.364
       0.122      66.496      79.365       8.319       0.056
      22.877      37.413       0.000       3.491       2.672
       3.499    3930.712       0.078       0.022
   10066.864
       0.156      63.004      75.538       8.355       0.063
      17.218      28.301       0.000       2.865       2.672
       3.420    3927.525       0.064       0.022
   10067.364
       0.134      59.585      66.443       8.057       0.053
      16.967      41.960       0.000       2.548       2.672
      34.866    3888.050       0.047       0.022
   10067.864
       0.084      57.226      54.746       8.007       0.039
      34.842      58.005       0.000       2.456       2.672
      39.479    3848.051       0.034       0.022
   10068.364
       0.060      55.826      43.913       7.946       0.026
     110.654      74.417       0.000       2.628       2.670
      78.090    3823.896       0.027       0.023
   10068.864
       0.060      54.604      35.364       7.902       0.013
     235.439     467.457       0.000       2.834       2.666
     525.253    3784.865       0.020       0.026
   10069.364
       0.062      53.999      32.589       7.895       0.012
     437.071     532.001       0.000       2.999       2.662
     541.921    3793.070       0.017       0.028
   10069.864
       0.058      53.861      34.304       8.004       0.017
     547.206     462.375       0.000       3.178       2.658
     763.910    3830.408       0.018       0.030
   10070.364
       0.054      53.906      37.782       7.926       0.024
     696.237     691.550       0.000       3.324       2.654
     975.574    3890.308       0.020       0.033
   10070.864
       0.047      54.137      42.295       7.840       0.031
     471.510     763.469       0.000       3.419       2.650
     560.683    3931.951       0.024       0.035
   10071.364
       0.042      54.434      46.082       7.822       0.039
     222.537     222.462       0.000       3.338       2.646
     225.059    3971.948       0.028       0.038
   10071.864
       0.041      54.793      47.099       7.856       0.036
     177.641     192.139       0.000       3.178       2.642
     232.897    3970.793       0.033       0.040
   10072.364
       0.037      55.032      46.953       7.914       0.027
     146.791     183.222       0.000       3.069       2.638
     232.528    3849.796       0.038       0.042
   10072.864
       0.037      55.443      45.825       7.940       0.017
     149.533     176.544       0.000       3.047       2.631
     204.159    3840.000       0.042       0.046
   10073.364
       0.043      55.923      44.834       7.923       0.007
     195.399     170.135       0.000       3.201       2.631
     254.962    3840.007       0.050       0.046
   10073.864
       0.048      56.206      44.809       7.883      -0.003
     202.148     209.344       0.000       3.344       2.631
     271.371    3835.952       0.051       0.046
   10074.364
       0.051      56.035      46.166       7.918       0.000
     281.077     304.392       0.000       3.420       2.637
     402.079    3887.072       0.048       0.042
   10074.864
       0.049      55.855      48.238       7.905       0.003
     234.177     219.712       0.000       3.388       2.643
     196.740    3947.927       0.044       0.039
   10075.364
       0.044      55.837      49.079       7.840       0.006
     160.182     130.162       0.000       3.309       2.649
     173.545    3998.185       0.041       0.035
   10075.864
       0.040      55.899      47.729       7.858       0.009
     104.400     136.814       0.000       3.258       2.655
     149.441    3902.279       0.040       0.032
   10076.364
       0.040      55.745      45.973       7.878       0.012
     101.352     142.556       0.000       3.311       2.661
     110.045    3828.525       0.040       0.028
   10076.864
       0.040      55.386      43.684       7.917       0.015
      96.761     128.890       0.000       3.394       2.667
     103.298    3798.520       0.040       0.024
   10077.364
       0.039      55.136      40.422       7.863       0.019
      96.770     120.830       0.000       3.435       2.673
     119.388    3815.976       0.037       0.021
   10077.864
       0.034      55.060      38.591       7.897       0.021
     115.070     135.307       0.000       3.475       2.679
     124.997    3835.976       0.036       0.017
   10078.364
       0.029      55.337      39.684       7.878       0.022
     188.948     231.066       0.000       3.468       2.685
     247.752    3820.192       0.037       0.014
   10078.864
       0.026      56.893      44.085       7.953       0.023
     307.668     368.661       0.000       3.390       2.684
     366.053    3835.976       0.041       0.015
   10079.364
       0.028      58.821      48.875       7.965       0.026
     169.271     196.930       0.000       3.310       2.682
     212.146    3855.976       0.047       0.016
   10079.864
       0.033      59.683      52.104       7.907       0.028
      90.100     105.378       0.000       3.282       2.680
      89.310    3877.226       0.052       0.018
   10080.364
       0.039      59.374      51.200       7.861       0.026
      64.648      67.672       0.000       3.238       2.675
      62.200    3880.362       0.053       0.021
   10080.864
       0.042      58.662      48.250       7.916       0.023
      62.134      64.057       0.000       3.275       2.667
      58.774    3880.000       0.049       0.026
   10081.364
       0.031      57.880      45.728       7.938       0.018
      72.485      71.713       0.000       3.315       2.659
      87.129    3880.000       0.044       0.031
   10081.864
       0.019      57.477      44.183       7.958       0.013
      76.691      77.906       0.000       3.341       2.651
      89.551    3862.172       0.039       0.035
   10082.364
       0.018      57.442      44.583       7.934       0.009
      80.944      82.465       0.000       3.322       2.643
     103.870    3860.000       0.041       0.040
   10082.864
       0.020      57.985      47.187       8.044       0.008
      81.533      85.163       0.000       3.302       2.634
     117.726    3860.000       0.046       0.045
   10083.364
       0.021      59.092      49.684       8.192       0.009
      71.549      75.845       0.000       3.310       2.626
      67.431    3860.000       0.051       0.050
   10083.864
       0.022      60.626      50.953       8.225       0.011
      58.293      64.844       0.000       3.408       2.625
      56.403    3860.003       0.056       0.050
   10084.364
       0.021      61.316      50.976       8.225       0.012
      47.899      57.295       0.000       3.510       2.618
      47.118    3839.395       0.061       0.055
   10084.864
       0.019      61.933      51.220       8.209       0.013
      40.448      46.401       0.000       3.590       2.599
      52.775    3855.976       0.065       0.066
   10085.364
       0.022      62.278      51.760       8.074       0.006
      34.817      39.230       0.000       3.670       2.598
      29.949    3881.218       0.068       0.066
   10085.864
       0.025      62.283      52.601       8.005       0.001
      34.883      39.600       0.000       3.701       2.596
      30.942    3864.024       0.071       0.067
   10086.364
       0.024      62.395      53.742       7.978      -0.004
      37.663      44.847       0.000       3.685       2.595
      32.222    3844.023       0.074       0.067
