~Version Information
 VERS.                 2.0: 
 WRAP.                 YES: 
 END.                PETRA:GeoPLUS Corporation
~Well Information Block
#MNEM.UNIT       Data Type    Information
#---------    -------------   ---------------------------------
 STRT.F             57.9120:
 STOP.F          11474.9360:
 STEP.F              0.5000:
 NULL.              -999.25:
 COMP.                           : COMPANY
 FLD.       BENEDUM              : FIELD
 LOC.                            : LOCATION
 DATE.      14-OCT-2016          : DATE
 WELL.                           : Well Name
 LABL.      42461342620000                   : Well Label
 APIN.      42461342620000       : API Number
 UWI.       42461342620000       : Unique Well Number
 NUMB.      1                    : Well Number
 OPER.      W T G EXPLORATION    : Operator Name
 LEAS.      UNIVERSITY `3-4`     : Lease Name
~Parameter Block
#MNEM.UNIT           VALUE            Description
#---------    --------------------   ---------------------------------
 EKB.F                  2682.0 : KB Elevation
~Curve Information Block
#MNEM.UNIT      API CODE      Curve Description
#---------    -------------   ---------------------------------
 DEPT.F                   00 000 00 00: Depth (MD)
 CALI.IN                  00 001 00 00: Density Caliper
 DPLS.FRAC                00 002 00 00: DENSITY POROSITY  LIMESTONE
 DRHO.G/CM3               00 003 00 00: Density Correction
 GRD.GAPI                 00 004 00 00: Guard
 GRR.GAPI                 00 005 00 00: Gamma Ray Resistivity Device
 LLD.OHM.M                00 006 00 00: Laterolog Deep
 LLS.OHM.M                00 007 00 00: Laterolog Shallow
 MSFL.OHM.M               00 008 00 00: MICRO SFL
 NPLS.FRAC                00 009 00 00: NEUTRON POROSITY  LIMESTONE
 PEF.B/E                  00 010 00 00: Photo-Electric Factor
 RHOB.G/CM3               00 011 00 00: Bulk Density
 TENS.LB                  00 012 00 00: Tension
 XDPHI.FRAC               00 013 00 00: 
~A
# ...
    8353.412
       9.020       0.085      -0.012      82.408      83.012
     428.929     411.760     806.999       0.110       3.970
       2.562    5204.055       0.088
    8353.912
       9.007       0.086      -0.012      86.756      92.399
     541.964     513.315     586.283       0.121       4.040
       2.567    5204.082       0.083
    8354.412
       9.000       0.098      -0.012      97.869     104.131
     497.604     450.980     428.321       0.138       3.895
       2.551    5204.082       0.091
    8354.912
       9.000       0.109      -0.012     106.998     109.375
     358.632     327.750     156.602       0.157       3.685
       2.527    5203.869       0.105
    8355.412
       9.000       0.119      -0.009     109.237     106.742
     304.642     283.920     100.647       0.175       3.705
       2.504    5182.910       0.119
    8355.912
       8.987       0.114      -0.005     105.439      99.338
     294.784     275.934     141.016       0.187       3.725
       2.510    5182.982       0.118
    8356.412
       8.980       0.109      -0.001      96.704      92.573
     289.416     270.910     401.877       0.189       3.745
       2.520    5164.610       0.112
    8356.912
       8.980       0.105      -0.002      90.963      90.036
     263.651     239.874     424.736       0.167       3.735
       2.530    5185.009       0.106
    8357.412
       8.991       0.106      -0.005      90.762      92.926
     159.518     134.127     229.251       0.147       3.695
       2.531    5205.417       0.105
    8357.912
       9.013       0.112      -0.008      94.504      98.373
      82.538      75.070      62.793       0.159       3.643
       2.523    5225.911       0.108
    8358.412
       9.033       0.123      -0.006     100.187     100.953
      70.614      69.277      28.482       0.184       3.473
       2.508    5244.860       0.117
    8358.912
       9.053       0.126      -0.008      97.327      93.215
      73.323      74.643      49.949       0.215       3.488
       2.498    5244.898       0.123
    8359.412
       9.064       0.121      -0.008      85.954      80.637
     109.883     109.213      99.814       0.203       3.568
       2.494    5244.898       0.127
    8359.912
       9.052       0.114      -0.010      74.516      67.474
     190.417     166.877    1206.012       0.169       3.736
       2.508    5244.696       0.120
    8360.412
       9.002       0.104      -0.010      59.798      55.936
     354.292     337.352    1932.158       0.137       3.912
       2.524    5223.699       0.111
    8360.912
       8.963       0.093      -0.010      54.866      54.163
     789.504     778.764    1444.804       0.109       4.049
       2.556    5223.889       0.093
    8361.412
       8.960       0.084      -0.008      59.287      60.182
     978.964     919.324    1066.646       0.100       4.154
       2.564    5204.082       0.083
    8361.912
       8.960       0.093      -0.006      67.229      70.028
     799.543     697.144     637.035       0.113       4.027
       2.543    5204.082       0.095
    8362.412
       8.960       0.106      -0.004      74.578      80.072
     627.229     491.339     292.634       0.144       3.821
       2.523    5204.082       0.107
    8362.912
       8.960       0.125      -0.004      84.141      85.846
     519.802     392.563     256.570       0.170       3.732
       2.502    5204.082       0.119
    8363.412
       8.960       0.130      -0.006      86.051      85.683
     505.252     384.709     266.479       0.195       3.673
       2.483    5204.082       0.131
    8363.912
       8.960       0.126      -0.002      83.723      80.603
     547.322     425.682     314.665       0.181       3.647
       2.473    5204.082       0.137
    8364.412
       8.960       0.115      -0.002      78.163      73.440
     602.764     477.149     372.875       0.160       3.666
       2.480    5204.082       0.137
    8364.912
       8.960       0.106      -0.002      70.278      66.916
     565.785     494.123     459.735       0.141       3.699
       2.515    5204.082       0.117
    8365.412
       8.960       0.101      -0.004      66.387      67.314
     455.059     417.250     476.439       0.130       3.780
       2.538    5204.082       0.101
    8365.912
       8.960       0.100      -0.004      67.504      69.942
     363.085     340.896     320.952       0.131       3.858
       2.542    5204.082       0.099
    8366.412
       8.960       0.096      -0.006      69.965      72.596
     289.744     268.914     193.802       0.139       3.917
       2.546    5204.082       0.096
    8366.912
       8.960       0.097      -0.006      72.713      74.240
     222.560     205.202     148.561       0.149       3.975
       2.547    5204.082       0.095
    8367.412
       8.960       0.092      -0.008      71.965      70.513
     194.835     181.530     137.426       0.152       4.026
       2.549    5204.082       0.094
    8367.912
       8.974       0.084      -0.008      66.757      65.140
     182.796     170.718     156.777       0.153       4.126
       2.560    5204.082       0.090
    8368.412
       8.980       0.075      -0.010      62.474      60.286
     186.852     177.155     182.016       0.131       4.228
       2.589    5204.082       0.073
    8368.912
       8.980       0.058      -0.010      58.180      56.174
     221.234     210.952     209.816       0.104       4.372
       2.610    5204.082       0.061
    8369.412
       8.980       0.040      -0.012      53.296      52.072
     280.640     268.873     277.943       0.078       4.485
       2.636    5204.082       0.046
    8369.912
       8.980       0.032      -0.012      50.984      50.204
     353.872     344.321     576.663       0.063       4.501
       2.656    5204.460       0.033
    8370.412
       8.980       0.031      -0.014      51.875      54.220
     356.129     318.613     646.957       0.057       4.461
       2.659    5225.023       0.030
    8370.912
       8.980       0.039      -0.014      61.487      62.627
     260.145     244.769     294.756       0.070       4.419
       2.654    5225.326       0.032
    8371.412
       8.980       0.052      -0.012      69.304      71.186
     172.908     174.624      92.539       0.092       4.330
       2.636    5244.867       0.041
    8371.912
       8.992       0.063      -0.014      73.540      79.028
     136.250     143.627      98.864       0.117       4.230
       2.613    5244.898       0.054
    8372.412
       8.998       0.072      -0.012      81.196      82.812
     130.368     141.488     117.468       0.142       4.132
       2.589    5244.898       0.069
    8372.912
       9.013       0.073      -0.012      77.194      75.824
     126.985     139.393     140.433       0.144       4.052
       2.585    5244.898       0.073
    8373.412
       9.033       0.074      -0.012      69.302      69.462
     111.159     137.617     165.670       0.138       3.953
       2.587    5244.898       0.072
    8373.912
       9.056       0.074      -0.012      67.916      68.200
      87.203     113.757     119.904       0.134       3.907
       2.589    5244.795       0.070
    8374.412
       9.061       0.076      -0.012      67.693      67.631
      67.884      77.997      69.743       0.143       3.906
       2.577    5222.757       0.076
    8374.912
       9.061       0.080      -0.009      70.397      69.894
      61.786      69.742      79.626       0.157       3.887
       2.568    5204.140       0.083
    8375.412
       9.061       0.087      -0.005      76.221      76.865
      58.854      67.517      82.289       0.171       3.893
       2.568    5204.082       0.083
    8375.912
       9.061       0.089      -0.004      79.977      79.674
      59.363      67.128      57.107       0.171       3.970
       2.568    5204.082       0.083
    8376.412
       9.049       0.084      -0.007      78.878      78.812
      60.640      67.132      45.423       0.162       4.096
       2.571    5204.082       0.082
