~Version Information
 VERS.                 2.0: 
 WRAP.                 YES: 
 END.                PETRA:GeoPLUS Corporation
~Well Information Block
#MNEM.UNIT       Data Type    Information
#---------    -------------   ---------------------------------
 STRT.F           1066.8000:
 STOP.F           7799.8000:
 STEP.F              0.5000:
 NULL.              -999.25:
 COMP.                           : COMPANY
 FLD.       FLAT ROCK            : FIELD
 LOC.                            : LOCATION
 DATE.      14-OCT-2016          : DATE
 WELL.                           : Well Name
 LABL.      42461318260000                   : Well Label
 APIN.      42461318260000       : API Number
 UWI.       42461318260000       : Unique Well Number
 NUMB.      1                    : Well Number
 OPER.      KIMBARK OIL & GAS CO : Operator Name
 LEAS.      UNIVERSITY `31-3`    : Lease Name
~Parameter Block
#MNEM.UNIT           VALUE            Description
#---------    --------------------   ---------------------------------
 EKB.F                  2786.0 : KB Elevation
~Curve Information Block
#MNEM.UNIT      API CODE      Curve Description
#---------    -------------   ---------------------------------
 DEPT.F                   00 000 00 00: Depth (MD)
 CALI.IN                  00 001 00 00: Density Caliper
 DPHI.FRAC                00 002 00 00: Density Porosity
 DRHO.G/CM3               00 003 00 00: Density Correction
 GR.GAPI                  00 004 00 00: GAMMA RAY
 ILD.OHM.M                00 005 00 00: Induction Deep Resistivity
 NPHI.FRAC                00 006 00 00: Neutron Porosity
 PAY_TOC.                 00 007 00 00: TOC proxy
 SP.MV                    00 008 00 00: Spontaneous Potential
~A
# ...
    7308.300
       8.511       0.027      -0.008     116.990      14.901
       0.254       0.000     -81.087
    7308.800
       8.519       0.018      -0.009     116.314      15.508
       0.238       0.000     -81.013
    7309.300
       8.519       0.039       0.001     113.470      15.887
       0.218       0.000     -80.302
    7309.800
       8.538       0.052       0.008     102.782      16.217
       0.202       0.000     -80.280
    7310.300
       8.536       0.063       0.008      91.927      16.382
       0.205       0.000     -80.281
    7310.800
       8.534       0.071       0.008      83.631      16.372
       0.209       0.000     -80.651
    7311.300
       8.532       0.077       0.004      82.696      16.584
       0.201       0.000     -80.667
    7311.800
       8.530       0.082       0.000      84.078      16.834
       0.194       0.000     -80.668
    7312.300
       8.528       0.085      -0.002      86.447      17.768
       0.188       0.000     -81.039
    7312.800
       8.526       0.081      -0.002      88.900      18.583
       0.185       0.000     -81.053
    7313.300
       8.525       0.071      -0.001      90.654      19.417
       0.187       0.000     -81.055
    7313.800
       8.523       0.064       0.000      92.383      19.928
       0.218       0.000     -81.756
    7314.300
       8.521       0.060       0.004      93.901      20.329
       0.229       0.000     -81.885
    7314.800
       8.519       0.059       0.006      94.544      20.557
       0.193       0.000     -82.525
    7315.300
       8.517       0.062       0.013      92.011      20.377
       0.164       0.000     -83.068
    7315.800
       8.515       0.067       0.017      83.657      20.203
       0.137       0.000     -83.676
    7316.300
       8.514       0.076       0.027      76.704      19.862
       0.128       0.000     -84.267
    7316.800
       8.512       0.085       0.035      78.316      18.921
       0.124       0.000     -84.845
    7317.300
       8.510       0.091       0.015      90.276      18.010
       0.171       0.000     -85.128
    7317.800
       8.509       0.093       0.014      96.176      16.502
       0.202       0.000     -85.325
    7318.300
       8.508       0.092       0.019     101.320      15.277
       0.219       0.000     -85.660
    7318.800
       8.507       0.084       0.021     105.809      14.093
       0.228       0.000     -85.671
    7319.300
       8.507       0.079       0.021     109.543      13.241
       0.240       0.000     -85.672
    7319.800
       8.506       0.075       0.019     111.976      13.002
       0.240       0.000     -85.673
    7320.300
       8.505       0.077       0.017     113.450      13.345
       0.230       0.000     -85.674
    7320.800
       8.505       0.080       0.011     113.769      14.493
       0.224       0.000     -85.303
    7321.300
       8.504       0.079       0.003     113.670      17.393
       0.221       0.000     -85.292
    7321.800
       8.503       0.071      -0.002     112.645      21.406
       0.220       0.000     -85.293
    7322.300
       8.503       0.039      -0.002     113.311      26.993
       0.225       0.000     -84.926
    7322.800
       8.502       0.016      -0.002     113.744      31.559
       0.230       0.000     -84.911
    7323.300
       8.501       0.044       0.000     112.358      36.884
       0.221       0.000     -84.912
    7323.800
       8.501       0.056       0.000     105.365      40.982
       0.189       0.000     -85.265
    7324.300
       8.500       0.059       0.000      92.633      42.670
       0.131       0.000     -85.283
    7324.800
       8.500       0.059       0.000      73.196      41.704
       0.086       0.000     -85.671
    7325.300
       8.499       0.060       0.001      45.027      36.155
       0.080       0.000     -85.684
    7325.800
       8.498       0.066       0.006      64.139      28.563
       0.076       0.000     -85.685
    7326.300
       8.498       0.089       0.014      84.774      23.259
       0.079       0.000     -85.686
    7326.800
       8.497       0.099       0.026      97.779      19.375
       0.130       0.000     -85.686
    7327.300
       8.496       0.105       0.031     104.391      17.512
       0.156       0.000     -85.338
    7327.800
       8.496       0.093       0.031     107.992      16.370
       0.200       0.000     -85.176
    7328.300
       8.495       0.084       0.028     111.413      15.836
       0.221       0.000     -84.948
    7328.800
       8.495       0.075       0.009     113.831      15.684
       0.235       0.000     -84.781
    7329.300
       8.494       0.069      -0.009     115.055      16.216
       0.245       0.000     -84.197
    7329.800
       8.493       0.067      -0.013     116.959      16.652
       0.252       0.000     -83.599
    7330.300
       8.493       0.081      -0.012     114.912      17.668
       0.257       0.000     -83.002
    7330.800
       8.510       0.077       0.011     108.738      18.337
       0.238       0.000     -82.294
    7331.300
       8.521       0.061       0.024     103.014      18.970
       0.216       0.000     -81.901
    7331.800
       8.528       0.041       0.029      97.185      19.429
       0.195       0.000     -81.518
    7332.300
       8.528       0.027       0.032      88.699      19.543
       0.175       0.000     -81.135
    7332.800
       8.527       0.022       0.016      79.672      19.459
       0.163       0.000     -80.752
    7333.300
       8.526       0.058       0.004      82.230      19.053
       0.165       0.000     -80.369
    7333.800
       8.526       0.073      -0.002      92.845      18.144
       0.194       0.000     -80.339
    7334.300
       8.525       0.082      -0.001     102.331      17.533
       0.211       0.000     -80.097
    7334.800
       8.525       0.085       0.007     100.406      16.599
       0.218       0.000     -79.940
    7335.300
       8.524       0.088       0.014      93.834      16.177
       0.211       0.000     -80.298
    7335.800
       8.523       0.093       0.012      93.736      15.728
       0.202       0.000     -80.440
    7336.300
       8.523       0.096       0.010     100.641      15.483
       0.207       0.000     -80.674
    7336.800
       8.522       0.099       0.008     107.449      15.405
       0.222       0.000     -81.053
    7337.300
       8.521       0.101       0.013     113.058      15.401
       0.235       0.000     -81.447
    7337.800
       8.521       0.091       0.015     106.057      15.398
       0.241       0.000     -81.824
    7338.300
       8.520       0.082       0.014     100.284      15.625
       0.234       0.000     -82.257
    7338.800
       8.519       0.077       0.012      97.636      16.059
       0.225       0.000     -82.604
    7339.300
       8.519       0.072       0.007     103.043      17.204
       0.218       0.000     -82.713
    7339.800
       8.518       0.069       0.010     108.484      19.850
       0.210       0.000     -83.388
    7340.300
       8.518       0.074       0.013     113.117      25.587
       0.214       0.000     -83.409
    7340.800
       8.517       0.080       0.014     116.702      28.207
       0.235       0.000     -83.410
    7341.300
       8.516       0.081       0.013     120.923      30.179
       0.249       0.000     -82.879
    7341.800
       8.516       0.083       0.032     122.980      32.417
       0.269       0.000     -82.668
    7342.300
       8.515       0.087       0.056     116.909      32.668
       0.281       0.000     -82.438
    7342.800
       8.514       0.089       0.002     107.882      30.731
       0.286       0.000     -81.897
    7343.300
       8.514       0.080      -0.014      98.307      26.904
       0.224       0.000     -81.879
    7343.800
       8.513       0.062      -0.010      88.888      23.499
       0.162       0.000     -81.880
    7344.300
       8.512       0.047       0.006      51.166      20.025
       0.125       0.000     -81.510
