~Version Information
 VERS.                 2.0: 
 WRAP.                  NO: 
 END.                PETRA:GeoPLUS Corporation
~Well Information Block
#MNEM.UNIT       Data Type    Information
#---------    -------------   ---------------------------------
 STRT.F           1828.6476:
 STOP.F           8230.1476:
 STEP.F              0.5000:
 NULL.              -999.25:
 COMP.                           : COMPANY
 FLD.       SPRABERRY            : FIELD
 LOC.                            : LOCATION
 DATE.      14-OCT-2016          : DATE
 WELL.                           : Well Name
 LABL.      42461324180000                   : Well Label
 APIN.      42461324180000       : API Number
 UWI.       42461324180000       : Unique Well Number
 NUMB.      3                    : Well Number
 OPER.      PIONEER NAT RES USA  : Operator Name
 LEAS.      UNIVERSITY `8`       : Lease Name
~Parameter Block
#MNEM.UNIT           VALUE            Description
#---------    --------------------   ---------------------------------
 EKB.F                  2684.0 : KB Elevation
~Curve Information Block
#MNEM.UNIT      API CODE      Curve Description
#---------    -------------   ---------------------------------
 DEPT.F                   00 000 00 00: Depth (MD)
 CALI.IN                  00 001 00 00: Density Caliper
 DPHI.FRAC                00 002 00 00: Density Porosity
 DRHO.G/CM3               00 003 00 00: Density Correction
 GR.GAPI                  00 004 00 00: GAMMA RAY
 LGRD.OHM.M               00 005 00 00: Long Guard Resistivity
 NPHI.FRAC                00 006 00 00: Neutron Porosity
~A        DEPT        CALI        DPHI        DRHO          GR        LGRD        NPHI
# ...
      3116.648       6.008      -1.607       1.394     123.384    1852.844       0.237
      3117.148       6.007      -1.609       1.393     123.378    1853.202       0.237
      3117.648       6.006      -1.610       1.392     123.371    1853.559       0.237
      3118.148       6.005      -1.612       1.391     123.364    1853.915       0.237
      3118.648       6.004      -1.614       1.390     123.357    1854.270       0.237
      3119.148       6.003      -1.616       1.389     123.351    1854.623       0.237
      3119.648       6.003      -1.617       1.388     123.344    1854.976       0.237
      3120.148       6.002      -1.619       1.387     123.337    1855.327       0.237
      3120.648       6.001      -1.621       1.386     123.330    1855.677       0.237
      3121.148       6.000      -1.623       1.384     123.323    1856.026       0.237
      3121.648       5.999      -1.625       1.383     123.317    1856.374       0.237
      3122.148       5.998      -1.626       1.382     123.310    1856.721       0.237
      3122.648       5.997      -1.628       1.381     123.303    1857.066       0.237
      3123.148       5.996      -1.630       1.380     123.296    1857.411       0.237
      3123.648       5.995      -1.632       1.379     123.289    1857.754       0.237
      3124.148       5.994      -1.633       1.378     123.283    1858.097       0.237
      3124.648       5.993      -1.635       1.377     123.276    1858.438       0.237
      3125.148       5.993      -1.637       1.376     123.269    1858.778       0.237
      3125.648       5.992      -1.639       1.374     123.262    1859.117       0.237
      3126.148       5.991      -1.640       1.373     123.255    1859.454       0.237
      3126.648       5.990      -1.642       1.372     123.248    1859.791       0.237
      3127.148       5.989      -1.644       1.371     123.241    1860.127       0.237
      3127.648       5.988      -1.646       1.370     123.235    1860.461       0.237
      3128.148       5.987      -1.647       1.369     123.228    1860.794       0.237
      3128.648       5.986      -1.649       1.368     123.221    1861.126       0.237
      3129.148       5.985      -1.651       1.366     123.214    1861.457       0.237
      3129.648       5.985      -1.653       1.365     123.207    1861.787       0.237
      3130.148       5.984      -1.654       1.364     123.200    1862.116       0.237
      3130.648       5.983      -1.656       1.363     123.193    1862.444       0.237
      3131.148       5.982      -1.658       1.362     123.186    1862.770       0.237
      3131.648       5.981      -1.660       1.361     123.179    1863.096       0.237
      3132.148       5.980      -1.662       1.359     123.172    1863.420       0.237
      3132.648       5.979      -1.663       1.358     123.165    1863.743       0.237
      3133.148       5.978      -1.665       1.357     123.158    1864.065       0.237
      3133.648       5.977      -1.667       1.356     123.151    1864.386       0.237
      3134.148       5.976      -1.669       1.355     123.144    1864.706       0.237
      3134.648       5.976      -1.670       1.354     123.137    1865.025       0.237
      3135.148       5.975      -1.672       1.352     123.130    1865.342       0.237
      3135.648       5.974      -1.674       1.351     123.123    1865.659       0.237
      3136.148       5.973      -1.676       1.350     123.116    1865.974       0.237
      3136.648       5.972      -1.677       1.349     123.109    1866.288       0.237
      3137.148       5.971      -1.679       1.348     123.102    1866.602       0.237
      3137.648       5.970      -1.681       1.346     123.095    1866.914       0.237
      3138.148       5.969      -1.683       1.345     123.088    1867.224       0.237
      3138.648       5.968      -1.685       1.344     123.081    1867.534       0.237
      3139.148       5.968      -1.686       1.343     123.074    1867.843       0.237
      3139.648       5.967      -1.688       1.342     123.067    1868.150       0.237
      3140.148       5.966      -1.690       1.340     123.060    1868.457       0.237
      3140.648       5.965      -1.692       1.339     123.053    1868.762       0.237
      3141.148       5.964      -1.693       1.338     123.046    1869.066       0.237
      3141.648       5.963      -1.695       1.337     123.039    1869.370       0.237
      3142.148       5.962      -1.697       1.335     123.032    1869.672       0.237
      3142.648       5.961      -1.699       1.334     123.025    1869.972       0.237
      3143.148       5.960      -1.700       1.333     123.017    1870.272       0.237
      3143.648       5.960      -1.702       1.332     123.010    1870.571       0.237
      3144.148       5.959      -1.704       1.331     123.003    1870.868       0.237
      3144.648       5.958      -1.706       1.329     122.996    1871.165       0.237
      3145.148       5.957      -1.708       1.328     122.989    1871.460       0.237
      3145.648       5.956      -1.709       1.327     122.982    1871.754       0.237
      3146.148       5.955      -1.711       1.326     122.975    1872.048       0.237
      3146.648       5.954      -1.713       1.324     122.967    1872.340       0.237
      3147.148       5.953      -1.715       1.323     122.960    1872.630       0.237
      3147.648       5.952      -1.716       1.322     122.953    1872.920       0.237
      3148.148       5.952      -1.718       1.321     122.946    1873.209       0.237
      3148.648       5.951      -1.720       1.319     122.939    1873.497       0.237
      3149.148       5.950      -1.722       1.318     122.931    1873.783       0.237
      3149.648       5.949      -1.724       1.317     122.924    1874.068       0.237
      3150.148       5.948      -1.725       1.316     122.917    1874.353       0.237
      3150.648       5.947      -1.727       1.314     122.910    1874.636       0.237
      3151.148       5.946      -1.729       1.313     122.903    1874.918       0.237
      3151.648       5.945      -1.731       1.312     122.895    1875.199       0.237
      3152.148       5.945      -1.732       1.310     122.888    1875.479       0.237
      3152.648       5.944      -1.734       1.309     122.881    1875.758       0.237
      3153.148       5.943      -1.736       1.308     122.874    1876.035       0.237
      3153.648       5.942      -1.738       1.307     122.866    1876.312       0.237
      3154.148       5.941      -1.740       1.305     122.859    1876.587       0.237
      3154.648       5.940      -1.741       1.304     122.852    1876.862       0.237
      3155.148       5.939      -1.743       1.303     122.844    1877.135       0.237
      3155.648       5.938      -1.745       1.301     122.837    1877.407       0.237
      3156.148       5.937      -1.747       1.300     122.830    1877.678       0.237
      3156.648       5.937      -1.748       1.299     122.822    1877.948       0.237
      3157.148       5.936      -1.750       1.297     122.815    1878.217       0.237
      3157.648       5.935      -1.752       1.296     122.808    1878.485       0.237
      3158.148       5.934      -1.754       1.295     122.800    1878.752       0.237
      3158.648       5.933      -1.756       1.294     122.793    1879.017       0.237
      3159.148       5.932      -1.757       1.292     122.786    1879.282       0.237
      3159.648       5.931      -1.759       1.291     122.778    1879.545       0.237
      3160.148       5.930      -1.761       1.290     122.771    1879.808       0.237
      3160.648       5.930      -1.763       1.288     122.764    1880.069       0.237
      3161.148       5.929      -1.765       1.287     122.756    1880.329       0.237
      3161.648       5.928      -1.766       1.286     122.749    1880.588       0.237
      3162.148       5.927      -1.768       1.284     122.741    1880.846       0.237
