~Version Information
 VERS.                 2.0: 
 WRAP.                 YES: 
 END.                PETRA:GeoPLUS Corporation
~Well Information Block
#MNEM.UNIT       Data Type    Information
#---------    -------------   ---------------------------------
 STRT.F             54.8640:
 STOP.F          11443.3640:
 STEP.F              0.5000:
 NULL.              -999.25:
 COMP.                           : COMPANY
 FLD.       BENEDUM              : FIELD
 LOC.                            : LOCATION
 DATE.      14-OCT-2016          : DATE
 WELL.                           : Well Name
 LABL.      42461338640000                   : Well Label
 APIN.      42461338640000       : API Number
 UWI.       42461338640000       : Unique Well Number
 NUMB.      1                    : Well Number
 OPER.      APACHE CORP          : Operator Name
 LEAS.      UNIVERSITY `4`       : Lease Name
~Parameter Block
#MNEM.UNIT           VALUE            Description
#---------    --------------------   ---------------------------------
 EKB.F                  2672.0 : KB Elevation
~Curve Information Block
#MNEM.UNIT      API CODE      Curve Description
#---------    -------------   ---------------------------------
 DEPT.F                   00 000 00 00: Depth (MD)
 DPLS.FRAC                00 001 00 00: DENSITY POROSITY  LIMESTONE
 DT.US/FT                 00 002 00 00: Delta-T Compressional
 GR.GAPI                  00 003 00 00: GAMMA RAY
 HCAL.IN                  00 004 00 00: HIGH RESOLUTION CALIPER
 HDRA.G/CM3               00 005 00 00: HIGH RESOLUTION DENSITY CORRECTION
 LLD.OHM.M                00 006 00 00: Laterolog Deep
 LLS.OHM.M                00 007 00 00: Laterolog Shallow
 PAY_TOC.                 00 008 00 00: TOC proxy
 PEFZ.B/E                 00 009 00 00: PHOTO ELECTRIC FACTOR - HIGH RESOLUTION
 RHOZ.G/CM3               00 010 00 00: BULK DENSITY - STD RESOLUTION
 RXOZ.OHM.M               00 011 00 00: RESISTIVITY OF FLUSHED ZONE - STD RESOLU
 TENS.LB                  00 012 00 00: Tension
 TNPH.V/V                 00 013 00 00: Thermal Neutron Porosity
 XDPHI.FRAC               00 014 00 00: 
~A
# ...
    1462.864
     -999.25     -999.25       6.991     -999.25     -999.25
     -999.25     -999.25     -999.25     -999.25     -999.25
     -999.25    1640.000       0.688     -999.25
    1463.364
     -999.25     -999.25       7.092     -999.25     -999.25
     -999.25     -999.25     -999.25     -999.25     -999.25
     -999.25    1640.000       0.690     -999.25
    1463.864
     -999.25     -999.25       6.569     -999.25     -999.25
     -999.25     -999.25     -999.25     -999.25     -999.25
     -999.25    1640.000       0.699     -999.25
    1464.364
     -999.25     -999.25       6.123     -999.25     -999.25
     -999.25     -999.25     -999.25     -999.25     -999.25
     -999.25    1640.000       0.700     -999.25
    1464.864
     -999.25     -999.25       6.544     -999.25     -999.25
     -999.25     -999.25     -999.25     -999.25     -999.25
     -999.25    1640.000       0.700     -999.25
    1465.364
     -999.25     -999.25       7.484     -999.25     -999.25
     -999.25     -999.25     -999.25     -999.25     -999.25
     -999.25    1640.000       0.700     -999.25
    1465.864
     -999.25     -999.25       8.125     -999.25     -999.25
     -999.25     -999.25     -999.25     -999.25     -999.25
     -999.25    1640.000       0.700     -999.25
    1466.364
     -999.25     -999.25       8.737     -999.25     -999.25
     -999.25     -999.25     -999.25     -999.25     -999.25
     -999.25    1640.000       0.479     -999.25
    1466.864
     -999.25      86.286       9.213     -999.25     -999.25
     -999.25     -999.25     -999.25     -999.25     -999.25
     -999.25    1640.000       0.479     -999.25
    1467.364
     -999.25      86.331       8.460     -999.25     -999.25
     -999.25     -999.25     -999.25     -999.25     -999.25
     -999.25    1640.000       0.584     -999.25
    1467.864
     -999.25      86.272       7.794     -999.25     -999.25
     -999.25     -999.25     -999.25     -999.25     -999.25
     -999.25    1640.000       0.638     -999.25
    1468.364
     -999.25      86.373       7.181     -999.25     -999.25
     -999.25     -999.25     -999.25     -999.25     -999.25
     -999.25    1640.000       0.695     -999.25
    1468.864
     -999.25      86.329       6.569     -999.25     -999.25
     -999.25     -999.25     -999.25     -999.25     -999.25
     -999.25    1640.000       0.700     -999.25
    1469.364
     -999.25      86.464       6.045     -999.25     -999.25
     -999.25     -999.25     -999.25     -999.25     -999.25
     -999.25    1640.000       0.700     -999.25
    1469.864
     -999.25      75.737       6.594     -999.25     -999.25
     -999.25     -999.25     -999.25     -999.25     -999.25
     -999.25    1640.000       0.700     -999.25
    1470.364
     -999.25      67.253       7.163     -999.25     -999.25
     -999.25     -999.25     -999.25     -999.25     -999.25
     -999.25    1640.000       0.700     -999.25
    1470.864
     -999.25      80.543       8.055     -999.25     -999.25
     -999.25     -999.25     -999.25     -999.25     -999.25
     -999.25    1640.000       0.700     -999.25
    1471.364
     -999.25      65.383       8.973     -999.25     -999.25
     -999.25     -999.25     -999.25     -999.25     -999.25
     -999.25    1640.000       0.591     -999.25
    1471.864
     -999.25      70.315       9.891     -999.25     -999.25
     -999.25     -999.25     -999.25     -999.25     -999.25
     -999.25    1657.052       0.519     -999.25
    1472.364
     -999.25      79.646      10.810     -999.25     -999.25
     -999.25     -999.25     -999.25     -999.25     -999.25
     -999.25    1660.000       0.574     -999.25
    1472.864
     -999.25      84.830      11.152     -999.25     -999.25
     -999.25     -999.25     -999.25     -999.25     -999.25
     -999.25    1660.000       0.610     -999.25
    1473.364
       0.045      80.180      10.292       9.816       0.106
       3.646      10.668     -999.25       3.340       2.530
      43.089    1660.000       0.641     -999.25
    1473.864
       0.089      80.137       9.606       9.861       0.035
      14.124      20.597     -999.25       3.286       2.533
      21.013    1660.000       0.635     -999.25
    1474.364
       0.102      73.113       9.226      10.630      -0.017
      15.836      19.305     -999.25       3.279       2.541
      18.277    1642.854       0.600     -999.25
    1474.864
       0.097      75.857       9.197      10.731      -0.003
      21.542      26.688     -999.25       2.986       2.551
      27.159    1640.000       0.549     -999.25
    1475.364
       0.088      80.089       8.995      10.816       0.013
      17.486      20.132     -999.25       3.107       2.560
      20.753    1640.000       0.516     -999.25
    1475.864
       0.093      75.974       8.406      10.804       0.010
      19.228      20.821     -999.25       3.313       2.559
      21.181    1640.000       0.674     -999.25
    1476.364
       0.098      73.977       7.793      10.755       0.005
      23.445      26.063     -999.25       3.178       2.549
      28.997    1640.000       0.698     -999.25
    1476.864
       0.098      76.501       7.542      10.619       0.020
      17.726      18.391     -999.25       2.997       2.538
      20.214    1640.000       0.698     -999.25
    1477.364
       0.103      77.847       8.125       9.075       0.012
      21.342      21.468     -999.25       3.187       2.562
      24.301    1640.000       0.697     -999.25
    1477.864
       0.081      77.629       8.824       9.041       0.018
      19.851      20.362     -999.25       3.182       2.573
      22.355    1640.000       0.632     -999.25
    1478.364
       0.095      78.530       8.428       8.963       0.010
      24.449      25.359     -999.25       3.248       2.549
      25.894    1640.000       0.543     -999.25
    1478.864
       0.107      77.881       7.793       8.916       0.002
      23.654      28.981     -999.25       3.078       2.566
      31.806    1640.000       0.607     -999.25
    1479.364
       0.085      76.120       7.181       8.853       0.015
      20.705      24.898     -999.25       3.211       2.557
      24.925    1640.000       0.680     -999.25
    1479.864
       0.080      78.021       6.809       8.715       0.009
      22.298      28.772     -999.25       3.352       2.549
      32.781    1640.000       0.625     -999.25
    1480.364
       0.112      67.882       6.250       8.593       0.017
      54.534      63.300     -999.25       3.204       2.512
      71.993    1640.000       0.393     -999.25
    1480.864
       0.099      68.838       5.923       8.549       0.016
      31.403      32.848     -999.25       3.208       2.648
      41.532    1640.000       0.296     -999.25
    1481.364
       0.005      77.906       5.344       8.412       0.006
      60.675      61.034     -999.25       4.494       2.616
      84.862    1640.000       0.242     -999.25
    1481.864
       0.085      77.903       4.732       8.465      -0.009
      48.350      56.237     -999.25       3.614       2.540
      63.296    1640.000       0.207     -999.25
    1482.364
       0.097      76.841       4.281       8.531       0.008
      19.838      20.992     -999.25       3.223       2.574
      28.688    1640.000       0.173     -999.25
    1482.864
       0.099      74.111       4.699       8.551       0.012
      31.074      29.961     -999.25       3.320       2.502
      33.721    1640.000       0.127     -999.25
    1483.364
       0.106      70.915       5.606       8.571       0.028
      29.702      34.005     -999.25       3.005       2.502
      41.022    1640.000       0.087     -999.25
    1483.864
       0.084      70.885       6.611       8.592       0.015
      20.202      20.650     -999.25       3.111       2.567
      23.365    1640.000       0.078     -999.25
    1484.364
       0.088      71.750       6.971       8.509       0.015
      34.967      36.508     -999.25       3.190       2.485
      43.435    1640.000       0.109     -999.25
