~Version Information
 VERS.                 2.0: 
 WRAP.                 YES: 
 END.                PETRA:GeoPLUS Corporation
~Well Information Block
#MNEM.UNIT       Data Type    Information
#---------    -------------   ---------------------------------
 STRT.F             57.9120:
 STOP.F          11474.9360:
 STEP.F              0.5000:
 NULL.              -999.25:
 COMP.                           : COMPANY
 FLD.       BENEDUM              : FIELD
 LOC.                            : LOCATION
 DATE.      14-OCT-2016          : DATE
 WELL.                           : Well Name
 LABL.      42461342620000                   : Well Label
 APIN.      42461342620000       : API Number
 UWI.       42461342620000       : Unique Well Number
 NUMB.      1                    : Well Number
 OPER.      W T G EXPLORATION    : Operator Name
 LEAS.      UNIVERSITY `3-4`     : Lease Name
~Parameter Block
#MNEM.UNIT           VALUE            Description
#---------    --------------------   ---------------------------------
 EKB.F                  2682.0 : KB Elevation
~Curve Information Block
#MNEM.UNIT      API CODE      Curve Description
#---------    -------------   ---------------------------------
 DEPT.F                   00 000 00 00: Depth (MD)
 CALI.IN                  00 001 00 00: Density Caliper
 DPLS.FRAC                00 002 00 00: DENSITY POROSITY  LIMESTONE
 DRHO.G/CM3               00 003 00 00: Density Correction
 GRD.GAPI                 00 004 00 00: Guard
 GRR.GAPI                 00 005 00 00: Gamma Ray Resistivity Device
 LLD.OHM.M                00 006 00 00: Laterolog Deep
 LLS.OHM.M                00 007 00 00: Laterolog Shallow
 MSFL.OHM.M               00 008 00 00: MICRO SFL
 NPLS.FRAC                00 009 00 00: NEUTRON POROSITY  LIMESTONE
 PEF.B/E                  00 010 00 00: Photo-Electric Factor
 RHOB.G/CM3               00 011 00 00: Bulk Density
 TENS.LB                  00 012 00 00: Tension
 XDPHI.FRAC               00 013 00 00: 
~A
# ...
   10773.912
       8.356       0.011      -0.022      19.604      19.814
     755.617     668.549     289.634       0.011       4.725
       2.694    6170.035       0.010
   10774.412
       8.314       0.009      -0.020      20.189      20.581
     711.637     662.586     294.664       0.010       4.724
       2.702    6149.478       0.005
   10774.912
       8.297       0.008      -0.017      20.154      20.980
     688.744     663.504     306.237       0.010       4.584
       2.700    6108.449       0.005
   10775.412
       8.281       0.009      -0.013      20.142      20.759
     809.909     685.917     566.797       0.010       4.440
       2.693    6091.759       0.009
   10775.912
       8.291       0.014      -0.012      19.842      20.630
     985.848     704.837     641.463       0.010       4.440
       2.688    6158.141       0.012
   10776.412
       8.311       0.015      -0.014      20.513      20.574
    1008.313     714.780     602.658       0.010       4.438
       2.683    6257.997       0.015
   10776.912
       8.310       0.014      -0.014      21.768      21.676
     755.181     666.051     630.992       0.011       4.419
       2.685    6291.962       0.015
   10777.412
       8.285       0.011      -0.014      23.876      23.531
     581.710     532.929     508.735       0.014       4.456
       2.694    6269.341       0.011
   10777.912
       8.276       0.007      -0.014      24.007      24.926
     429.481     412.260     324.491       0.017       4.517
       2.699    6227.641       0.005
   10778.412
       8.277       0.012      -0.012      22.353      22.900
     374.198     390.254     199.192       0.017       4.312
       2.673    6167.947       0.019
   10778.912
       8.277       0.025      -0.010      19.582      20.426
     463.537     487.914     193.187       0.016       4.173
       2.650    6188.428       0.033
   10779.412
       8.264       0.034      -0.012      16.541      17.598
     580.543     660.381     192.117       0.015       4.072
       2.651    6147.954       0.035
   10779.912
       8.254       0.035      -0.014      13.550      13.986
     596.878     774.382     187.700       0.014       4.073
       2.661    6129.644       0.030
   10780.412
       8.270       0.030      -0.009      14.525      14.905
     397.954     546.084     212.459       0.013       4.094
       2.678    6129.425       0.021
   10780.912
       8.274       0.016      -0.006      17.626      17.861
     258.217     320.719     261.626       0.011       4.371
       2.692    6129.252       0.011
   10781.412
       8.289       0.010      -0.006      21.262      21.030
     194.668     210.284     331.436       0.010       4.589
       2.696    6129.868       0.009
   10781.912
       8.310       0.008      -0.006      24.200      24.282
     190.511     206.499     304.813       0.010       4.677
       2.700    6192.955       0.006
   10782.412
       8.320       0.006      -0.006      24.918      26.113
     236.192     287.213     213.820       0.009       4.748
       2.697    6209.201       0.007
   10782.912
       8.307       0.008      -0.010      24.317      25.542
     364.538     447.887     211.933       0.008       4.788
       2.694    6187.081       0.009
   10783.412
       8.254       0.010      -0.012      24.233      24.768
     513.491     583.129     282.780       0.008       4.784
       2.691    6144.047       0.011
   10783.912
       8.235       0.014      -0.014      22.373      23.404
     574.875     613.823     749.838       0.008       4.288
       2.689    6059.734       0.011
   10784.412
       8.221       0.020      -0.016      20.881      21.728
     597.619     629.876    1610.550       0.008       4.190
       2.674    5957.889       0.020
   10784.912
       8.200       0.022      -0.018      20.279      20.847
     629.969     572.585    2188.177       0.008       4.160
       2.670    5855.649       0.024
   10785.412
       8.192       0.020      -0.016      18.742      19.631
     554.510     430.162    1086.565       0.008       4.160
       2.678    5754.522       0.019
   10785.912
       8.177       0.020      -0.014      18.987      19.075
     369.935     298.334      91.034       0.008       4.176
       2.678    5720.440       0.019
   10786.412
       8.171       0.014      -0.012      21.111      21.252
     219.554     205.098    1325.191       0.009       4.527
       2.678    5789.102       0.019
   10786.912
       8.171       0.013      -0.012      23.214      23.506
     175.917     178.144    1945.310       0.009       4.847
       2.688    5963.352       0.014
   10787.412
       8.171       0.013      -0.014      23.660      24.027
     205.166     206.765    1945.310       0.008       4.874
       2.697    6274.016       0.008
   10787.912
       8.181       0.011      -0.010      23.006      23.149
     280.789     315.691    1945.310       0.008       4.662
       2.691    6637.986       0.011
   10788.412
       8.218       0.017      -0.008      21.684      21.226
     538.514     714.454    1555.736       0.008       4.261
       2.695    6821.362       0.009
   10788.912
       8.245       0.025      -0.006      17.975      18.789
    1044.131    1428.105     939.898       0.008       3.880
       2.692    6836.856       0.009
   10789.412
       8.281       0.030      -0.004      16.618      16.895
    1088.808    1335.921     628.506       0.007       3.831
       2.667    6812.490       0.023
   10789.912
       8.308       0.029      -0.004      17.804      19.223
     522.708     616.124     515.335       0.007       3.813
       2.663    6751.527       0.028
   10790.412
       8.328       0.023      -0.007      22.054      22.495
     304.324     271.596     317.722       0.006       3.877
       2.672    6690.493       0.023
   10790.912
       8.360       0.017      -0.010      24.399      25.090
     222.682     205.272     121.617       0.007       4.311
       2.683    6629.436       0.017
   10791.412
       8.403       0.008      -0.013      25.503      25.845
     227.550     186.078     212.206       0.008       4.775
       2.691    6568.576       0.012
   10791.912
       8.445       0.008      -0.016      24.371      24.369
     287.186     278.867     756.974       0.009       4.914
       2.695    6530.118       0.009
   10792.412
       8.500       0.008      -0.015      21.228      20.713
     369.071     453.646    1055.950       0.010       4.840
       2.695    6509.713       0.009
   10792.912
       8.548       0.008      -0.010      17.323      17.306
     393.577     472.203     527.016       0.011       4.743
       2.694    6467.071       0.009
   10793.412
       8.590       0.007      -0.010      17.381      18.396
     337.320     353.251     171.658       0.012       4.665
       2.699    6387.873       0.006
   10793.912
       8.631       0.007      -0.012      19.825      20.534
     276.866     271.493     185.045       0.013       4.616
       2.699    6367.395       0.006
   10794.412
       8.673       0.009      -0.012      21.527      22.250
     239.589     229.951     181.655       0.014       4.652
       2.696    6346.087       0.008
   10794.912
       8.714       0.010      -0.012      21.494      22.432
     263.426     252.278     165.601       0.014       4.712
       2.695    6283.716       0.009
   10795.412
       8.756       0.009      -0.012      21.751      21.979
     288.603     282.258     192.408       0.014       4.772
       2.699    6242.316       0.006
   10795.912
       8.797       0.009      -0.014      20.767      20.868
     296.739     301.376     249.707       0.014       4.831
       2.697    6181.154       0.007
   10796.412
       8.839       0.007      -0.016      19.568      19.986
     306.874     313.427     351.412       0.014       4.865
       2.697    6141.838       0.008
   10796.912
       8.868       0.003      -0.018      19.694      20.715
     312.992     324.747     415.528       0.014       4.851
       2.702    6123.589       0.005
