~Version Information
 VERS.                 2.0: 
 WRAP.                 YES: 
 END.                PETRA:GeoPLUS Corporation
~Well Information Block
#MNEM.UNIT       Data Type    Information
#---------    -------------   ---------------------------------
 STRT.F             54.8640:
 STOP.F          11443.3640:
 STEP.F              0.5000:
 NULL.              -999.25:
 COMP.                           : COMPANY
 FLD.       BENEDUM              : FIELD
 LOC.                            : LOCATION
 DATE.      14-OCT-2016          : DATE
 WELL.                           : Well Name
 LABL.      42461338640000                   : Well Label
 APIN.      42461338640000       : API Number
 UWI.       42461338640000       : Unique Well Number
 NUMB.      1                    : Well Number
 OPER.      APACHE CORP          : Operator Name
 LEAS.      UNIVERSITY `4`       : Lease Name
~Parameter Block
#MNEM.UNIT           VALUE            Description
#---------    --------------------   ---------------------------------
 EKB.F                  2672.0 : KB Elevation
~Curve Information Block
#MNEM.UNIT      API CODE      Curve Description
#---------    -------------   ---------------------------------
 DEPT.F                   00 000 00 00: Depth (MD)
 DPLS.FRAC                00 001 00 00: DENSITY POROSITY  LIMESTONE
 DT.US/FT                 00 002 00 00: Delta-T Compressional
 GR.GAPI                  00 003 00 00: GAMMA RAY
 HCAL.IN                  00 004 00 00: HIGH RESOLUTION CALIPER
 HDRA.G/CM3               00 005 00 00: HIGH RESOLUTION DENSITY CORRECTION
 LLD.OHM.M                00 006 00 00: Laterolog Deep
 LLS.OHM.M                00 007 00 00: Laterolog Shallow
 PAY_TOC.                 00 008 00 00: TOC proxy
 PEFZ.B/E                 00 009 00 00: PHOTO ELECTRIC FACTOR - HIGH RESOLUTION
 RHOZ.G/CM3               00 010 00 00: BULK DENSITY - STD RESOLUTION
 RXOZ.OHM.M               00 011 00 00: RESISTIVITY OF FLUSHED ZONE - STD RESOLU
 TENS.LB                  00 012 00 00: Tension
 TNPH.V/V                 00 013 00 00: Thermal Neutron Porosity
 XDPHI.FRAC               00 014 00 00: 
~A
# ...
    4762.864
      -1.529      87.685      63.449       7.661       1.104
    -606.969    -104.869     -999.25       3.345       2.528
    1769.787    2558.192       0.186     -999.25
    4763.364
      -1.519      87.678      67.804       7.671       1.098
    -603.327    -104.281     -999.25       3.345       2.528
    1759.224    2578.012       0.186     -999.25
    4763.864
      -1.509      87.671      72.179       7.681       1.092
    -599.677    -103.690     -999.25       3.345       2.528
    1748.638    2580.000       0.204     -999.25
    4764.364
      -1.499      87.664      74.725       7.692       1.086
    -596.018    -103.095     -999.25       3.345       2.528
    1738.031    2580.000       0.231     -999.25
    4764.864
      -1.489      87.657      76.189       7.702       1.079
    -592.349    -102.498     -999.25       3.345       2.528
    1727.402    2580.000       0.235     -999.25
    4765.364
      -1.479      87.649      77.065       7.713       1.073
    -588.672    -101.898     -999.25       3.345       2.528
    1716.752    2597.385       0.235     -999.25
    4765.864
      -1.469      87.642      70.449       7.723       1.067
    -584.986    -101.294     -999.25       3.345       2.528
    1706.079    2600.000       0.238     -999.25
    4766.364
      -1.458      87.634      63.595       7.734       1.061
    -581.290    -100.688     -999.25       3.345       2.528
    1695.385    2600.000       0.220     -999.25
    4766.864
      -1.448      87.626      59.500       7.744       1.054
    -577.586    -100.078     -999.25       3.345       2.528
    1684.669    2600.000       0.200     -999.25
    4767.364
      -1.438      87.618      56.397       7.755       1.048
    -573.873     -99.466     -999.25       3.345       2.528
    1673.931    2600.000       0.181     -999.25
    4767.864
      -1.428      87.610      54.038       7.766       1.042
    -570.151     -98.850     -999.25       3.345       2.529
    1663.171    2600.000       0.160     -999.25
    4768.364
      -1.418      87.602      52.893       7.777       1.035
    -566.419     -98.231     -999.25       3.345       2.529
    1652.390    2600.000       0.156     -999.25
    4768.864
      -1.408      87.594      52.565       7.788       1.029
    -562.679     -97.609     -999.25       3.345       2.529
    1641.586    2600.000       0.157     -999.25
    4769.364
      -1.398      87.585      52.265       7.799       1.023
    -558.930     -96.985     -999.25       3.345       2.529
    1630.761    2600.000       0.161     -999.25
    4769.864
      -1.387      87.577      51.641       7.810       1.016
    -555.171     -96.357     -999.25       3.345       2.529
    1619.913    2600.000       0.172     -999.25
    4770.364
      -1.377      87.568      49.889       7.821       1.010
    -551.404     -95.726     -999.25       3.345       2.529
    1609.044    2584.130       0.186     -999.25
    4770.864
      -1.367      87.559      48.089       7.832       1.004
    -547.628     -95.091     -999.25       3.344       2.529
    1598.153    2580.852       0.171     -999.25
    4771.364
      -1.357      87.550      46.289       7.843       0.997
    -543.842     -94.454     -999.25       3.344       2.529
    1587.240    2563.488       0.152     -999.25
    4771.864
      -1.346      87.541      44.908       7.855       0.991
    -540.048     -93.814     -999.25       3.344       2.529
    1576.305    2558.203       0.139     -999.25
    4772.364
      -1.336      87.532      44.011       7.866       0.984
    -536.244     -93.170     -999.25       3.344       2.529
    1565.348    2577.979       0.138     -999.25
    4772.864
      -1.326      87.522      42.816       7.878       0.978
    -532.431     -92.524     -999.25       3.344       2.529
    1554.368    2580.000       0.143     -999.25
    4773.364
      -1.316      87.513      41.591       7.889       0.971
    -528.610     -91.874     -999.25       3.344       2.529
    1543.367    2580.000       0.149     -999.25
    4773.864
      -1.305      87.503      40.367       7.901       0.965
    -524.779     -91.222     -999.25       3.344       2.529
    1532.344    2580.000       0.154     -999.25
    4774.364
      -1.295      87.493      39.319       7.913       0.958
    -520.939     -90.566     -999.25       3.344       2.529
    1521.299    2597.317       0.160     -999.25
    4774.864
      -1.285      87.483      39.524       7.924       0.952
    -517.090     -89.907     -999.25       3.344       2.529
    1510.231    2600.000       0.166     -999.25
    4775.364
      -1.274      87.473      40.965       7.936       0.945
    -513.232     -89.245     -999.25       3.344       2.529
    1499.142    2600.000       0.171     -999.25
    4775.864
      -1.264      87.463      42.781       7.948       0.939
    -509.364     -88.580     -999.25       3.344       2.529
    1488.030    2600.000       0.179     -999.25
    4776.364
      -1.253      87.453      44.259       7.960       0.932
    -505.488     -87.911     -999.25       3.344       2.529
    1476.897    2600.000       0.181     -999.25
    4776.864
      -1.243      87.442      44.628       7.972       0.926
    -501.602     -87.240     -999.25       3.344       2.529
    1465.741    2600.000       0.179     -999.25
    4777.364
      -1.233      87.431      44.934       7.984       0.919
    -497.708     -86.565     -999.25       3.344       2.529
    1454.563    2600.000       0.173     -999.25
    4777.864
      -1.222      87.421      45.789       7.996       0.913
    -493.804     -85.888     -999.25       3.344       2.529
    1443.363    2600.000       0.171     -999.25
    4778.364
      -1.212      87.410      48.685       8.008       0.906
    -489.891     -85.207     -999.25       3.344       2.529
    1432.141    2600.000       0.176     -999.25
    4778.864
      -1.201      87.399      52.568       8.021       0.900
    -485.969     -84.523     -999.25       3.344       2.529
    1420.896    2600.000       0.190     -999.25
    4779.364
      -1.191      87.387      60.384       8.033       0.893
    -482.038     -83.836     -999.25       3.344       2.529
    1409.630    2600.000       0.203     -999.25
    4779.864
      -1.180      87.376      69.314       8.046       0.887
    -478.097     -83.146     -999.25       3.344       2.529
    1398.341    2600.000       0.216     -999.25
    4780.364
      -1.170      87.364      70.841       8.058       0.880
    -474.148     -82.453     -999.25       3.344       2.529
    1387.030    2600.000       0.229     -999.25
    4780.864
      -1.159      87.353      70.408       8.071       0.873
    -470.189     -81.756     -999.25       3.344       2.529
    1375.696    2600.000       0.239     -999.25
    4781.364
      -1.149      87.341      69.335       8.083       0.867
    -466.221     -81.056     -999.25       3.344       2.529
    1364.341    2582.594       0.242     -999.25
    4781.864
      -1.138      87.329      66.300       8.096       0.860
    -462.244     -80.354     -999.25       3.344       2.529
    1352.963    2580.000       0.236     -999.25
    4782.364
      -1.127      87.317      63.175       8.109       0.853
    -458.258     -79.648     -999.25       3.344       2.529
    1341.563    2580.000       0.219     -999.25
    4782.864
      -1.117      87.305      60.122       8.122       0.847
    -454.262     -78.939     -999.25       3.344       2.529
    1330.140    2580.000       0.202     -999.25
    4783.364
      -1.106      87.292      62.543       8.135       0.840
    -450.257     -78.226     -999.25       3.344       2.529
    1318.695    2596.076       0.176     -999.25
    4783.864
      -1.096      87.280      65.651       8.148       0.833
    -446.243     -77.511     -999.25       3.344       2.529
    1307.228    2598.990       0.173     -999.25
    4784.364
      -1.085      87.267      66.214       8.161       0.827
    -442.220     -76.792     -999.25       3.344       2.529
    1295.739    2617.987       0.172     -999.25
