~Version Information
 VERS.                 2.0: 
 WRAP.                  NO: 
 END.                PETRA:GeoPLUS Corporation
~Well Information Block
#MNEM.UNIT       Data Type    Information
#---------    -------------   ---------------------------------
 STRT.F              0.0000:
 STOP.F          10696.1560:
 STEP.F              0.5000:
 NULL.              -999.25:
 COMP.                           : COMPANY
 FLD.       FLAT ROCK            : FIELD
 LOC.                            : LOCATION
 DATE.      14-OCT-2016          : DATE
 WELL.                           : Well Name
 LABL.      42461037730000                   : Well Label
 APIN.      42461037730000       : API Number
 UWI.       42461037730000       : Unique Well Number
 NUMB.      3                    : Well Number
 OPER.      OXY U S A INC        : Operator Name
 LEAS.      UNIVERSITY-AQ        : Lease Name
~Parameter Block
#MNEM.UNIT           VALUE            Description
#---------    --------------------   ---------------------------------
~Curve Information Block
#MNEM.UNIT      API CODE      Curve Description
#---------    -------------   ---------------------------------
 DEPT.F                   00 000 00 00: Depth (MD)
 ASN.OHM.M                00 001 00 00: AMPLIFIED SHORT NORMAL
 GR.GAPI                  00 002 00 00: GAMMA RAY
 LAT19.OHM.M              00 003 00 00: 
 LAT32.OHM.M              00 004 00 00: 
 SN.OHM.M                 00 005 00 00: 16-in Short Normal
 SP.MV                    00 006 00 00: Spontaneous Potential
 XGR.API                  00 007 00 00: gamma ray
~A        DEPT         ASN          GR       LAT19       LAT32          SN          SP         XGR
# ...
      2956.500      48.828       2.676      33.508       1.316       7.641     -49.716     146.622
      2957.000      46.997       2.878      33.747       1.331       7.653     -49.000     160.715
      2957.500      41.849       3.081      34.216       1.337       7.665     -47.220     176.367
      2958.000      38.569       3.283      34.217       1.330       7.678     -45.586     194.056
      2958.500      34.837       3.485      34.219       1.338       7.702     -45.111     208.116
      2959.000      29.832       3.688      34.466       1.345       7.738     -46.720     199.205
      2959.500      26.519       3.888      34.707       1.345       7.751     -47.543     187.142
      2960.000      24.156       3.965      34.951       1.352       7.775     -48.336     181.109
      2960.500      25.496       4.040      35.430       1.359       7.798     -49.127     175.139
      2961.000      26.874       3.911      35.431       1.381       7.810     -49.639     180.038
      2961.500      26.113       3.784      35.673       1.396       7.835     -49.783     186.369
      2962.000      25.279       3.565      35.903       1.402       7.882     -51.672     180.766
      2962.500      25.732       3.269      35.904       1.402       7.917     -52.530     179.174
      2963.000      26.525       3.059      35.904       1.402       7.918     -51.682     173.947
      2963.500      26.170       2.763      35.900       1.410       7.954     -50.582     182.467
      2964.000      23.720       2.545      35.654       1.410       7.989     -49.616     207.640
      2964.500      17.968       2.402      35.415       1.417       8.013     -50.903     211.974
      2965.000      13.783       2.301      35.420       1.432       8.062     -52.484     153.066
      2965.500      54.911       2.200      35.181       1.454       8.087     -54.471      65.297
      2966.000      89.293       2.116      35.181       1.483       8.123     -57.084      47.793
      2966.500     124.418       2.083      35.182       1.519       8.160     -56.798      45.973
      2967.000     145.202       2.058      35.438       1.563       8.184     -53.083      72.616
      2967.500     156.046       1.982      36.166       1.612       8.221     -49.823      83.377
      2968.000     183.837       1.849      36.652       1.627       8.245     -49.923      75.349
      2968.500     219.752       1.757      37.620       1.642       8.282     -51.084      46.927
      2969.000     251.159       1.708      38.329       1.656       8.318     -51.084      33.410
      2969.500     281.646       1.692      38.812       1.670       8.330     -51.287      31.326
      2970.000     313.952       1.700      39.291       1.685       8.355     -52.895      26.153
      2970.500     348.994       1.742      39.531       1.699       8.379     -55.901      22.970
      2971.000     373.320       1.801      40.260       1.714       8.403     -58.150      24.939
      2971.500     389.071       1.944      40.734       1.721       8.415     -61.499      24.944
      2972.000     405.638       2.102      40.975       1.728       8.427     -64.622      20.956
      2972.500     422.390       2.263      41.466       1.757       8.452     -66.385      21.164
      2973.000     439.142       2.525      42.189       1.756       8.464     -68.376      22.683
      2973.500     458.653       2.828      42.664       1.742       8.464     -65.383      16.229
      2974.000     473.471       3.040      42.890       1.727       8.476     -67.803      18.204
      2974.500     478.272       3.344      42.892       1.720       8.475     -67.148      19.423
      2975.000     485.000       3.656      42.891       1.706       8.463     -69.409      20.594
      2975.500     488.861       3.963      42.633       1.699       8.463     -69.113      22.908
      2976.000     493.976       4.024      42.152       1.699       8.463     -70.306      21.658
      2976.500     493.976       4.083      41.673       1.699       8.463     -71.933      19.857
      2977.000     490.964       4.150      41.946       1.699       8.451     -76.126      14.846
      2977.500     487.952       4.217      42.417       1.699       8.464     -79.175      17.389
      2978.000     487.952       4.191      42.659       1.699       8.463     -79.277      20.054
      2978.500     484.940       4.140      42.900       1.706       8.451     -78.557      19.492
      2979.000     484.940       4.081      43.381       1.706       8.451     -77.526      19.764
      2979.500     474.288       4.022      43.623       1.706       8.439     -77.746      19.973
      2980.000     461.357       3.963      43.870       1.706       8.439     -80.118      19.300
      2980.500     445.336       3.904      44.123       1.706       8.427     -80.964      16.780
      2981.000     432.557       3.956      44.614       1.698       8.427     -80.964      16.921
      2981.500     420.109       4.015      44.606       1.684       8.414     -81.108      18.152
      2982.000     406.620       4.074      44.368       1.669       8.414     -83.323      17.271
      2982.500     402.992       4.133      43.902       1.640       8.402     -85.929      17.281
      2983.000     399.418       4.209      43.671       1.619       8.390     -87.143      17.364
      2983.500     391.843       4.242      43.441       1.612       8.353     -86.173      19.018
      2984.000     388.356       4.164      43.210       1.597       8.365     -83.282      19.820
      2984.500     383.960       3.987      42.735       1.590       8.353     -79.441      27.511
      2985.000     378.514       3.801      42.513       1.583       8.342     -79.277      32.339
      2985.500     372.051       3.624      42.042       1.583       8.342     -79.514      33.810
      2986.000     367.793       3.406      41.836       1.583       8.342     -78.217      29.904
      2986.500     357.417       3.433      42.085       1.583       8.342     -76.394      31.072
      2987.000     344.116       3.484      42.334       1.583       8.354     -74.385      34.476
      2987.500     331.193       3.543      42.583       1.598       8.354     -73.810      33.900
      2988.000     304.312       3.619      42.834       1.598       8.366     -78.020      43.998
      2988.500     275.567       3.755      43.320       1.598       8.354     -77.226      43.033
      2989.000     248.568       3.924      43.567       1.590       8.354     -75.346      41.686
      2989.500     244.225       4.092      43.814       1.575       8.353     -73.784      38.763
      2990.000     229.151       4.090      43.800       1.561       8.341     -71.076      33.128
      2990.500     208.353       4.022      43.563       1.547       8.329     -69.416      37.062
      2991.000     185.556       3.963      43.326       1.540       8.317     -69.640      38.118
      2991.500     166.920       3.895      43.324       1.532       8.317     -70.345      41.774
      2992.000     148.221       3.768      43.087       1.525       8.305     -67.901      50.689
      2992.500     126.417       3.599      42.848       1.518       8.305     -63.753      66.726
      2993.000     126.579       3.413      42.627       1.533       8.305     -64.883      63.142
      2993.500     135.887       3.220      42.865       1.555       8.305     -66.934      45.305
      2994.000     145.194       3.050      43.103       1.577       8.305     -66.914      31.125
      2994.500     155.030       2.746      43.342       1.598       8.318     -66.764      23.856
      2995.000     162.579       2.451      43.580       1.612       8.330     -63.478      17.224
      2995.500     165.845       2.250      43.821       1.628       8.342     -60.904      18.643
      2996.000     170.665       2.150      44.298       1.656       8.342     -60.723      18.747
      2996.500     177.237       2.100      44.536       1.685       8.354     -60.989      17.429
