~Version Information
 VERS.                 2.0: 
 WRAP.                 YES: 
 END.                PETRA:GeoPLUS Corporation
~Well Information Block
#MNEM.UNIT       Data Type    Information
#---------    -------------   ---------------------------------
 STRT.F             57.9120:
 STOP.F          11474.9360:
 STEP.F              0.5000:
 NULL.              -999.25:
 COMP.                           : COMPANY
 FLD.       BENEDUM              : FIELD
 LOC.                            : LOCATION
 DATE.      14-OCT-2016          : DATE
 WELL.                           : Well Name
 LABL.      42461342620000                   : Well Label
 APIN.      42461342620000       : API Number
 UWI.       42461342620000       : Unique Well Number
 NUMB.      1                    : Well Number
 OPER.      W T G EXPLORATION    : Operator Name
 LEAS.      UNIVERSITY `3-4`     : Lease Name
~Parameter Block
#MNEM.UNIT           VALUE            Description
#---------    --------------------   ---------------------------------
 EKB.F                  2682.0 : KB Elevation
~Curve Information Block
#MNEM.UNIT      API CODE      Curve Description
#---------    -------------   ---------------------------------
 DEPT.F                   00 000 00 00: Depth (MD)
 CALI.IN                  00 001 00 00: Density Caliper
 DPLS.FRAC                00 002 00 00: DENSITY POROSITY  LIMESTONE
 DRHO.G/CM3               00 003 00 00: Density Correction
 GRD.GAPI                 00 004 00 00: Guard
 GRR.GAPI                 00 005 00 00: Gamma Ray Resistivity Device
 LLD.OHM.M                00 006 00 00: Laterolog Deep
 LLS.OHM.M                00 007 00 00: Laterolog Shallow
 MSFL.OHM.M               00 008 00 00: MICRO SFL
 NPLS.FRAC                00 009 00 00: NEUTRON POROSITY  LIMESTONE
 PEF.B/E                  00 010 00 00: Photo-Electric Factor
 RHOB.G/CM3               00 011 00 00: Bulk Density
 TENS.LB                  00 012 00 00: Tension
 XDPHI.FRAC               00 013 00 00: 
~A
# ...
    2901.412
       9.985       0.085       0.025      14.031     115.191
       9.423       7.285       5.665       0.172       3.187
       2.564    3204.564     -999.25
    2901.912
      10.147       0.071       0.104      12.488     121.460
       8.557       6.880       6.964       0.148       3.184
       2.569    3204.722     -999.25
    2902.412
      10.151       0.116       0.119      11.628     109.677
      10.823       8.725       8.775       0.112       3.186
       2.510    3204.880     -999.25
    2902.912
      10.147       0.097       0.093      12.296     106.092
      12.470       9.708       5.265       0.113       3.407
       2.587    3205.038     -999.25
    2903.412
      10.213       0.074       0.133      13.519     118.087
      10.608       8.450       5.610       0.134       3.234
       2.555    3205.196     -999.25
    2903.912
      10.132       0.126       0.170      14.412     112.273
       9.054       7.371       3.865       0.156       3.059
       2.477    3205.354     -999.25
    2904.412
      10.036       0.121       0.171      14.022     114.378
       7.645       6.126       3.264       0.165       2.967
       2.507    3205.512     -999.25
    2904.912
       9.941       0.130       0.165      12.144     115.463
       6.695       6.474       7.225       0.153       3.341
       2.483    3205.670     -999.25
    2905.412
       9.724       0.140       0.153       9.754     108.990
      10.408      10.025      13.513       0.138       3.226
       2.470    3205.828     -999.25
    2905.912
       9.607       0.088       0.083      12.388     106.224
      11.485       8.652       5.875       0.177       3.229
       2.572    3205.986     -999.25
    2906.412
       9.652       0.083       0.089      17.146     101.065
      11.087       9.881       8.919       0.219       3.324
       2.583    3206.143     -999.25
    2906.912
       9.570       0.065       0.040      27.598      99.782
      15.482      11.080      12.524       0.302       3.331
       2.610    3206.301     -999.25
    2907.412
       9.549       0.066       0.005      33.489     106.509
      15.516      10.612      10.210       0.331       3.263
       2.597    3206.459     -999.25
    2907.912
       9.594       0.071       0.056      36.700     109.158
      13.012       9.206       4.958       0.360       3.011
       2.593    3206.616     -999.25
    2908.412
       9.638       0.121       0.132      37.028     111.098
      11.679       8.371       6.532       0.419       3.039
       2.497    3206.773     -999.25
    2908.912
       9.654       0.086       0.205      33.129     107.641
      10.290       8.322       2.828       0.476       3.389
       2.564    3206.931     -999.25
    2909.412
       9.708       0.130       0.184      29.219     111.440
       9.190       8.231       4.874       0.399       3.168
       2.490    3207.088     -999.25
    2909.912
       9.523       0.128       0.040      25.566     106.246
      11.341       9.490      10.863       0.294       3.112
       2.491    3207.246     -999.25
    2910.412
       9.588       0.096       0.059      23.412     109.513
       7.827       7.011       3.026       0.207       3.009
       2.545    3207.481     -999.25
    2910.912
       9.415       0.153       0.113      18.479      94.829
       8.836       9.762      48.738       0.162       3.148
       2.440    3207.638     -999.25
    2911.412
       9.408       0.067       0.088      14.553      86.655
      13.751      13.619      14.514       0.114       3.542
       2.540    3207.795     -999.25
    2911.912
       9.476       0.064       0.029      11.845      88.090
      16.040      15.285      18.317       0.084       3.485
       2.593    3207.952     -999.25
    2912.412
       9.424       0.083       0.026       9.702      99.420
      13.348      11.992      10.339       0.069       3.292
       2.559    3208.109     -999.25
    2912.912
       9.449       0.099       0.081       7.566     104.414
      11.062      10.628       6.196       0.073       3.225
       2.545    3208.266     -999.25
    2913.412
       9.432       0.089       0.055       6.069     100.661
      14.361      15.018      11.676       0.077       3.283
       2.564    3208.423     -999.25
    2913.912
       9.388       0.076       0.023       5.539     104.426
      15.583      15.025      15.516       0.082       3.350
       2.572    3208.579     -999.25
    2914.412
       9.328       0.084      -0.003       6.149     102.467
      17.405      17.813      22.676       0.087       3.306
       2.559    3208.736     -999.25
    2914.912
       9.326       0.057       0.021       6.756      98.418
      23.106      19.672      14.837       0.092       3.306
       2.612    3208.893     -999.25
    2915.412
       9.347       0.048       0.005       6.724     100.403
      23.721      20.317      16.282       0.109       3.274
       2.628    3209.049     -999.25
    2915.912
       9.347       0.063      -0.009       6.408     100.588
      29.818      22.338      20.652       0.110       3.210
       2.607    3209.206     -999.25
    2916.412
       9.347       0.071      -0.007       6.482     103.468
      27.033      18.250      13.340       0.110       3.082
       2.588    3209.362     -999.25
    2916.912
       9.362       0.071      -0.005       8.995     106.250
      21.755      14.762      10.266       0.111       3.075
       2.589    3209.518     -999.25
    2917.412
       9.382       0.082       0.000      11.763     115.428
      17.180      11.478       9.799       0.125       3.024
       2.576    3209.675     -999.25
    2917.912
       9.388       0.083       0.062      15.158     115.472
      13.519      10.452       6.713       0.139       3.020
       2.556    3209.831     -999.25
    2918.412
       9.388       0.094       0.072      19.181     114.750
      15.630      11.542       6.831       0.196       3.020
       2.570    3209.987     -999.25
    2918.912
       9.373       0.110       0.094      24.431     112.647
      12.145       8.600       5.045       0.301       2.979
       2.523    3210.143     -999.25
    2919.412
       9.402       0.091       0.073      30.248     113.892
      10.888       8.371       6.589       0.316       2.850
       2.547    3210.531     -999.25
    2919.912
       9.248       0.098       0.047      35.290      97.345
      16.278      14.702      16.747       0.300       2.880
       2.539    3230.754     -999.25
    2920.412
       9.091       0.043       0.041      38.171      67.350
      47.644      54.069     114.816       0.301       3.432
       2.637    3230.928     -999.25
    2920.912
       9.213       0.023      -0.007      39.015      59.515
      61.435      36.894      60.219       0.315       3.913
       2.675    3231.080     -999.25
    2921.412
       9.415       0.051       0.014      38.615      95.149
      14.584       9.426       5.497       0.343       3.214
       2.633    3231.231     -999.25
    2921.912
       9.657       0.071       0.085      36.819     108.697
      11.429       9.715       4.816       0.355       2.959
       2.555    3231.383     -999.25
    2922.412
       9.645       0.073       0.055      35.038     110.675
      11.984       9.024       4.114       0.299       2.970
       2.576    3231.535     -999.25
    2922.912
       9.825       0.130       0.118      33.847     121.929
       9.080       6.494       3.966       0.300       2.887
       2.479    3231.686     -999.25
    2923.412
       9.980       0.167       0.156      32.643     107.282
       7.643       6.541       3.405       0.311       2.797
       2.409    3231.838     -999.25
    2923.912
       9.702       0.131       0.042      31.138      97.708
       9.041       7.842       4.659       0.323       3.101
       2.482    3232.005     -999.25
    2924.412
       9.653       0.092       0.158      29.968     105.045
      10.056       7.672       6.488       0.334       3.044
       2.562    3232.141     -999.25
