~Version Information
 VERS.                 2.0: 
 WRAP.                 YES: 
 END.                PETRA:GeoPLUS Corporation
~Well Information Block
#MNEM.UNIT       Data Type    Information
#---------    -------------   ---------------------------------
 STRT.F           1066.8000:
 STOP.F           7799.8000:
 STEP.F              0.5000:
 NULL.              -999.25:
 COMP.                           : COMPANY
 FLD.       FLAT ROCK            : FIELD
 LOC.                            : LOCATION
 DATE.      14-OCT-2016          : DATE
 WELL.                           : Well Name
 LABL.      42461318260000                   : Well Label
 APIN.      42461318260000       : API Number
 UWI.       42461318260000       : Unique Well Number
 NUMB.      1                    : Well Number
 OPER.      KIMBARK OIL & GAS CO : Operator Name
 LEAS.      UNIVERSITY `31-3`    : Lease Name
~Parameter Block
#MNEM.UNIT           VALUE            Description
#---------    --------------------   ---------------------------------
 EKB.F                  2786.0 : KB Elevation
~Curve Information Block
#MNEM.UNIT      API CODE      Curve Description
#---------    -------------   ---------------------------------
 DEPT.F                   00 000 00 00: Depth (MD)
 CALI.IN                  00 001 00 00: Density Caliper
 DPHI.FRAC                00 002 00 00: Density Porosity
 DRHO.G/CM3               00 003 00 00: Density Correction
 GR.GAPI                  00 004 00 00: GAMMA RAY
 ILD.OHM.M                00 005 00 00: Induction Deep Resistivity
 NPHI.FRAC                00 006 00 00: Neutron Porosity
 PAY_TOC.                 00 007 00 00: TOC proxy
 SP.MV                    00 008 00 00: Spontaneous Potential
~A
# ...
    7746.300
       7.649       0.099       0.018     133.918      17.033
       0.220       0.000     -79.751
    7746.800
       7.649       0.097       0.018     128.813      16.185
       0.217       0.000     -79.755
    7747.300
       7.649       0.097       0.018     125.153      14.521
       0.214       0.000     -79.758
    7747.800
       7.640       0.098       0.017     122.090      13.312
       0.212       0.000     -79.762
    7748.300
       7.630       0.100       0.017     121.510      12.185
       0.211       0.000     -79.766
    7748.800
       7.611       0.098       0.017     123.638      11.529
       0.210       0.000     -79.945
    7749.300
       7.611       0.094       0.018     128.591      11.446
       0.211       0.000     -80.152
    7749.800
       7.598       0.089       0.022     133.654      11.527
       0.222       0.000     -80.161
    7750.300
       7.592       0.087       0.027     133.572      11.842
       0.234       0.000     -80.166
    7750.800
       7.610       0.087       0.032     128.977      12.172
       0.231       0.000     -80.169
    7751.300
       7.610       0.088       0.035     123.413      12.509
       0.217       0.000     -80.173
    7751.800
       7.629       0.092       0.034     120.343      12.910
       0.200       0.000     -80.176
    7752.300
       7.629       0.096       0.023     118.470      13.167
       0.188       0.000     -80.189
    7752.800
       7.629       0.096       0.014     118.459      13.287
       0.194       0.000     -80.553
    7753.300
       7.629       0.089       0.007     120.026      13.406
       0.215       0.000     -80.572
    7753.800
       7.610       0.082       0.004     123.448      13.426
       0.226       0.000     -80.575
    7754.300
       7.610       0.077       0.012     125.697      13.329
       0.242       0.000     -80.580
    7754.800
       7.607       0.078       0.020     121.261      12.990
       0.228       0.000     -80.583
    7755.300
       7.578       0.079       0.027     112.271      12.570
       0.212       0.000     -80.587
    7755.800
       7.572       0.075       0.030     111.427      12.308
       0.199       0.000     -80.591
    7756.300
       7.553       0.073       0.030     121.343      12.097
       0.189       0.000     -80.233
    7756.800
       7.534       0.073       0.030     129.375      12.211
       0.184       0.000     -80.221
    7757.300
       7.534       0.079       0.023     131.752      12.296
       0.221       0.000     -80.121
    7757.800
       7.515       0.076       0.016     116.739      12.534
       0.186       0.000     -79.866
    7758.300
       7.514       0.068       0.012     107.946      12.936
       0.163       0.000     -79.760
    7758.800
       7.524       0.057       0.014     103.051      13.233
       0.151       0.000     -79.096
    7759.300
       7.533       0.046       0.019     100.507      13.649
       0.142       0.000     -79.082
    7759.800
       7.533       0.038       0.029      98.818      14.103
       0.136       0.000     -79.085
    7760.300
       7.533       0.053       0.041      98.410      14.670
       0.133       0.000     -79.089
    7760.800
       7.533       0.077       0.045      98.719      15.390
       0.155       0.000     -79.093
    7761.300
       7.533       0.083       0.042      98.964      16.111
       0.167       0.000     -79.083
    7761.800
       7.532       0.085       0.033      98.944      17.079
       0.172       0.000     -79.434
    7762.300
       7.532       0.087       0.021      99.467      17.938
       0.177       0.000     -79.850
    7762.800
       7.532       0.088       0.011     100.126      19.128
       0.173       0.000     -79.878
    7763.300
       7.532       0.090       0.007     100.372      20.364
       0.160       0.000     -79.880
    7763.800
       7.532       0.085       0.008     100.285      21.519
       0.135       0.000     -79.956
    7764.300
       7.532       0.057       0.015      99.626      22.761
       0.118       0.000     -80.264
    7764.800
       7.532       0.046       0.022      98.180      23.567
       0.107       0.000     -80.275
    7765.300
       7.532       0.037       0.026      97.809      24.339
       0.096       0.000     -80.279
    7765.800
       7.531       0.031       0.029      97.797      24.959
       0.092       0.000     -80.283
    7766.300
       7.531       0.058       0.028      97.790      26.079
       0.101       0.000     -80.348
    7766.800
       7.513       0.089       0.019      98.505      27.061
       0.142       0.000     -80.664
    7767.300
       7.512       0.103       0.011      99.638      28.466
       0.175       0.000     -80.678
    7767.800
       7.512       0.124       0.002     101.791      29.639
       0.184       0.000     -80.682
    7768.300
       7.512       0.131       0.000     103.527      30.865
       0.184       0.000     -81.195
    7768.800
       7.512       0.137      -0.002     104.980      31.775
       0.184       0.000     -81.417
    7769.300
       7.512       0.140      -0.001     105.745      32.424
       0.182       0.000     -81.954
    7769.800
       7.493       0.147       0.002     105.962      31.395
       0.180       0.000     -82.229
    7770.300
       7.493       0.153       0.004     105.295      30.173
       0.178       0.000     -82.236
    7770.800
       7.493       0.157       0.006     102.989      29.201
       0.177       0.000     -82.240
    7771.300
       7.492       0.127       0.010     100.532      28.981
       0.177       0.000     -82.244
    7771.800
       7.492       0.113       0.013      98.899      28.670
       0.179       0.000     -82.247
    7772.300
       7.492       0.106       0.017      99.060      28.966
       0.176       0.000     -82.252
    7772.800
       7.492       0.100       0.020      99.776      29.621
       0.175       0.000     -81.784
    7773.300
       7.492       0.093       0.027     101.535      30.574
       0.173       0.000     -81.175
    7773.800
       7.492       0.088       0.034     102.337      32.065
       0.172       0.000     -80.591
    7774.300
       7.492       0.085       0.042     102.998      35.539
       0.174       0.000     -80.028
    7774.800
       7.492       0.099       0.040     103.337      39.754
       0.177       0.000     -79.404
    7775.300
       7.519       0.106       0.021     103.334      45.541
       0.177       0.000     -79.236
    7775.800
       7.529       0.113       0.020     103.328      48.826
       0.175       0.000     -78.867
    7776.300
       7.558       0.119       0.023     103.050      51.718
       0.172       0.000     -78.458
    7776.800
       7.566       0.128       0.027     103.032      54.154
       0.169       0.000     -78.446
    7777.300
       7.566       0.116       0.031     103.025      55.707
       0.167       0.000     -78.450
    7777.800
       7.585       0.101       0.032     103.018      57.429
       0.169       0.000     -78.454
    7778.300
       7.585       0.093       0.033     102.951      58.793
       0.176       0.000     -78.458
    7778.800
       7.584       0.103       0.031     102.741      58.881
       0.180       0.000     -79.165
    7779.300
       7.584       0.111       0.007     102.699      58.741
       0.182       0.000     -79.413
    7779.800
       7.577       0.113       0.001     102.971      57.070
       0.181       0.000     -79.991
    7780.300
       7.529       0.103       0.011     103.097      55.220
       0.180       0.000     -80.706
    7780.800
       7.481       0.078       0.111     103.253      54.073
       0.181       0.000     -80.731
    7781.300
       7.379       0.062       0.235     103.258      53.109
       0.185       0.000     -80.067
    7781.800
       7.004       0.073       0.271     103.232      53.017
       0.190       0.000     -79.912
    7782.300
       6.644       0.096       0.279     102.824      53.275
       0.196       0.000     -79.301
