~Version Information
 VERS.                 2.0: 
 WRAP.                  NO: 
 END.                PETRA:GeoPLUS Corporation
~Well Information Block
#MNEM.UNIT       Data Type    Information
#---------    -------------   ---------------------------------
 STRT.F           1828.6476:
 STOP.F           8230.1476:
 STEP.F              0.5000:
 NULL.              -999.25:
 COMP.                           : COMPANY
 FLD.       SPRABERRY            : FIELD
 LOC.                            : LOCATION
 DATE.      14-OCT-2016          : DATE
 WELL.                           : Well Name
 LABL.      42461324180000                   : Well Label
 APIN.      42461324180000       : API Number
 UWI.       42461324180000       : Unique Well Number
 NUMB.      3                    : Well Number
 OPER.      PIONEER NAT RES USA  : Operator Name
 LEAS.      UNIVERSITY `8`       : Lease Name
~Parameter Block
#MNEM.UNIT           VALUE            Description
#---------    --------------------   ---------------------------------
 EKB.F                  2684.0 : KB Elevation
~Curve Information Block
#MNEM.UNIT      API CODE      Curve Description
#---------    -------------   ---------------------------------
 DEPT.F                   00 000 00 00: Depth (MD)
 CALI.IN                  00 001 00 00: Density Caliper
 DPHI.FRAC                00 002 00 00: Density Porosity
 DRHO.G/CM3               00 003 00 00: Density Correction
 GR.GAPI                  00 004 00 00: GAMMA RAY
 LGRD.OHM.M               00 005 00 00: Long Guard Resistivity
 NPHI.FRAC                00 006 00 00: Neutron Porosity
~A        DEPT        CALI        DPHI        DRHO          GR        LGRD        NPHI
# ...
      7348.648       9.461       0.118       0.008      87.223      14.089       0.187
      7349.148       9.435       0.113       0.010      89.318      14.962       0.208
      7349.648       9.408       0.106       0.014      92.497      16.080       0.218
      7350.148       9.403       0.104       0.018      95.689      17.562       0.223
      7350.648       9.356       0.101       0.022     100.258      18.877       0.224
      7351.148       9.337       0.098       0.026     106.340      20.469       0.221
      7351.648       9.336       0.096       0.028     117.199      21.346       0.218
      7352.148       9.336       0.095       0.028     128.118      23.217       0.216
      7352.648       9.319       0.098       0.028     132.123      26.406       0.215
      7353.148       9.318       0.099       0.028     128.835      28.871       0.217
      7353.648       9.318       0.097       0.028     124.826      21.732       0.217
      7354.148       9.308       0.093       0.025     117.778      18.809       0.217
      7354.648       9.300       0.087       0.022     113.060      20.017       0.217
      7355.148       9.300       0.082       0.019     109.290      20.994       0.215
      7355.648       9.300       0.078       0.015     106.319      22.213       0.214
      7356.148       9.299       0.077       0.012     104.654      23.659       0.210
      7356.648       9.299       0.082       0.009     104.914      25.826       0.208
      7357.148       9.299       0.088       0.007     110.437      29.227       0.205
      7357.648       9.298       0.100       0.005     114.004      43.853       0.202
      7358.148       9.298       0.111       0.003     112.947      51.598       0.197
      7358.648       9.298       0.109       0.002     109.989     178.678       0.195
      7359.148       9.315       0.107       0.001     107.232     167.333       0.190
      7359.648       9.315       0.104       0.003     103.991     151.959       0.186
      7360.148       9.314       0.095       0.006     103.347      68.654       0.183
      7360.648       9.314       0.091       0.012     101.149      26.350       0.179
      7361.148       9.315       0.097       0.022      95.715      23.654       0.174
      7361.648       9.331       0.098       0.027      96.251      23.202       0.175
      7362.148       9.331       0.098       0.032     100.826      22.861       0.180
      7362.648       9.330       0.095       0.034     106.415      25.785       0.184
      7363.148       9.330       0.093       0.036     105.883      27.905       0.186
      7363.648       9.330       0.094       0.040     102.790      26.916       0.188
      7364.148       9.329       0.092       0.037     103.640      24.347       0.189
      7364.648       9.329       0.089       0.032     107.917      21.901       0.190
      7365.148       9.329       0.088       0.025     109.877      19.856       0.188
      7365.648       9.329       0.095       0.021     111.011      17.780       0.183
      7366.148       9.345       0.100       0.017     100.302      16.454       0.177
      7366.648       9.345       0.106       0.013      99.794      15.144       0.171
      7367.148       9.354       0.105       0.010     103.234      14.212       0.166
      7367.648       9.362       0.103       0.007     106.806      14.041       0.161
      7368.148       9.362       0.100       0.007     110.974      17.657       0.157
      7368.648       9.362       0.093       0.007     114.555      34.249       0.154
      7369.148       9.378       0.086       0.007      98.534      60.341       0.159
      7369.648       9.382       0.080       0.007      89.527      86.810       0.166
      7370.148       9.395       0.078       0.009      86.358      67.053       0.168
      7370.648       9.395       0.088       0.012      85.946      44.248       0.168
      7371.148       9.395       0.095       0.016      88.470      36.254       0.167
      7371.648       9.400       0.101       0.019      94.381      30.006       0.163
      7372.148       9.428       0.105       0.024      96.893      26.701       0.154
      7372.648       9.436       0.107       0.029      96.453      22.378       0.148
      7373.148       9.445       0.108       0.033      95.200      18.057       0.143
      7373.648       9.462       0.107       0.037      92.632      20.714       0.138
      7374.148       9.462       0.104       0.040      90.459      26.552       0.137
      7374.648       9.462       0.101       0.039      87.199      28.780       0.149
      7375.148       9.482       0.097       0.036      84.784      25.415       0.163
      7375.648       9.512       0.092       0.035      81.015      22.268       0.171
      7376.148       9.530       0.086       0.033      78.569      19.791       0.176
      7376.648       9.530       0.083       0.029      84.506      17.796       0.179
      7377.148       9.530       0.081       0.025      91.711      15.292       0.180
      7377.648       9.529       0.090       0.022     104.263      14.198       0.174
      7378.148       9.529       0.094       0.020     110.692      15.404       0.167
      7378.648       9.528       0.093       0.017     108.908      17.053       0.163
      7379.148       9.545       0.090       0.014     104.479      18.259       0.163
      7379.648       9.562       0.088       0.014      89.563      19.285       0.167
      7380.148       9.571       0.086       0.013      76.655      19.871       0.172
      7380.648       9.580       0.086       0.012      81.118      20.132       0.179
      7381.148       9.597       0.089       0.018      87.611      20.137       0.183
      7381.648       9.596       0.088       0.022      92.181      20.138       0.187
      7382.148       9.596       0.086       0.024      98.019      19.379       0.190
      7382.648       9.596       0.091       0.027     102.465      15.631       0.194
      7383.148       9.596       0.090       0.029     105.573      13.773       0.197
      7383.648       9.595       0.088       0.029     105.051      12.711       0.199
      7384.148       9.595       0.089       0.028     103.581      12.072       0.201
      7384.648       9.595       0.093       0.028     102.267      12.116       0.205
      7385.148       9.579       0.095       0.027     102.253      13.593       0.209
      7385.648       9.537       0.097       0.023     104.942      15.198       0.211
      7386.148       9.527       0.099       0.020     107.859      17.049       0.211
      7386.648       9.493       0.104       0.017     111.614      18.318       0.210
      7387.148       9.456       0.101       0.015     113.862      20.037       0.207
      7387.648       9.454       0.102       0.013     115.185      21.713       0.205
      7388.148       9.453       0.105       0.010     114.720      24.318       0.201
      7388.648       9.418       0.106       0.007     113.945      25.798       0.197
      7389.148       9.386       0.105       0.008     112.866      27.368       0.193
      7389.648       9.384       0.101       0.012     111.614      28.134       0.192
      7390.148       9.377       0.094       0.017     110.343      25.971       0.190
      7390.648       9.334       0.088       0.024     108.559      25.265       0.190
      7391.148       9.315       0.082       0.030     105.657      25.041       0.189
      7391.648       9.315       0.077       0.033     102.462      25.226       0.190
      7392.148       9.298       0.070       0.036      99.946      25.706       0.191
      7392.648       9.280       0.064       0.037     101.411      27.040       0.193
      7393.148       9.255       0.074       0.035     102.846      28.747       0.195
      7393.648       9.244       0.082       0.029     101.298      31.481       0.198
      7394.148       9.244       0.088       0.022     100.311      33.139       0.203
