~Version Information
 VERS.                 2.0: 
 WRAP.                 YES: 
 END.                PETRA:GeoPLUS Corporation
~Well Information Block
#MNEM.UNIT       Data Type    Information
#---------    -------------   ---------------------------------
 STRT.F             57.9120:
 STOP.F          11474.9360:
 STEP.F              0.5000:
 NULL.              -999.25:
 COMP.                           : COMPANY
 FLD.       BENEDUM              : FIELD
 LOC.                            : LOCATION
 DATE.      14-OCT-2016          : DATE
 WELL.                           : Well Name
 LABL.      42461342620000                   : Well Label
 APIN.      42461342620000       : API Number
 UWI.       42461342620000       : Unique Well Number
 NUMB.      1                    : Well Number
 OPER.      W T G EXPLORATION    : Operator Name
 LEAS.      UNIVERSITY `3-4`     : Lease Name
~Parameter Block
#MNEM.UNIT           VALUE            Description
#---------    --------------------   ---------------------------------
 EKB.F                  2682.0 : KB Elevation
~Curve Information Block
#MNEM.UNIT      API CODE      Curve Description
#---------    -------------   ---------------------------------
 DEPT.F                   00 000 00 00: Depth (MD)
 CALI.IN                  00 001 00 00: Density Caliper
 DPLS.FRAC                00 002 00 00: DENSITY POROSITY  LIMESTONE
 DRHO.G/CM3               00 003 00 00: Density Correction
 GRD.GAPI                 00 004 00 00: Guard
 GRR.GAPI                 00 005 00 00: Gamma Ray Resistivity Device
 LLD.OHM.M                00 006 00 00: Laterolog Deep
 LLS.OHM.M                00 007 00 00: Laterolog Shallow
 MSFL.OHM.M               00 008 00 00: MICRO SFL
 NPLS.FRAC                00 009 00 00: NEUTRON POROSITY  LIMESTONE
 PEF.B/E                  00 010 00 00: Photo-Electric Factor
 RHOB.G/CM3               00 011 00 00: Bulk Density
 TENS.LB                  00 012 00 00: Tension
 XDPHI.FRAC               00 013 00 00: 
~A
# ...
    7742.412
       9.281       0.096      -0.001     115.131     115.686
      53.083      44.923      50.446       0.216       3.296
       2.549    5020.000       0.096
    7742.912
       9.286       0.089       0.006     105.146     108.793
      56.804      46.389      50.352       0.201       3.376
       2.557    5020.000       0.089
    7743.412
       9.286       0.088       0.003     100.368     102.699
      68.978      55.162      36.953       0.186       3.450
       2.556    5020.000       0.090
    7743.912
       9.286       0.080       0.000      99.731      98.593
      89.027      81.111      90.006       0.178       3.424
       2.559    5020.000       0.089
    7744.412
       9.286       0.079       0.005     102.211     101.460
     114.730     110.477     170.286       0.173       3.443
       2.577    5020.000       0.079
    7744.912
       9.286       0.083       0.010     105.996     105.762
     137.003     128.809     225.285       0.173       3.437
       2.571    5020.000       0.079
    7745.412
       9.286       0.089       0.001     115.233     113.518
     117.470     107.529     141.679       0.191       3.359
       2.549    5020.000       0.094
    7745.912
       9.307       0.094       0.000     119.415     118.815
      87.473      79.445      50.100       0.217       3.225
       2.554    5020.000       0.091
    7746.412
       9.357       0.091       0.000     119.412     119.821
      68.614      63.434      27.566       0.224       3.177
       2.554    5020.000       0.091
    7746.912
       9.367       0.090       0.002     119.958     119.837
      57.197      52.541      19.165       0.224       3.155
       2.554    5020.000       0.092
    7747.412
       9.367       0.082       0.000     116.682     115.589
      46.886      43.814      16.248       0.223       3.144
       2.562    5020.000       0.087
    7747.912
       9.367       0.081       0.002     111.899     113.385
      47.102      41.822      21.466       0.221       3.164
       2.571    5020.000       0.082
    7748.412
       9.381       0.089      -0.001     116.895     122.912
      54.872      47.764      38.078       0.213       3.183
       2.572    5020.000       0.080
    7748.912
       9.388       0.099      -0.004     128.890     131.521
      63.074      55.733      50.327       0.209       3.176
       2.552    5020.000       0.091
    7749.412
       9.388       0.110      -0.006     134.660     135.750
      70.492      62.907      55.821       0.223       3.156
       2.537    5020.000       0.099
    7749.912
       9.388       0.114      -0.008     137.162     137.886
      78.184      69.492      61.317       0.237       3.133
       2.513    5019.998       0.113
    7750.412
       9.377       0.117      -0.006     134.910     133.142
      85.349      76.217      64.959       0.233       3.075
       2.503    5019.874       0.121
    7750.912
       9.358       0.121      -0.006     127.078     126.113
      92.875      82.833      60.786       0.229       3.051
       2.503    5019.682       0.121
    7751.412
       9.322       0.120      -0.004     121.216     120.684
     102.786      89.971      48.674       0.237       2.990
       2.503    5019.490       0.121
    7751.912
       9.281       0.121      -0.002     117.912     116.045
     113.125      97.793      34.520       0.244       2.993
       2.504    5019.298       0.120
    7752.412
       9.252       0.122      -0.005     113.034     112.085
     136.674     110.788      86.183       0.235       3.117
       2.504    5018.838       0.120
    7752.912
       9.219       0.117      -0.009     110.856     108.374
     180.747     144.602     160.525       0.216       3.185
       2.504    4998.868       0.121
    7753.412
       9.188       0.111      -0.008     104.836     103.193
     218.280     181.283     204.327       0.195       3.205
       2.512    4998.657       0.117
    7753.912
       9.184       0.110      -0.006     102.170     100.806
     256.764     216.312     220.957       0.175       3.248
       2.524    4998.461       0.109
    7754.412
       9.184       0.112      -0.006      99.770      98.951
     303.623     252.460     263.965       0.167       3.313
       2.521    4998.105       0.111
    7754.912
       9.173       0.108      -0.006      97.163      97.680
     350.788     288.731     406.748       0.167       3.396
       2.524    4978.122       0.110
    7755.412
       9.148       0.103      -0.006     101.515     104.672
     334.959     297.691     514.019       0.164       3.460
       2.535    4977.874       0.102
    7755.912
       9.143       0.103      -0.002     108.088     110.863
     255.412     232.962     305.416       0.156       3.459
       2.534    4977.679       0.102
    7756.412
       9.143       0.104       0.000     112.296     113.961
     179.270     163.579     107.489       0.166       3.455
       2.532    4977.483       0.104
    7756.912
       9.143       0.103      -0.001     115.599     116.975
     124.547     112.858      84.813       0.182       3.382
       2.537    4977.287       0.101
    7757.412
       9.143       0.103      -0.004     116.914     115.041
      93.990      87.422      83.612       0.196       3.275
       2.535    4977.052       0.102
    7757.912
       9.143       0.104      -0.003     112.853     108.116
      86.904      82.055      70.270       0.198       3.146
       2.531    4976.856       0.104
    7758.412
       9.143       0.101      -0.005     105.482      98.924
      86.386      82.477      55.560       0.198       3.222
       2.533    4976.224       0.104
    7758.912
       9.155       0.094      -0.009      97.266      89.525
      95.855      91.232      89.727       0.195       3.360
       2.546    4934.643       0.098
    7759.412
       9.168       0.079      -0.013      87.026      81.041
     154.840     149.948     308.923       0.162       3.478
       2.564    4916.275       0.088
    7759.912
       9.139       0.062      -0.010      77.501      74.429
     259.767     253.643     408.073       0.124       3.576
       2.593    4916.074       0.072
    7760.412
       9.106       0.055      -0.008      74.652      78.056
     344.842     323.537     200.309       0.100       3.644
       2.625    4916.166       0.049
    7760.912
       9.111       0.060      -0.009      84.664      94.696
     280.099     254.436      65.139       0.105       3.550
       2.601    4935.727       0.062
    7761.412
       9.146       0.077      -0.011     101.161     114.589
     190.186     171.769      74.899       0.129       3.354
       2.588    4935.485       0.069
    7761.912
       9.202       0.093      -0.011     122.387     127.726
     116.654     105.836      83.110       0.173       3.121
       2.567    4935.476       0.081
    7762.412
       9.236       0.101      -0.011     129.247     131.152
      88.770      74.479      72.517       0.207       2.971
       2.545    4955.853       0.094
    7762.912
       9.270       0.105      -0.008     132.459     133.708
      82.874      70.254      62.404       0.217       2.887
       2.531    4955.546       0.104
    7763.412
       9.311       0.105      -0.006     132.896     130.407
      82.275      71.768      69.526       0.215       2.899
       2.528    4974.665       0.106
    7763.912
       9.352       0.103      -0.004     127.419     123.898
      85.095      77.262      72.940       0.205       2.945
       2.530    4974.469       0.106
    7764.412
       9.393       0.100      -0.005     122.616     124.002
      88.259      83.630      60.271       0.203       3.005
       2.536    4974.608       0.102
    7764.912
       9.436       0.100      -0.007     124.948     126.484
      90.768      85.731      48.119       0.206       3.065
       2.541    4994.078       0.099
    7765.412
       9.462       0.106      -0.007     127.306     126.790
      90.866      83.992      58.559       0.214       3.121
       2.528    4993.882       0.105
