~Version Information
 VERS.                 2.0: 
 WRAP.                  NO: 
 END.                PETRA:GeoPLUS Corporation
~Well Information Block
#MNEM.UNIT       Data Type    Information
#---------    -------------   ---------------------------------
 STRT.F           1828.6476:
 STOP.F           8230.1476:
 STEP.F              0.5000:
 NULL.              -999.25:
 COMP.                           : COMPANY
 FLD.       SPRABERRY            : FIELD
 LOC.                            : LOCATION
 DATE.      14-OCT-2016          : DATE
 WELL.                           : Well Name
 LABL.      42461324180000                   : Well Label
 APIN.      42461324180000       : API Number
 UWI.       42461324180000       : Unique Well Number
 NUMB.      3                    : Well Number
 OPER.      PIONEER NAT RES USA  : Operator Name
 LEAS.      UNIVERSITY `8`       : Lease Name
~Parameter Block
#MNEM.UNIT           VALUE            Description
#---------    --------------------   ---------------------------------
 EKB.F                  2684.0 : KB Elevation
~Curve Information Block
#MNEM.UNIT      API CODE      Curve Description
#---------    -------------   ---------------------------------
 DEPT.F                   00 000 00 00: Depth (MD)
 CALI.IN                  00 001 00 00: Density Caliper
 DPHI.FRAC                00 002 00 00: Density Porosity
 DRHO.G/CM3               00 003 00 00: Density Correction
 GR.GAPI                  00 004 00 00: GAMMA RAY
 LGRD.OHM.M               00 005 00 00: Long Guard Resistivity
 NPHI.FRAC                00 006 00 00: Neutron Porosity
~A        DEPT        CALI        DPHI        DRHO          GR        LGRD        NPHI
# ...
      5646.648       7.566      -3.043      -5.394     102.438    -748.465       0.236
      5647.148       7.568      -3.040      -5.389     102.459    -747.854       0.236
      5647.648       7.570      -3.036      -5.383     102.479    -747.243       0.236
      5648.148       7.571      -3.032      -5.378     102.500    -746.630       0.236
      5648.648       7.573      -3.029      -5.372     102.521    -746.016       0.236
      5649.148       7.575      -3.025      -5.366     102.541    -745.401       0.236
      5649.648       7.577      -3.022      -5.361     102.562    -744.784       0.236
      5650.148       7.579      -3.018      -5.355     102.583    -744.166       0.236
      5650.648       7.580      -3.015      -5.350     102.604    -743.548       0.236
      5651.148       7.582      -3.011      -5.344     102.624    -742.927       0.236
      5651.648       7.584      -3.008      -5.338     102.645    -742.306       0.236
      5652.148       7.586      -3.004      -5.333     102.666    -741.683       0.236
      5652.648       7.588      -3.001      -5.327     102.687    -741.059       0.236
      5653.148       7.589      -2.997      -5.322     102.708    -740.434       0.236
      5653.648       7.591      -2.993      -5.316     102.729    -739.808       0.236
      5654.148       7.593      -2.990      -5.310     102.750    -739.180       0.236
      5654.648       7.595      -2.986      -5.305     102.770    -738.551       0.236
      5655.148       7.597      -2.983      -5.299     102.791    -737.921       0.236
      5655.648       7.598      -2.979      -5.293     102.812    -737.290       0.236
      5656.148       7.600      -2.976      -5.288     102.833    -736.657       0.236
      5656.648       7.602      -2.972      -5.282     102.854    -736.023       0.236
      5657.148       7.604      -2.968      -5.276     102.875    -735.388       0.236
      5657.648       7.606      -2.965      -5.271     102.896    -734.752       0.236
      5658.148       7.607      -2.961      -5.265     102.917    -734.114       0.236
      5658.648       7.609      -2.958      -5.259     102.938    -733.476       0.236
      5659.148       7.611      -2.954      -5.254     102.959    -732.836       0.236
      5659.648       7.613      -2.951      -5.248     102.981    -732.194       0.236
      5660.148       7.615      -2.947      -5.242     103.002    -731.552       0.236
      5660.648       7.617      -2.943      -5.236     103.023    -730.908       0.236
      5661.148       7.618      -2.940      -5.231     103.044    -730.263       0.236
      5661.648       7.620      -2.936      -5.225     103.065    -729.617       0.236
      5662.148       7.622      -2.933      -5.219     103.086    -728.969       0.236
      5662.648       7.624      -2.929      -5.213     103.108    -728.320       0.236
      5663.148       7.626      -2.925      -5.208     103.129    -727.670       0.236
      5663.648       7.627      -2.922      -5.202     103.150    -727.019       0.236
      5664.148       7.629      -2.918      -5.196     103.171    -726.366       0.236
      5664.648       7.631      -2.914      -5.190     103.193    -725.713       0.236
      5665.148       7.633      -2.911      -5.185     103.214    -725.058       0.236
      5665.648       7.635      -2.907      -5.179     103.235    -724.401       0.236
      5666.148       7.637      -2.904      -5.173     103.257    -723.744       0.236
      5666.648       7.638      -2.900      -5.167     103.278    -723.085       0.236
      5667.148       7.640      -2.896      -5.162     103.299    -722.425       0.236
      5667.648       7.642      -2.893      -5.156     103.321    -721.764       0.236
      5668.148       7.644      -2.889      -5.150     103.342    -721.101       0.236
      5668.648       7.646      -2.885      -5.144     103.364    -720.437       0.236
      5669.148       7.647      -2.882      -5.138     103.385    -719.772       0.236
      5669.648       7.649      -2.878      -5.133     103.406    -719.106       0.236
      5670.148       7.651      -2.875      -5.127     103.428    -718.438       0.236
      5670.648       7.653      -2.871      -5.121     103.449    -717.770       0.236
      5671.148       7.655      -2.867      -5.115     103.471    -717.100       0.236
      5671.648       7.657      -2.864      -5.109     103.492    -716.428       0.236
      5672.148       7.658      -2.860      -5.103     103.514    -715.756       0.236
      5672.648       7.660      -2.856      -5.097     103.536    -715.082       0.236
      5673.148       7.662      -2.853      -5.092     103.557    -714.407       0.236
      5673.648       7.664      -2.849      -5.086     103.579    -713.730       0.236
      5674.148       7.666      -2.845      -5.080     103.601    -713.053       0.236
      5674.648       7.668      -2.842      -5.074     103.622    -712.374       0.236
      5675.148       7.669      -2.838      -5.068     103.644    -711.694       0.236
      5675.648       7.671      -2.834      -5.062     103.666    -711.012       0.236
      5676.148       7.673      -2.831      -5.056     103.687    -710.330       0.236
      5676.648       7.675      -2.827      -5.050     103.709    -709.646       0.236
      5677.148       7.677      -2.823      -5.045     103.731    -708.961       0.236
      5677.648       7.679      -2.820      -5.039     103.753    -708.274       0.236
      5678.148       7.680      -2.816      -5.033     103.774    -707.586       0.236
      5678.648       7.682      -2.812      -5.027     103.796    -706.898       0.236
      5679.148       7.684      -2.809      -5.021     103.818    -706.207       0.236
      5679.648       7.686      -2.805      -5.015     103.840    -705.516       0.236
      5680.148       7.688      -2.801      -5.009     103.862    -704.823       0.236
      5680.648       7.690      -2.798      -5.003     103.884    -704.129       0.236
      5681.148       7.691      -2.794      -4.997     103.905    -703.434       0.236
      5681.648       7.693      -2.790      -4.991     103.927    -702.737       0.236
      5682.148       7.695      -2.786      -4.985     103.949    -702.039       0.236
      5682.648       7.697      -2.783      -4.979     103.971    -701.340       0.236
      5683.148       7.699      -2.779      -4.973     103.993    -700.640       0.236
      5683.648       7.701      -2.775      -4.967     104.015    -699.938       0.236
      5684.148       7.703      -2.772      -4.961     104.037    -699.235       0.236
      5684.648       7.704      -2.768      -4.955     104.059    -698.531       0.236
      5685.148       7.706      -2.764      -4.949     104.081    -697.826       0.236
      5685.648       7.708      -2.760      -4.943     104.103    -697.119       0.236
      5686.148       7.710      -2.757      -4.937     104.126    -696.411       0.236
      5686.648       7.712      -2.753      -4.931     104.148    -695.702       0.236
      5687.148       7.714      -2.749      -4.925     104.170    -694.992       0.236
      5687.648       7.716      -2.746      -4.919     104.192    -694.280       0.236
      5688.148       7.717      -2.742      -4.913     104.214    -693.567       0.236
      5688.648       7.719      -2.738      -4.907     104.236    -692.852       0.236
      5689.148       7.721      -2.734      -4.901     104.258    -692.137       0.236
      5689.648       7.723      -2.731      -4.895     104.281    -691.420       0.236
      5690.148       7.725      -2.727      -4.889     104.303    -690.702       0.236
      5690.648       7.727      -2.723      -4.883     104.325    -689.982       0.236
      5691.148       7.728      -2.719      -4.877     104.347    -689.262       0.236
      5691.648       7.730      -2.716      -4.871     104.370    -688.540       0.236
      5692.148       7.732      -2.712      -4.865     104.392    -687.817       0.236
