~Version Information
 VERS.                 2.0: 
 WRAP.                 YES: 
 END.                PETRA:GeoPLUS Corporation
~Well Information Block
#MNEM.UNIT       Data Type    Information
#---------    -------------   ---------------------------------
 STRT.F             57.9120:
 STOP.F          11474.9360:
 STEP.F              0.5000:
 NULL.              -999.25:
 COMP.                           : COMPANY
 FLD.       BENEDUM              : FIELD
 LOC.                            : LOCATION
 DATE.      14-OCT-2016          : DATE
 WELL.                           : Well Name
 LABL.      42461342620000                   : Well Label
 APIN.      42461342620000       : API Number
 UWI.       42461342620000       : Unique Well Number
 NUMB.      1                    : Well Number
 OPER.      W T G EXPLORATION    : Operator Name
 LEAS.      UNIVERSITY `3-4`     : Lease Name
~Parameter Block
#MNEM.UNIT           VALUE            Description
#---------    --------------------   ---------------------------------
 EKB.F                  2682.0 : KB Elevation
~Curve Information Block
#MNEM.UNIT      API CODE      Curve Description
#---------    -------------   ---------------------------------
 DEPT.F                   00 000 00 00: Depth (MD)
 CALI.IN                  00 001 00 00: Density Caliper
 DPLS.FRAC                00 002 00 00: DENSITY POROSITY  LIMESTONE
 DRHO.G/CM3               00 003 00 00: Density Correction
 GRD.GAPI                 00 004 00 00: Guard
 GRR.GAPI                 00 005 00 00: Gamma Ray Resistivity Device
 LLD.OHM.M                00 006 00 00: Laterolog Deep
 LLS.OHM.M                00 007 00 00: Laterolog Shallow
 MSFL.OHM.M               00 008 00 00: MICRO SFL
 NPLS.FRAC                00 009 00 00: NEUTRON POROSITY  LIMESTONE
 PEF.B/E                  00 010 00 00: Photo-Electric Factor
 RHOB.G/CM3               00 011 00 00: Bulk Density
 TENS.LB                  00 012 00 00: Tension
 XDPHI.FRAC               00 013 00 00: 
~A
# ...
    7131.412
       9.505       1.836      -0.753     116.119    -396.741
      74.705     118.031      15.868       0.218     -20.395
       2.080    4760.822     -999.25
    7131.912
       9.510       1.834      -0.752     113.292    -396.390
      74.638     117.901      15.865       0.222     -20.370
       2.081    4780.649     -999.25
    7132.412
       9.510       1.832      -0.752     107.662    -396.039
      74.570     117.771      15.862       0.229     -20.344
       2.081    4780.566     -999.25
    7132.912
       9.510       1.830      -0.751     100.986    -395.687
      74.503     117.642      15.859       0.229     -20.319
       2.082    4800.488     -999.25
    7133.412
       9.416       1.828      -0.750      94.064    -395.334
      74.436     117.512      15.856       0.224     -20.294
       2.082    4800.768     -999.25
    7133.912
       9.395       1.826      -0.750      86.864    -394.980
      74.368     117.382      15.853       0.214     -20.269
       2.083    4819.950     -999.25
    7134.412
       9.408       1.824      -0.749      79.823    -394.626
      74.301     117.252      15.850       0.199     -20.243
       2.083    4820.000     -999.25
    7134.912
       9.408       1.822      -0.748      86.310    -394.270
      74.233     117.122      15.847       0.184     -20.218
       2.084    4820.000     -999.25
    7135.412
       9.419       1.820      -0.748      94.291    -393.914
      74.166     116.992      15.844       0.169     -20.193
       2.084    4820.000     -999.25
    7135.912
       9.441       1.818      -0.747     100.253    -393.557
      74.098     116.861      15.841       0.171     -20.168
       2.085    4820.000     -999.25
    7136.412
       9.462       1.816      -0.746     105.551    -393.200
      74.030     116.731      15.838       0.192     -20.142
       2.085    4819.800     -999.25
    7136.912
       9.495       1.814      -0.745     107.939    -392.841
      73.963     116.601      15.835       0.230     -20.117
       2.086    4800.020     -999.25
    7137.412
       9.514       1.812      -0.745     109.075    -392.482
      73.895     116.471      15.831       0.228     -20.092
       2.086    4800.000     -999.25
    7137.912
       9.497       1.810      -0.744     101.602    -392.121
      73.827     116.341      15.828       0.217     -20.066
       2.087    4800.000     -999.25
    7138.412
       9.492       1.808      -0.743      95.022    -391.760
      73.760     116.210      15.825       0.206     -20.041
       2.087    4800.000     -999.25
    7138.912
       9.477       1.806      -0.743      89.029    -391.399
      73.692     116.080      15.822       0.196     -20.015
       2.088    4800.000     -999.25
    7139.412
       9.454       1.804      -0.742      82.407    -391.036
      73.624     115.950      15.819       0.184     -19.990
       2.088    4800.000     -999.25
    7139.912
       9.449       1.802      -0.741      78.663    -390.673
      73.556     115.819      15.816       0.148     -19.965
       2.089    4799.961     -999.25
    7140.412
       9.449       1.800      -0.741      81.434    -390.308
      73.488     115.689      15.813       0.124     -19.939
       2.089    4800.648     -999.25
    7140.912
       9.438       1.798      -0.740      83.128    -389.943
      73.420     115.558      15.810       0.127     -19.914
       2.090    4821.197     -999.25
    7141.412
       9.413       1.796      -0.739      83.105    -389.578
      73.352     115.428      15.807       0.147     -19.888
       2.090    4840.858     -999.25
    7141.912
       9.408       1.794      -0.738      83.475    -389.211
      73.284     115.297      15.804       0.166     -19.863
       2.091    4840.783     -999.25
    7142.412
       9.408       1.792      -0.738      90.807    -388.844
      73.216     115.167      15.801       0.165     -19.837
       2.091    4859.953     -999.25
    7142.912
       9.408       1.790      -0.737      91.071    -388.475
      73.148     115.036      15.798       0.164     -19.812
       2.092    4860.107     -999.25
    7143.412
       9.420       1.788      -0.736      99.483    -388.106
      73.080     114.906      15.795       0.167     -19.786
       2.092    4859.332     -999.25
    7143.912
       9.428       1.786      -0.736     107.373    -387.736
      73.012     114.775      15.793       0.176     -19.760
       2.093    4838.788     -999.25
    7144.412
       9.441       1.784      -0.735     118.235    -387.366
      72.944     114.644      15.790       0.181     -19.735
       2.093    4818.788     -999.25
    7144.912
       9.447       1.782      -0.734     117.664    -386.994
      72.875     114.514      15.787       0.189     -19.709
       2.094    4798.996     -999.25
    7145.412
       9.474       1.780      -0.733     114.040    -386.622
      72.807     114.383      15.784       0.198     -19.684
       2.094    4801.212     -999.25
    7145.912
       9.502       1.778      -0.733     111.894    -386.249
      72.739     114.252      15.781       0.211     -19.658
       2.095    4821.212     -999.25
    7146.412
       9.537       1.776      -0.732     108.706    -385.875
      72.671     114.121      15.778       0.219     -19.632
       2.095    4841.212     -999.25
    7146.912
       9.564       1.774      -0.731     102.586    -385.500
      72.602     113.990      15.775       0.188     -19.607
       2.096    4861.212     -999.25
    7147.412
       9.584       1.772      -0.731     102.906    -385.125
      72.534     113.859      15.772       0.188     -19.581
       2.096    4881.293     -999.25
    7147.912
       9.591       1.770      -0.730     102.832    -384.748
      72.465     113.728      15.769       0.192     -19.555
       2.097    4899.937     -999.25
    7148.412
       9.604       1.768      -0.729     100.893    -384.371
      72.397     113.598      15.766       0.198     -19.530
       2.097    4900.000     -999.25
    7148.912
       9.625       1.766      -0.728     102.391    -383.993
      72.328     113.467      15.763       0.204     -19.504
       2.098    4900.000     -999.25
    7149.412
       9.632       1.764      -0.728     103.903    -383.615
      72.260     113.336      15.760       0.207     -19.478
       2.098    4899.806     -999.25
    7149.912
       9.645       1.762      -0.727     105.956    -383.235
      72.191     113.204      15.757       0.207     -19.452
       2.099    4877.696     -999.25
    7150.412
       9.666       1.760      -0.726     101.838    -382.855
      72.123     113.073      15.754       0.190     -19.427
       2.099    4818.568     -999.25
    7150.912
       9.686       1.758      -0.725      94.035    -382.473
      72.054     112.942      15.751       0.179     -19.401
       2.100    4798.346     -999.25
    7151.412
       9.709       1.756      -0.725      86.606    -382.091
      71.985     112.811      15.748       0.171     -19.375
       2.100    4778.798     -999.25
    7151.912
       9.714       1.754      -0.724      83.317    -381.709
      71.916     112.680      15.745       0.167     -19.349
       2.101    4779.176     -999.25
    7152.412
       9.714       1.752      -0.723      83.546    -381.325
      71.848     112.549      15.742       0.167     -19.323
       2.101    4779.182     -999.25
    7152.912
       9.714       1.750      -0.723      85.946    -380.940
      71.779     112.417      15.740       0.167     -19.297
       2.102    4799.385     -999.25
    7153.412
       9.725       1.748      -0.722      88.303    -380.555
      71.710     112.286      15.737       0.164     -19.271
       2.102    4799.108     -999.25
    7153.912
       9.747       1.746      -0.721      87.389    -380.169
      71.641     112.155      15.734       0.165     -19.246
       2.103    4819.001     -999.25
    7154.412
       9.768       1.744      -0.720      79.749    -379.782
      71.572     112.023      15.731       0.166     -19.220
       2.103    4818.997     -999.25
