~Version Information
 VERS.                 2.0: 
 WRAP.                 YES: 
 END.                PETRA:GeoPLUS Corporation
~Well Information Block
#MNEM.UNIT       Data Type    Information
#---------    -------------   ---------------------------------
 STRT.F             54.8640:
 STOP.F          11443.3640:
 STEP.F              0.5000:
 NULL.              -999.25:
 COMP.                           : COMPANY
 FLD.       BENEDUM              : FIELD
 LOC.                            : LOCATION
 DATE.      14-OCT-2016          : DATE
 WELL.                           : Well Name
 LABL.      42461338640000                   : Well Label
 APIN.      42461338640000       : API Number
 UWI.       42461338640000       : Unique Well Number
 NUMB.      1                    : Well Number
 OPER.      APACHE CORP          : Operator Name
 LEAS.      UNIVERSITY `4`       : Lease Name
~Parameter Block
#MNEM.UNIT           VALUE            Description
#---------    --------------------   ---------------------------------
 EKB.F                  2672.0 : KB Elevation
~Curve Information Block
#MNEM.UNIT      API CODE      Curve Description
#---------    -------------   ---------------------------------
 DEPT.F                   00 000 00 00: Depth (MD)
 DPLS.FRAC                00 001 00 00: DENSITY POROSITY  LIMESTONE
 DT.US/FT                 00 002 00 00: Delta-T Compressional
 GR.GAPI                  00 003 00 00: GAMMA RAY
 HCAL.IN                  00 004 00 00: HIGH RESOLUTION CALIPER
 HDRA.G/CM3               00 005 00 00: HIGH RESOLUTION DENSITY CORRECTION
 LLD.OHM.M                00 006 00 00: Laterolog Deep
 LLS.OHM.M                00 007 00 00: Laterolog Shallow
 PAY_TOC.                 00 008 00 00: TOC proxy
 PEFZ.B/E                 00 009 00 00: PHOTO ELECTRIC FACTOR - HIGH RESOLUTION
 RHOZ.G/CM3               00 010 00 00: BULK DENSITY - STD RESOLUTION
 RXOZ.OHM.M               00 011 00 00: RESISTIVITY OF FLUSHED ZONE - STD RESOLU
 TENS.LB                  00 012 00 00: Tension
 TNPH.V/V                 00 013 00 00: Thermal Neutron Porosity
 XDPHI.FRAC               00 014 00 00: 
~A
# ...
   10724.864
      -0.001      49.995      23.010       8.384       0.019
     193.168      97.848       0.000       4.845       2.706
      84.486    4019.999       0.005       0.002
   10725.364
      -0.001      50.107      22.149       8.406       0.012
     132.485     110.209       0.000       4.872       2.702
      79.694    4002.085       0.005       0.005
   10725.864
      -0.003      49.638      18.922       8.426       0.005
     129.368     108.914       0.000       4.933       2.690
      71.064    4000.000       0.003       0.012
   10726.364
      -0.011      49.158      15.847       8.447       0.001
     128.173     119.351       0.000       4.989       2.690
     135.044    4000.000       0.001       0.012
   10726.864
      -0.005      48.888      14.119       8.467       0.005
     427.638    1759.033       0.000       4.770       2.690
     630.293    4000.000       0.002       0.012
   10727.364
       0.001      48.924      14.791       8.487       0.013
    1058.164    3104.218       0.000       4.546       2.692
    1836.373    4000.000       0.004       0.010
   10727.864
       0.007      49.210      17.723       8.508       0.019
     937.228    2047.677       0.000       4.373       2.694
    1997.604    4000.000       0.006       0.009
   10728.364
       0.016      49.693      20.723       8.584       0.015
     697.368    1483.781       0.000       4.414       2.696
    1080.472    4000.000       0.003       0.008
   10728.864
       0.009      49.839      22.393       8.628       0.007
     231.220     450.288       0.000       4.674       2.700
     198.566    4000.000       0.001       0.006
   10729.364
       0.000      49.794      20.733       8.669      -0.006
     184.666     204.927       0.000       4.876       2.702
     165.960    3981.901       0.004       0.005
   10729.864
       0.001      49.558      19.147       8.709      -0.014
     292.674     229.626       0.000       5.076       2.704
     164.139    3980.000       0.007       0.003
   10730.364
       0.006      49.366      18.541       8.730      -0.008
     916.437    1174.912       0.000       5.164       2.706
     966.866    3980.000       0.006       0.002
   10730.864
       0.004      49.417      19.094       8.789      -0.003
     625.427     641.965       0.000       5.104       2.710
     657.779    3980.000       0.002       0.000
   10731.364
       0.000      49.423      19.497       8.831       0.000
     273.491     251.237       0.000       5.084       2.710
     269.328    3980.000      -0.002       0.000
   10731.864
      -0.001      49.361      18.761       8.893       0.005
     381.605     215.172       0.000       5.043       2.710
     274.846    3980.000       0.000       0.000
   10732.364
       0.000      49.360      18.273       8.915       0.010
    1010.992     391.946       0.000       5.022       2.710
    1402.651    3980.000       0.001       0.000
   10732.864
       0.000      49.360      18.747       8.956       0.014
     894.077     726.867       0.000       5.002       2.708
     566.039    3980.000       0.002       0.001
   10733.364
      -0.001      49.415      19.635       8.977       0.011
     321.168     342.896       0.000       4.981       2.708
     321.421    3980.000       0.003       0.001
   10733.864
      -0.002      49.475      20.314       8.998       0.007
     297.702     310.889       0.000       4.980       2.706
     286.379    3980.000       0.004       0.002
   10734.364
      -0.001      49.429      20.340       9.000       0.007
     250.255     319.764       0.000       4.980       2.706
     388.565    3980.000       0.004       0.002
   10734.864
       0.000      49.310      18.888       9.015       0.020
     242.603     320.074       0.000       5.015       2.704
     521.772    3980.000       0.002       0.004
   10735.364
       0.001      49.181      17.388       9.091       0.030
     255.949     324.747       0.000       5.055       2.704
     618.355    3997.979       0.004       0.004
   10735.864
       0.001      49.180      15.888       9.155       0.023
     421.562     372.661       0.000       5.095       2.704
     357.208    4000.000       0.005       0.004
   10736.364
       0.001      49.180      15.247       9.176       0.015
     495.079     470.015       0.000       5.119       2.706
     431.331    4000.000       0.006       0.002
   10736.864
       0.000      49.123      15.542       9.215       0.006
     459.429     491.105       0.000       5.122       2.708
     348.831    4000.000       0.003       0.001
   10737.364
       0.000      49.124      15.842       9.255       0.000
     879.042     785.816       0.000       5.102       2.710
     492.244    4000.000      -0.001       0.000
   10737.864
       0.000      49.065      16.142       9.277      -0.005
     945.397     857.559       0.000       5.082       2.712
     808.220    4000.000      -0.002      -0.001
   10738.364
      -0.001      49.005      16.879       9.314      -0.005
    1337.467    1883.382       0.000       5.041       2.714
     954.648    4000.000      -0.001      -0.002
   10738.864
      -0.001      49.052      18.254       9.374      -0.003
    2048.243    2178.825       0.000       5.040       2.716
    1589.872    4000.000       0.002      -0.004
   10739.364
       0.001      49.217      20.548       9.415      -0.001
    1347.177    2156.998       0.000       5.040       2.718
    1804.194    4000.000       0.003      -0.005
   10739.864
       0.002      49.622      22.294       9.455       0.001
     645.102     722.252       0.000       5.059       2.718
     541.497    4000.000       0.005      -0.005
   10740.364
       0.004      49.928      22.106       9.495       0.003
     412.722     387.611       0.000       5.060       2.716
     270.772    4000.000       0.006      -0.003
   10740.864
       0.005      49.947      18.137       9.535       0.003
     504.665     573.548       0.000       5.058       2.714
     361.337    4017.976       0.007      -0.002
   10741.364
       0.005      49.704      14.924       9.575       0.003
     911.308    1467.519       0.000       5.095       2.712
     705.390    4020.000       0.005      -0.001
   10741.864
       0.003      49.327      12.474       9.615       0.003
    1366.126    1401.260       0.000       5.135       2.710
    1064.893    4020.000       0.001       0.000
   10742.364
       0.001      49.134      13.540       9.655       0.002
    1183.379    1117.720       0.000       5.175       2.710
     862.501    4020.000       0.001       0.000
   10742.864
       0.000      49.005      14.929       9.695       0.003
     986.281     885.029       0.000       5.184       2.708
     836.167    4020.000       0.002       0.001
   10743.364
       0.001      49.002      15.000       9.735       0.008
     844.526     731.782       0.000       5.145       2.706
     554.379    4020.000       0.004       0.002
   10743.864
       0.003      48.950      15.000       9.793       0.006
     827.686     718.865       0.000       5.105       2.704
     536.250    4020.000       0.006       0.004
   10744.364
       0.004      48.833      14.745       9.834       0.004
     854.527     899.743       0.000       5.119       2.702
     719.041    4020.000       0.005       0.005
   10744.864
       0.005      48.715      15.251       9.893       0.003
    1007.524    1145.330       0.000       5.101       2.700
     770.048    4020.000       0.004       0.006
   10745.364
       0.006      48.598      14.256       9.939       0.003
    1187.511    1214.440       0.000       5.100       2.700
     969.243    4020.000       0.003       0.006
   10745.864
       0.004      48.533      14.187       9.940       0.003
    1161.055    1109.705       0.000       5.077       2.700
     692.337    4020.000       0.001       0.006
   10746.364
       0.002      48.523      13.340       9.940       0.003
    1066.372    1003.351       0.000       5.115       2.700
     707.064    4037.903       0.002       0.006
