~Version Information
 VERS.                 2.0: 
 WRAP.                  NO: 
 END.                PETRA:GeoPLUS Corporation
~Well Information Block
#MNEM.UNIT       Data Type    Information
#---------    -------------   ---------------------------------
 STRT.F              0.0000:
 STOP.F          10696.1560:
 STEP.F              0.5000:
 NULL.              -999.25:
 COMP.                           : COMPANY
 FLD.       FLAT ROCK            : FIELD
 LOC.                            : LOCATION
 DATE.      14-OCT-2016          : DATE
 WELL.                           : Well Name
 LABL.      42461037730000                   : Well Label
 APIN.      42461037730000       : API Number
 UWI.       42461037730000       : Unique Well Number
 NUMB.      3                    : Well Number
 OPER.      OXY U S A INC        : Operator Name
 LEAS.      UNIVERSITY-AQ        : Lease Name
~Parameter Block
#MNEM.UNIT           VALUE            Description
#---------    --------------------   ---------------------------------
~Curve Information Block
#MNEM.UNIT      API CODE      Curve Description
#---------    -------------   ---------------------------------
 DEPT.F                   00 000 00 00: Depth (MD)
 ASN.OHM.M                00 001 00 00: AMPLIFIED SHORT NORMAL
 GR.GAPI                  00 002 00 00: GAMMA RAY
 LAT19.OHM.M              00 003 00 00: 
 LAT32.OHM.M              00 004 00 00: 
 SN.OHM.M                 00 005 00 00: 16-in Short Normal
 SP.MV                    00 006 00 00: Spontaneous Potential
 XGR.API                  00 007 00 00: gamma ray
~A        DEPT         ASN          GR       LAT19       LAT32          SN          SP         XGR
# ...
      5751.000      40.244       8.642      33.898      55.500     -999.25    -104.094      91.845
      5751.500      41.100       8.787      35.220      56.631     -999.25    -103.198      93.385
      5752.000      42.043       8.969      36.126      57.561     -999.25    -102.586      95.326
      5752.500      43.305       9.329      37.035      57.588     -999.25    -102.104      99.153
      5753.000      44.488       9.498      38.047      59.299     -999.25    -101.997     100.943
      5753.500      45.043       9.680      37.631      60.578     -999.25    -102.485     102.874
      5754.000      44.870       9.884      37.210      61.752     -999.25    -102.825     105.049
      5754.500      44.630      10.089      36.789      61.178     -999.25    -102.883     107.226
      5755.000      44.436      10.281      36.707      60.482     -999.25    -103.212     109.271
      5755.500      44.084      10.358      37.251      59.573     -999.25    -103.352     110.083
      5756.000      43.502      10.189      37.734      58.420     -999.25    -103.526     108.291
      5756.500      42.819      10.032      38.277      57.091     -999.25    -103.804     106.622
      5757.000      42.006       9.864      38.757      55.743     -999.25    -103.855     104.830
      5757.500      40.744       9.698      39.297      53.034     -999.25    -103.855     103.074
      5758.000      39.464      10.090      39.068      50.186     -999.25    -103.855     107.234
      5758.500      38.588      10.331      38.196      47.333     -999.25    -103.692     109.795
      5759.000      37.499      10.558      36.993      44.744     -999.25    -103.615     112.209
      5759.500      36.213      10.550      35.788      42.978     -999.25    -103.615     112.123
      5760.000      34.931      10.357      34.573      41.230     -999.25    -103.615     110.074
      5760.500      33.855      10.164      33.339      41.105     -999.25    -103.346     108.026
      5761.000      33.326       9.971      32.112      40.934     -999.25    -102.827     105.977
      5761.500      33.959       9.779      32.246      40.944     -999.25    -102.199     103.928
      5762.000      35.356       9.586      33.160      41.139     -999.25    -102.475     101.884
      5762.500      36.579       9.469      35.357      42.048     -999.25    -102.956     100.639
      5763.000      37.372       9.508      38.065      43.310     -999.25    -103.324     101.047
      5763.500      38.154       9.594      40.261      45.293     -999.25    -103.402     101.962
      5764.000      38.861       9.750      41.932      47.558     -999.25    -103.220     103.627
      5764.500      39.320       9.921      43.838      49.249     -999.25    -103.096     105.441
      5765.000      39.792      10.285      45.756      50.774     -999.25    -103.457     109.306
      5765.500      40.235      10.610      45.814      52.398     -999.25    -103.652     112.761
      5766.000      40.705      10.923      47.061      52.405     -999.25    -103.452     116.089
      5766.500      41.145      11.120      48.906      52.405     -999.25    -103.346     118.180
      5767.000      41.569      11.058      51.332      52.402     -999.25    -103.524     117.529
      5767.500      41.359      10.988      53.604      51.997     -999.25    -103.582     116.777
      5768.000      40.739      11.097      53.615      51.240     -999.25    -104.071     117.939
      5768.500      40.199      11.056      53.615      50.670     -999.25    -104.613     117.499
      5769.000      39.948      10.699      53.615      50.101     -999.25    -105.278     113.712
      5769.500      40.160      10.218      53.615      50.626     -999.25    -106.001     108.595
      5770.000      40.725       9.736      53.615      53.088     -999.25    -106.362     103.475
      5770.500      42.371       9.225      53.632      55.556     -999.25    -106.112      98.039
      5771.000      44.238       9.019      56.201      58.024     -999.25    -105.871      95.858
      5771.500      47.703       8.814      60.414      60.454     -999.25    -105.647      93.679
      5772.000      49.863       8.585      64.004      62.695     -999.25    -105.247      91.241
      5772.500      51.815       8.330      67.018      65.642     -999.25    -104.737      88.536
      5773.000      51.964       7.993      70.636      67.264     -999.25    -104.416      84.950
      5773.500      50.509       7.830      73.640      67.220     -999.25    -104.150      83.219
      5774.000      49.468       7.573      77.229      66.705     -999.25    -104.096      80.490
      5774.500      48.027       7.987      77.045      66.354     -999.25    -104.096      84.881
      5775.000      46.420       8.469      75.242      65.281     -999.25    -104.096      90.010
      5775.500      44.796       8.905      74.729      63.710     -999.25    -104.096      94.638
      5776.000      43.723       9.984      76.641      61.806     -999.25    -104.096     106.113
      5776.500      43.551      10.748      79.627      59.709     -999.25    -104.262     114.232
      5777.000      43.572      11.364      82.038      57.056     -999.25    -104.337     120.772
      5777.500      43.684      11.979      84.448      54.968     -999.25    -104.337     127.318
      5778.000      43.425      12.780      86.861      52.915     -999.25    -104.485     135.831
      5778.500      42.313      12.857      89.862      53.570     -999.25    -104.572     136.645
      5779.000      41.155      12.929      89.654      54.336     -999.25    -104.739     137.413
      5779.500      39.996      13.002      85.893      54.032     -999.25    -104.794     138.181
      5780.000      38.838      13.048      80.474      50.365     -999.25    -104.972     138.671
      5780.500      37.679      12.909      75.053      48.092     -999.25    -105.213     137.201
      5781.000      36.521      12.606      69.631      44.498     -999.25    -105.490     133.981
      5781.500      35.539      12.257      64.209      42.315     -999.25    -105.542     130.270
      5782.000      35.010      11.920      58.760      42.384     -999.25    -105.542     126.684
      5782.500      34.631      11.570      51.507      43.095     -999.25    -105.542     122.969
      5783.000      35.976      11.246      47.040      43.996     -999.25    -105.410     119.519
      5783.500      37.799      11.117      47.275      45.861     -999.25    -105.148     118.147
      5784.000      40.174      11.367      48.386      48.142     -999.25    -104.756     120.811
      5784.500      42.058      11.620      49.555      50.251     -999.25    -104.433     123.501
      5785.000      43.590      11.886      50.024      53.499     -999.25    -104.007     126.321
      5785.500      45.107      12.137      51.319      56.535     -999.25    -103.702     128.996
      5786.000      46.504      12.279      53.725      59.762     -999.25    -103.461     130.496
      5786.500      47.547      12.250      56.135      62.719     -999.25    -103.220     130.189
      5787.000      48.559      12.105      58.547      65.509     -999.25    -103.075     128.653
      5787.500      49.571      11.960      62.160      69.340     -999.25    -103.286     127.113
      5788.000      50.033      11.779      64.568      69.496     -999.25    -103.527     125.189
      5788.500      49.909      11.648      66.989      69.390     -999.25    -103.932     123.792
      5789.000      49.717      11.671      69.977      67.499     -999.25    -104.083     124.042
      5789.500      48.438      12.021      69.922      65.603     -999.25    -104.249     127.761
      5790.000      47.010      12.347      71.724      63.696     -999.25    -104.527     131.224
      5790.500      45.581      12.251      69.650      60.004     -999.25    -104.578     130.201
      5791.000      43.353      12.154      64.236      56.227     -999.25    -104.578     129.175
