~Version Information
 VERS.                 2.0: 
 WRAP.                 YES: 
 END.                PETRA:GeoPLUS Corporation
~Well Information Block
#MNEM.UNIT       Data Type    Information
#---------    -------------   ---------------------------------
 STRT.F             57.9120:
 STOP.F          11474.9360:
 STEP.F              0.5000:
 NULL.              -999.25:
 COMP.                           : COMPANY
 FLD.       BENEDUM              : FIELD
 LOC.                            : LOCATION
 DATE.      14-OCT-2016          : DATE
 WELL.                           : Well Name
 LABL.      42461342620000                   : Well Label
 APIN.      42461342620000       : API Number
 UWI.       42461342620000       : Unique Well Number
 NUMB.      1                    : Well Number
 OPER.      W T G EXPLORATION    : Operator Name
 LEAS.      UNIVERSITY `3-4`     : Lease Name
~Parameter Block
#MNEM.UNIT           VALUE            Description
#---------    --------------------   ---------------------------------
 EKB.F                  2682.0 : KB Elevation
~Curve Information Block
#MNEM.UNIT      API CODE      Curve Description
#---------    -------------   ---------------------------------
 DEPT.F                   00 000 00 00: Depth (MD)
 CALI.IN                  00 001 00 00: Density Caliper
 DPLS.FRAC                00 002 00 00: DENSITY POROSITY  LIMESTONE
 DRHO.G/CM3               00 003 00 00: Density Correction
 GRD.GAPI                 00 004 00 00: Guard
 GRR.GAPI                 00 005 00 00: Gamma Ray Resistivity Device
 LLD.OHM.M                00 006 00 00: Laterolog Deep
 LLS.OHM.M                00 007 00 00: Laterolog Shallow
 MSFL.OHM.M               00 008 00 00: MICRO SFL
 NPLS.FRAC                00 009 00 00: NEUTRON POROSITY  LIMESTONE
 PEF.B/E                  00 010 00 00: Photo-Electric Factor
 RHOB.G/CM3               00 011 00 00: Bulk Density
 TENS.LB                  00 012 00 00: Tension
 XDPHI.FRAC               00 013 00 00: 
~A
# ...
    4710.912
       8.380       2.343       0.905      58.658    1950.036
     152.013     349.521      54.433       0.346     -16.101
       2.847    3857.781     -999.25
    4711.412
       8.380       2.344       0.905      56.196    1949.820
     152.012     349.554      54.424       0.327     -16.114
       2.847    3857.810     -999.25
    4711.912
       8.380       2.345       0.904      53.408    1949.604
     152.011     349.588      54.414       0.308     -16.126
       2.847    3857.838     -999.25
    4712.412
       8.381       2.346       0.904      49.458    1949.388
     152.010     349.621      54.405       0.298     -16.139
       2.847    3857.866     -999.25
    4712.912
       8.381       2.347       0.904      48.348    1949.171
     152.009     349.655      54.395       0.268     -16.152
       2.846    3857.894     -999.25
    4713.412
       8.381       2.348       0.903      48.059    1948.954
     152.008     349.688      54.386       0.266     -16.165
       2.846    3857.922     -999.25
    4713.912
       8.381       2.349       0.903      48.045    1948.735
     152.007     349.722      54.376       0.265     -16.177
       2.846    3857.950     -999.25
    4714.412
       8.382       2.350       0.902      47.740    1948.517
     152.006     349.755      54.367       0.263     -16.190
       2.845    3857.979     -999.25
    4714.912
       8.382       2.351       0.902      47.452    1948.298
     152.005     349.789      54.357       0.264     -16.203
       2.845    3858.007     -999.25
    4715.412
       8.382       2.352       0.902      49.789    1948.078
     152.004     349.822      54.348       0.283     -16.216
       2.845    3858.035     -999.25
    4715.912
       8.383       2.353       0.901      54.028    1947.857
     152.003     349.855      54.338       0.302     -16.228
       2.844    3858.063     -999.25
    4716.412
       8.383       2.354       0.901      56.789    1947.636
     152.002     349.889      54.329       0.322     -16.241
       2.844    3858.091     -999.25
    4716.912
       8.383       2.355       0.900      59.850    1947.415
     152.001     349.922      54.319       0.362     -16.254
       2.844    3858.119     -999.25
    4717.412
       8.383       2.356       0.900      62.885    1947.193
     152.000     349.955      54.310       0.401     -16.267
       2.844    3858.457     -999.25
    4717.912
       8.384       2.357       0.900      62.630    1946.970
     151.999     349.989      54.300       0.398     -16.279
       2.843    3878.424     -999.25
    4718.412
       8.384       2.358       0.899      57.414    1946.747
     151.998     350.022      54.291       0.381     -16.292
       2.843    3878.460     -999.25
    4718.912
       8.384       2.359       0.899      55.552    1946.523
     151.997     350.055      54.282       0.354     -16.305
       2.843    3878.484     -999.25
    4719.412
       8.385       2.360       0.898      52.190    1946.299
     151.996     350.088      54.272       0.321     -16.318
       2.842    3878.508     -999.25
    4719.912
       8.385       2.361       0.898      49.471    1946.074
     151.995     350.121      54.263       0.307     -16.331
       2.842    3878.532     -999.25
    4720.412
       8.385       2.362       0.898      48.050    1945.849
     151.995     350.154      54.253       0.282     -16.343
       2.842    3878.568     -999.25
    4720.912
       8.386       2.363       0.897      48.359    1945.623
     151.994     350.187      54.243       0.270     -16.356
       2.842    3878.592     -999.25
    4721.412
       8.386       2.364       0.897      48.029    1945.396
     151.993     350.220      54.234       0.267     -16.369
       2.841    3878.616     -999.25
    4721.912
       8.386       2.365       0.896      47.418    1945.169
     151.992     350.253      54.224       0.273     -16.382
       2.841    3878.640     -999.25
    4722.412
       8.386       2.366       0.896      46.807    1944.941
     151.991     350.286      54.215       0.279     -16.394
       2.841    3878.664     -999.25
    4722.912
       8.387       2.367       0.896      46.852    1944.713
     151.990     350.319      54.205       0.284     -16.407
       2.840    3878.688     -999.25
    4723.412
       8.387       2.368       0.895      48.224    1944.484
     151.989     350.352      54.196       0.284     -16.420
       2.840    3878.711     -999.25
    4723.912
       8.387       2.369       0.895      51.931    1944.255
     151.988     350.384      54.186       0.285     -16.433
       2.840    3878.523     -999.25
    4724.412
       8.388       2.370       0.894      55.889    1944.025
     151.988     350.417      54.177       0.296     -16.445
       2.840    3858.567     -999.25
    4724.912
       8.388       2.371       0.894      57.603    1943.795
     151.987     350.450      54.167       0.301     -16.458
       2.839    3858.580     -999.25
    4725.412
       8.388       2.372       0.894      58.169    1943.563
     151.986     350.483      54.158       0.326     -16.471
       2.839    3858.608     -999.25
    4725.912
       8.388       2.373       0.893      57.582    1943.332
     151.985     350.515      54.148       0.326     -16.484
       2.839    3858.538     -999.25
    4726.412
       8.389       2.374       0.893      58.529    1943.100
     151.984     350.548      54.139       0.336     -16.497
       2.838    3838.534     -999.25
    4726.912
       8.389       2.374       0.892      59.762    1942.867
     151.984     350.581      54.129       0.352     -16.509
       2.838    3838.505     -999.25
    4727.412
       8.389       2.375       0.892      61.292    1942.634
     151.983     350.613      54.120       0.368     -16.522
       2.838    3838.537     -999.25
    4727.912
       8.389       2.376       0.892      61.836    1942.400
     151.982     350.646      54.110       0.367     -16.535
       2.837    3838.569     -999.25
    4728.412
       8.390       2.377       0.891      60.454    1942.165
     151.981     350.678      54.101       0.354     -16.548
       2.837    3838.433     -999.25
    4728.912
       8.390       2.378       0.891      57.063    1941.930
     151.980     350.711      54.091       0.340     -16.560
       2.837    3818.492     -999.25
    4729.412
       8.390       2.379       0.890      53.390    1941.695
     151.980     350.743      54.082       0.325     -16.573
       2.837    3859.234     -999.25
    4729.912
       8.391       2.380       0.890      50.760    1941.459
     151.979     350.776      54.072       0.319     -16.586
       2.836    3859.478     -999.25
    4730.412
       8.391       2.381       0.890      50.164    1941.222
     151.978     350.808      54.063       0.321     -16.599
       2.836    3880.281     -999.25
    4730.912
       8.391       2.382       0.889      49.264    1940.985
     151.977     350.840      54.053       0.321     -16.612
       2.836    3919.624     -999.25
    4731.412
       8.391       2.383       0.889      49.283    1940.747
     151.977     350.873      54.044       0.317     -16.624
       2.835    3858.956     -999.25
    4731.912
       8.392       2.384       0.888      48.932    1940.509
     151.976     350.905      54.034       0.309     -16.637
       2.835    3858.983     -999.25
    4732.412
       8.392       2.385       0.888      47.364    1940.270
     151.975     350.937      54.025       0.306     -16.650
       2.835    3859.011     -999.25
    4732.912
       8.392       2.386       0.888      45.540    1940.031
     151.975     350.969      54.015       0.309     -16.663
       2.835    3859.177     -999.25
    4733.412
       8.393       2.387       0.887      44.947    1939.791
     151.974     351.001      54.006       0.312     -16.676
       2.834    3879.163     -999.25
    4733.912
       8.393       2.388       0.887      43.481    1939.550
     151.973     351.034      53.996       0.314     -16.688
       2.834    3879.224     -999.25
