~Version Information
 VERS.                 2.0: 
 WRAP.                 YES: 
 END.                PETRA:GeoPLUS Corporation
~Well Information Block
#MNEM.UNIT       Data Type    Information
#---------    -------------   ---------------------------------
 STRT.F           1066.8000:
 STOP.F           7799.8000:
 STEP.F              0.5000:
 NULL.              -999.25:
 COMP.                           : COMPANY
 FLD.       FLAT ROCK            : FIELD
 LOC.                            : LOCATION
 DATE.      14-OCT-2016          : DATE
 WELL.                           : Well Name
 LABL.      42461318260000                   : Well Label
 APIN.      42461318260000       : API Number
 UWI.       42461318260000       : Unique Well Number
 NUMB.      1                    : Well Number
 OPER.      KIMBARK OIL & GAS CO : Operator Name
 LEAS.      UNIVERSITY `31-3`    : Lease Name
~Parameter Block
#MNEM.UNIT           VALUE            Description
#---------    --------------------   ---------------------------------
 EKB.F                  2786.0 : KB Elevation
~Curve Information Block
#MNEM.UNIT      API CODE      Curve Description
#---------    -------------   ---------------------------------
 DEPT.F                   00 000 00 00: Depth (MD)
 CALI.IN                  00 001 00 00: Density Caliper
 DPHI.FRAC                00 002 00 00: Density Porosity
 DRHO.G/CM3               00 003 00 00: Density Correction
 GR.GAPI                  00 004 00 00: GAMMA RAY
 ILD.OHM.M                00 005 00 00: Induction Deep Resistivity
 NPHI.FRAC                00 006 00 00: Neutron Porosity
 PAY_TOC.                 00 007 00 00: TOC proxy
 SP.MV                    00 008 00 00: Spontaneous Potential
~A
# ...
    5957.800
       8.073       0.089       0.036      48.321      36.102
       0.177       0.000     -87.258
    5958.300
       8.073       0.134       0.037      62.957      36.642
       0.210       0.000     -87.280
    5958.800
       8.073       0.154       0.037      72.715      36.832
       0.244       0.000     -87.252
    5959.300
       8.073       0.163       0.035      76.423      36.360
       0.252       0.000     -86.948
    5959.800
       8.080       0.155       0.030      77.619      35.501
       0.259       0.000     -86.956
    5960.300
       8.092       0.144       0.024      77.020      34.382
       0.262       0.000     -86.977
    5960.800
       8.101       0.141       0.028      74.712      33.848
       0.266       0.000     -86.999
    5961.300
       8.111       0.160       0.034      73.031      33.146
       0.271       0.000     -87.018
    5961.800
       8.111       0.174       0.039      71.732      32.555
       0.273       0.000     -87.039
    5962.300
       8.111       0.177       0.038      71.165      31.976
       0.268       0.000     -87.062
    5962.800
       8.130       0.179       0.032      71.246      31.502
       0.264       0.000     -87.080
    5963.300
       8.148       0.181       0.027      72.943      31.327
       0.264       0.000     -87.102
    5963.800
       8.149       0.184       0.028      74.248      31.073
       0.267       0.000     -87.121
    5964.300
       8.149       0.184       0.034      75.521      30.790
       0.269       0.000     -87.141
    5964.800
       8.171       0.185       0.039      76.201      30.765
       0.270       0.000     -87.162
    5965.300
       8.187       0.184       0.042      76.517      30.497
       0.268       0.000     -86.844
    5965.800
       8.187       0.181       0.042      76.528      30.218
       0.268       0.000     -86.586
    5966.300
       8.206       0.167       0.040      76.531      29.872
       0.275       0.000     -86.490
    5966.800
       8.224       0.160       0.037      76.259      29.202
       0.277       0.000     -86.142
    5967.300
       8.251       0.155       0.026      76.252      28.543
       0.271       0.000     -85.777
    5967.800
       8.262       0.155       0.031      76.255      27.677
       0.266       0.000     -85.058
    5968.300
       8.299       0.158       0.048      76.257      26.879
       0.263       0.000     -84.872
    5968.800
       8.325       0.155       0.059      76.262      26.622
       0.273       0.000     -84.297
    5969.300
       8.338       0.151       0.071      78.149      26.284
       0.277       0.000     -84.084
    5969.800
       8.347       0.148       0.080      81.657      26.157
       0.279       0.000     -83.922
    5970.300
       8.357       0.169       0.090      83.441      26.138
       0.283       0.000     -84.163
    5970.800
       8.357       0.189       0.102      83.601      26.200
       0.288       0.000     -84.313
    5971.300
       8.357       0.158       0.115      84.385      26.537
       0.292       0.000     -84.712
    5971.800
       8.358       0.145       0.116      85.118      26.778
       0.281       0.000     -84.869
    5972.300
       8.358       0.142       0.106      85.777      27.447
       0.252       0.000     -85.139
    5972.800
       8.358       0.139       0.096      70.919      28.888
       0.222       0.000     -85.334
    5973.300
       8.339       0.136       0.080      50.625      31.145
       0.192       0.000     -85.962
    5973.800
       8.339       0.132       0.051      48.497      35.081
       0.196       0.000     -85.997
    5974.300
       8.339       0.126       0.010      60.151      36.394
       0.213       0.000     -86.017
    5974.800
       8.339       0.115       0.012      69.353      36.393
       0.221       0.000     -86.038
    5975.300
       8.339       0.107       0.026      72.689      35.404
       0.217       0.000     -86.058
    5975.800
       8.339       0.101       0.034      66.815      33.489
       0.196       0.000     -86.082
    5976.300
       8.340       0.107       0.043      62.279      31.511
       0.207       0.000     -86.069
    5976.800
       8.340       0.116       0.052      70.460      29.082
       0.226       0.000     -85.421
    5977.300
       8.340       0.120       0.060      77.948      26.799
       0.245       0.000     -85.253
    5977.800
       8.340       0.128       0.069      86.811      24.697
       0.263       0.000     -84.685
    5978.300
       8.340       0.148       0.078      95.639      21.609
       0.282       0.000     -84.270
    5978.800
       8.340       0.157       0.092      97.834      20.592
       0.289       0.000     -83.923
    5979.300
       8.336       0.161       0.110      97.769      19.545
       0.279       0.000     -83.354
    5979.800
       8.322       0.146       0.146      99.135      19.047
       0.266       0.000     -82.777
    5980.300
       8.321       0.137       0.178     103.600      18.916
       0.255       0.000     -82.101
    5980.800
       8.322       0.124       0.208     105.732      18.972
       0.252       0.000     -81.725
    5981.300
       8.328       0.111       0.219     105.416      19.198
       0.286       0.000     -81.361
    5981.800
       8.341       0.111       0.228     101.800      19.706
       0.301       0.000     -81.186
    5982.300
       8.341       0.119       0.233      94.317      20.272
       0.302       0.000     -80.997
    5982.800
       8.341       0.127       0.238      85.284      21.076
       0.288       0.000     -80.962
    5983.300
       8.341       0.144       0.121      79.402      21.511
       0.266       0.000     -81.390
    5983.800
       8.341       0.161       0.070      78.293      22.023
       0.246       0.000     -81.756
    5984.300
       8.336       0.180       0.052      79.637      22.313
       0.237       0.000     -82.241
    5984.800
       8.323       0.179       0.031      83.005      22.453
       0.234       0.000     -82.575
    5985.300
       8.320       0.167       0.023      86.218      22.199
       0.243       0.000     -82.973
    5985.800
       8.304       0.159       0.024      90.019      21.724
       0.258       0.000     -83.079
    5986.300
       8.304       0.150       0.028      93.711      20.727
       0.267       0.000     -82.719
    5986.800
       8.304       0.144       0.034      96.289      19.532
       0.268       0.000     -82.356
    5987.300
       8.292       0.146       0.038      96.739      18.281
       0.266       0.000     -81.609
    5987.800
       8.285       0.154       0.039      96.113      17.528
       0.274       0.000     -81.190
    5988.300
       8.285       0.160       0.038      97.551      16.847
       0.294       0.000     -80.543
    5988.800
       8.304       0.154       0.028      99.819      16.362
       0.299       0.000     -79.796
    5989.300
       8.304       0.144       0.018     102.655      16.173
       0.305       0.000     -79.052
    5989.800
       8.304       0.139       0.006     104.162      16.229
       0.290       0.000     -78.888
    5990.300
       8.305       0.145       0.015     104.679      16.299
       0.264       0.000     -78.279
    5990.800
       8.305       0.145       0.035     103.712      16.490
       0.252       0.000     -78.218
    5991.300
       8.305       0.139       0.070     101.437      16.826
       0.244       0.000     -78.616
    5991.800
       8.305       0.134       0.018      97.424      17.267
       0.247       0.000     -78.826
    5992.300
       8.305       0.135       0.076      93.247      17.501
       0.267       0.000     -79.429
    5992.800
       8.305       0.131       0.122      98.007      17.885
       0.281       0.000     -80.047
    5993.300
       8.305       0.114       0.158     102.302      18.097
       0.258       0.000     -80.664
    5993.800
       8.305       0.097       0.168     104.057      18.309
       0.237       0.000     -81.370
