~Version Information
 VERS.                 2.0: 
 WRAP.                 YES: 
 END.                PETRA:GeoPLUS Corporation
~Well Information Block
#MNEM.UNIT       Data Type    Information
#---------    -------------   ---------------------------------
 STRT.F           1066.8000:
 STOP.F           7799.8000:
 STEP.F              0.5000:
 NULL.              -999.25:
 COMP.                           : COMPANY
 FLD.       FLAT ROCK            : FIELD
 LOC.                            : LOCATION
 DATE.      14-OCT-2016          : DATE
 WELL.                           : Well Name
 LABL.      42461318260000                   : Well Label
 APIN.      42461318260000       : API Number
 UWI.       42461318260000       : Unique Well Number
 NUMB.      1                    : Well Number
 OPER.      KIMBARK OIL & GAS CO : Operator Name
 LEAS.      UNIVERSITY `31-3`    : Lease Name
~Parameter Block
#MNEM.UNIT           VALUE            Description
#---------    --------------------   ---------------------------------
 EKB.F                  2786.0 : KB Elevation
~Curve Information Block
#MNEM.UNIT      API CODE      Curve Description
#---------    -------------   ---------------------------------
 DEPT.F                   00 000 00 00: Depth (MD)
 CALI.IN                  00 001 00 00: Density Caliper
 DPHI.FRAC                00 002 00 00: Density Porosity
 DRHO.G/CM3               00 003 00 00: Density Correction
 GR.GAPI                  00 004 00 00: GAMMA RAY
 ILD.OHM.M                00 005 00 00: Induction Deep Resistivity
 NPHI.FRAC                00 006 00 00: Neutron Porosity
 PAY_TOC.                 00 007 00 00: TOC proxy
 SP.MV                    00 008 00 00: Spontaneous Potential
~A
# ...
    3293.300
       7.833       0.076      -2.063    -243.571      57.942
      -0.524     -999.25     -99.035
    3293.800
       7.818       0.076      -2.061    -243.375      57.926
      -0.523     -999.25     -98.994
    3294.300
       7.803       0.076      -2.058    -243.177      57.910
      -0.522     -999.25     -98.953
    3294.800
       7.789       0.075      -2.056    -242.977      57.894
      -0.521     -999.25     -98.912
    3295.300
       7.774       0.075      -2.054    -242.775      57.878
      -0.520     -999.25     -98.871
    3295.800
       7.760       0.075      -2.052    -242.571      57.861
      -0.519     -999.25     -98.830
    3296.300
       7.746       0.075      -2.049    -242.365      57.845
      -0.518     -999.25     -98.789
    3296.800
       7.731       0.074      -2.047    -242.157      57.829
      -0.516     -999.25     -98.747
    3297.300
       7.717       0.074      -2.045    -241.947      57.813
      -0.515     -999.25     -98.706
    3297.800
       7.703       0.074      -2.042    -241.735      57.797
      -0.514     -999.25     -98.664
    3298.300
       7.689       0.074      -2.040    -241.521      57.781
      -0.513     -999.25     -98.622
    3298.800
       7.675       0.073      -2.038    -241.305      57.765
      -0.512     -999.25     -98.580
    3299.300
       7.661       0.073      -2.035    -241.087      57.749
      -0.511     -999.25     -98.538
    3299.800
       7.648       0.073      -2.033    -240.867      57.733
      -0.510     -999.25     -98.496
    3300.300
       7.634       0.073      -2.031    -240.645      57.716
      -0.509     -999.25     -98.454
    3300.800
       7.621       0.072      -2.028    -240.421      57.700
      -0.508     -999.25     -98.412
    3301.300
       7.607       0.072      -2.026    -240.195      57.684
      -0.506     -999.25     -98.369
    3301.800
       7.594       0.072      -2.023    -239.967      57.668
      -0.505     -999.25     -98.327
    3302.300
       7.580       0.072      -2.021    -239.737      57.652
      -0.504     -999.25     -98.284
    3302.800
       7.567       0.071      -2.018    -239.505      57.635
      -0.503     -999.25     -98.241
    3303.300
       7.554       0.071      -2.016    -239.271      57.619
      -0.502     -999.25     -98.198
    3303.800
       7.541       0.071      -2.013    -239.035      57.603
      -0.501     -999.25     -98.155
    3304.300
       7.528       0.071      -2.011    -238.797      57.587
      -0.500     -999.25     -98.112
    3304.800
       7.515       0.070      -2.009    -238.556      57.571
      -0.499     -999.25     -98.069
    3305.300
       7.503       0.070      -2.006    -238.314      57.554
      -0.498     -999.25     -98.026
    3305.800
       7.490       0.070      -2.003    -238.070      57.538
      -0.496     -999.25     -97.982
    3306.300
       7.477       0.070      -2.001    -237.824      57.522
      -0.495     -999.25     -97.939
    3306.800
       7.465       0.069      -1.998    -237.575      57.505
      -0.494     -999.25     -97.895
    3307.300
       7.452       0.069      -1.996    -237.325      57.489
      -0.493     -999.25     -97.851
    3307.800
       7.440       0.069      -1.993    -237.072      57.473
      -0.492     -999.25     -97.808
    3308.300
       7.428       0.068      -1.991    -236.818      57.457
      -0.491     -999.25     -97.764
    3308.800
       7.416       0.068      -1.988    -236.561      57.440
      -0.490     -999.25     -97.720
    3309.300
       7.404       0.068      -1.985    -236.303      57.424
      -0.489     -999.25     -97.675
    3309.800
       7.392       0.068      -1.983    -236.042      57.408
      -0.487     -999.25     -97.631
    3310.300
       7.380       0.067      -1.980    -235.779      57.391
      -0.486     -999.25     -97.587
    3310.800
       7.368       0.067      -1.978    -235.514      57.375
      -0.485     -999.25     -97.542
    3311.300
       7.356       0.067      -1.975    -235.248      57.358
      -0.484     -999.25     -97.498
    3311.800
       7.345       0.067      -1.972    -234.979      57.342
      -0.483     -999.25     -97.453
    3312.300
       7.333       0.066      -1.970    -234.708      57.326
      -0.482     -999.25     -97.408
    3312.800
       7.322       0.066      -1.967    -234.435      57.309
      -0.481     -999.25     -97.363
    3313.300
       7.310       0.066      -1.964    -234.159      57.293
      -0.479     -999.25     -97.318
    3313.800
       7.299       0.066      -1.961    -233.882      57.276
      -0.478     -999.25     -97.273
    3314.300
       7.288       0.065      -1.959    -233.603      57.260
      -0.477     -999.25     -97.227
    3314.800
       7.277       0.065      -1.956    -233.321      57.244
      -0.476     -999.25     -97.182
    3315.300
       7.266       0.065      -1.953    -233.038      57.227
      -0.475     -999.25     -97.136
    3315.800
       7.255       0.065      -1.950    -232.752      57.211
      -0.474     -999.25     -97.091
    3316.300
       7.244       0.064      -1.948    -232.465      57.194
      -0.473     -999.25     -97.045
    3316.800
       7.233       0.064      -1.945    -232.175      57.178
      -0.471     -999.25     -96.999
    3317.300
       7.223       0.064      -1.942    -231.883      57.161
      -0.470     -999.25     -96.953
    3317.800
       7.212       0.063      -1.939    -231.589      57.145
      -0.469     -999.25     -96.907
    3318.300
       7.202       0.063      -1.936    -231.293      57.128
      -0.468     -999.25     -96.861
    3318.800
       7.191       0.063      -1.934    -230.995      57.112
      -0.467     -999.25     -96.815
    3319.300
       7.181       0.063      -1.931    -230.695      57.095
      -0.466     -999.25     -96.768
    3319.800
       7.171       0.062      -1.928    -230.392      57.079
      -0.465     -999.25     -96.722
    3320.300
       7.161       0.062      -1.925    -230.088      57.062
      -0.463     -999.25     -96.675
    3320.800
       7.151       0.062      -1.922    -229.781      57.045
      -0.462     -999.25     -96.628
    3321.300
       7.141       0.062      -1.919    -229.472      57.029
      -0.461     -999.25     -96.582
    3321.800
       7.131       0.061      -1.916    -229.162      57.012
      -0.460     -999.25     -96.535
    3322.300
       7.122       0.061      -1.913    -228.849      56.996
      -0.459     -999.25     -96.487
    3322.800
       7.112       0.061      -1.910    -228.533      56.979
      -0.458     -999.25     -96.440
    3323.300
       7.102       0.060      -1.907    -228.216      56.962
      -0.456     -999.25     -96.393
    3323.800
       7.093       0.060      -1.904    -227.897      56.946
      -0.455     -999.25     -96.346
    3324.300
       7.084       0.060      -1.901    -227.575      56.929
      -0.454     -999.25     -96.298
    3324.800
       7.074       0.060      -1.898    -227.252      56.913
      -0.453     -999.25     -96.250
    3325.300
       7.065       0.059      -1.895    -226.926      56.896
      -0.452     -999.25     -96.203
    3325.800
       7.056       0.059      -1.892    -226.598      56.879
      -0.451     -999.25     -96.155
    3326.300
       7.047       0.059      -1.889    -226.268      56.863
      -0.449     -999.25     -96.107
    3326.800
       7.038       0.058      -1.886    -225.936      56.846
      -0.448     -999.25     -96.059
    3327.300
       7.030       0.058      -1.883    -225.601      56.829
      -0.447     -999.25     -96.010
    3327.800
       7.021       0.058      -1.880    -225.265      56.813
      -0.446     -999.25     -95.962
    3328.300
       7.012       0.058      -1.877    -224.926      56.796
      -0.445     -999.25     -95.914
    3328.800
       7.004       0.057      -1.874    -224.585      56.779
      -0.444     -999.25     -95.865
    3329.300
       6.996       0.057      -1.871    -224.243      56.762
      -0.442     -999.25     -95.816
