~Version Information
 VERS.                 2.0: 
 WRAP.                  NO: 
 END.                PETRA:GeoPLUS Corporation
~Well Information Block
#MNEM.UNIT       Data Type    Information
#---------    -------------   ---------------------------------
 STRT.F              0.0000:
 STOP.F          10696.1560:
 STEP.F              0.5000:
 NULL.              -999.25:
 COMP.                           : COMPANY
 FLD.       FLAT ROCK            : FIELD
 LOC.                            : LOCATION
 DATE.      14-OCT-2016          : DATE
 WELL.                           : Well Name
 LABL.      42461037730000                   : Well Label
 APIN.      42461037730000       : API Number
 UWI.       42461037730000       : Unique Well Number
 NUMB.      3                    : Well Number
 OPER.      OXY U S A INC        : Operator Name
 LEAS.      UNIVERSITY-AQ        : Lease Name
~Parameter Block
#MNEM.UNIT           VALUE            Description
#---------    --------------------   ---------------------------------
~Curve Information Block
#MNEM.UNIT      API CODE      Curve Description
#---------    -------------   ---------------------------------
 DEPT.F                   00 000 00 00: Depth (MD)
 ASN.OHM.M                00 001 00 00: AMPLIFIED SHORT NORMAL
 GR.GAPI                  00 002 00 00: GAMMA RAY
 LAT19.OHM.M              00 003 00 00: 
 LAT32.OHM.M              00 004 00 00: 
 SN.OHM.M                 00 005 00 00: 16-in Short Normal
 SP.MV                    00 006 00 00: Spontaneous Potential
 XGR.API                  00 007 00 00: gamma ray
~A        DEPT         ASN          GR       LAT19       LAT32          SN          SP         XGR
# ...
      4374.000      12.216       7.748       3.735      18.455     -999.25    -176.369      82.351
      4374.500      12.745       7.603       3.735      19.005     -999.25    -178.198      80.803
      4375.000      13.163       7.353       3.797      19.728     -999.25    -179.162      78.145
      4375.500      13.346       7.090       3.796      20.448     -999.25    -179.999      75.356
      4376.000      13.523       6.780       3.856      20.988     -999.25    -180.590      72.062
      4376.500      13.699       6.484       3.858      21.710     -999.25    -180.875      68.908
      4377.000      13.820       6.356       3.918      21.864     -999.25    -181.115      67.555
      4377.500      13.824       6.420       3.978      21.687     -999.25    -181.243      68.234
      4378.000      13.824       6.719       4.039      21.687     -999.25    -181.046      71.405
      4378.500      13.800       6.944       4.099      21.685     -999.25    -180.964      73.800
      4379.000      13.691       7.109       4.159      21.500     -999.25    -180.894      75.559
      4379.500      13.573       7.228       4.219      21.499     -999.25    -180.274      76.821
      4380.000      13.415       7.322       4.215      21.318     -999.25    -179.534      77.820
      4380.500      13.279       7.309       4.212      21.135     -999.25    -178.793      77.679
      4381.000      13.161       7.273       4.209      20.769     -999.25    -177.703      77.300
      4381.500      13.044       7.249       4.206      20.407     -999.25    -175.606      77.047
      4382.000      12.956       7.189       4.263      20.048     -999.25    -173.813      76.405
      4382.500      12.920       7.081       4.259      19.876     -999.25    -172.658      75.257
      4383.000      13.088       6.914       4.257      19.887     -999.25    -171.965      73.478
      4383.500      13.287       6.801       4.254      20.067     -999.25    -171.801      72.282
      4384.000      13.464       6.991       4.312      20.252     -999.25    -172.007      74.305
      4384.500      13.640       7.182       4.248      20.616     -999.25    -172.254      76.330
      4385.000      13.817       7.372       4.245      20.986     -999.25    -172.501      78.353
      4385.500      13.993       7.563       4.242      21.716     -999.25    -172.651      80.378
      4386.000      14.156       7.752       4.239      22.434     -999.25    -172.437      82.390
      4386.500      14.177       7.770       4.236      22.783     -999.25    -172.190      82.584
      4387.000      14.177       7.604       4.233      22.952     -999.25    -171.827      80.817
      4387.500      14.153       7.437       4.229      22.758     -999.25    -171.134      79.045
      4388.000      14.003       7.223       4.226      22.398     -999.25    -170.555      76.766
      4388.500      13.867       7.081       4.163      22.218     -999.25    -169.942      75.258
      4389.000      13.750       6.962       4.160      21.856     -999.25    -168.812      73.994
      4389.500      13.599       6.833       4.158      21.677     -999.25    -167.928      72.616
      4390.000      13.417       7.035       4.157      21.312     -999.25    -167.227      74.766
      4390.500      13.262       7.010       4.157      21.122     -999.25    -166.308      74.507
      4391.000      13.192       6.927       4.157      20.933     -999.25    -165.332      73.621
      4391.500      13.130       6.844       4.219      20.742     -999.25    -164.356      72.733
      4392.000      13.068       6.760       4.280      20.358     -999.25    -163.563      71.850
      4392.500      12.883       6.810       4.340      19.625     -999.25    -162.190      72.378
      4393.000      12.552       6.819       4.400      19.073     -999.25    -160.795      72.477
      4393.500      12.057       6.711       4.460      18.519     -999.25    -159.418      71.325
      4394.000      11.525       6.591       4.521      17.589     -999.25    -158.121      70.053
      4394.500      11.028       6.484       4.581      16.498     -999.25    -157.087      68.910
      4395.000      10.518       6.438       4.641      15.598     -999.25    -156.338      68.421
      4395.500      10.029       6.572       4.701      14.866     -999.25    -155.457      69.847
      4396.000       9.502       6.764       4.761      14.127     -999.25    -154.507      71.887
      4396.500       8.956       6.967       4.822      13.027     -999.25    -153.555      74.040
      4397.000       8.411       6.989       4.882      11.935     -999.25    -152.603      74.277
      4397.500       7.758       7.001       4.942      11.029     -999.25    -151.649      74.405
      4398.000       7.103       7.121       5.003      10.309     -999.25    -150.694      75.685
      4398.500       6.758       7.265       5.126       9.757     -999.25    -149.902      77.208
      4399.000       6.608       7.467       5.183       9.209     -999.25    -149.022      79.362
      4399.500       6.537       7.634       5.121       9.027     -999.25    -148.064      81.132
      4400.000       6.430       7.788       5.121       8.668     -999.25    -147.106      82.774
      4400.500       6.310       7.931       5.061       8.487     -999.25    -146.039      84.290
      4401.000       6.172       8.048       5.061       8.306     -999.25    -146.648      85.533
      4401.500       6.210       7.948       5.060       8.318     -999.25    -147.620      84.475
      4402.000       6.341       7.805       4.998       8.505     -999.25    -148.588      82.950
      4402.500       6.522       7.662       4.999       8.874     -999.25    -149.410      81.437
      4403.000       6.825       7.703       4.940       9.421     -999.25    -150.305      81.866
      4403.500       7.600       8.141       4.940      10.164     -999.25    -152.232      86.525
      4404.000       8.555       8.052       4.939      11.628     -999.25    -154.333      85.577
      4404.500       9.580       7.873       4.878      13.267     -999.25    -155.583      83.670
      4405.000      10.940       7.694       4.878      15.440     -999.25    -156.660      81.768
      4405.500      12.095       7.563       4.820      17.237     -999.25    -158.050      80.375
      4406.000      12.706       7.419       4.819      18.859     -999.25    -159.319      78.848
      4406.500      13.149       7.239       4.819      20.285     -999.25    -160.714      76.935
      4407.000      13.517       6.999       4.819      21.369     -999.25    -160.988      74.386
      4407.500      13.907       6.886       4.819      22.453     -999.25    -160.988      73.187
      4408.000      14.169       7.016       4.820      23.529     -999.25    -160.919      74.571
      4408.500      13.726       7.135       4.940      22.175     -999.25    -160.276      75.829
      4409.000      13.196       7.179       4.940      20.719     -999.25    -159.552      76.299
      4409.500      12.620       6.985       4.940      18.368     -999.25    -158.687      74.238
      4410.000      11.822       6.700       4.940      16.742     -999.25    -157.891      71.205
      4410.500      10.837       6.802       4.878      15.119     -999.25    -156.996      72.291
      4411.000       9.872       7.089       4.877      13.864     -999.25    -156.217      75.343
      4411.500       8.911       7.469       4.817      12.602     -999.25    -155.503      79.383
      4412.000       7.948       7.755       4.759      11.903     -999.25    -155.260      82.421
      4412.500       7.284       8.042       4.759      11.372     -999.25    -157.077      85.472
      4413.000       7.604       8.239       4.760      11.394     -999.25    -158.939      87.562
      4413.500       9.115       8.106       4.823      11.769     -999.25    -160.445      86.149
      4414.000      10.402       7.962       4.944      12.504     -999.25    -161.844      84.619
