~Version Information
 VERS.                 2.0: 
 WRAP.                 YES: 
 END.                PETRA:GeoPLUS Corporation
~Well Information Block
#MNEM.UNIT       Data Type    Information
#---------    -------------   ---------------------------------
 STRT.F             57.9120:
 STOP.F          11474.9360:
 STEP.F              0.5000:
 NULL.              -999.25:
 COMP.                           : COMPANY
 FLD.       BENEDUM              : FIELD
 LOC.                            : LOCATION
 DATE.      14-OCT-2016          : DATE
 WELL.                           : Well Name
 LABL.      42461342620000                   : Well Label
 APIN.      42461342620000       : API Number
 UWI.       42461342620000       : Unique Well Number
 NUMB.      1                    : Well Number
 OPER.      W T G EXPLORATION    : Operator Name
 LEAS.      UNIVERSITY `3-4`     : Lease Name
~Parameter Block
#MNEM.UNIT           VALUE            Description
#---------    --------------------   ---------------------------------
 EKB.F                  2682.0 : KB Elevation
~Curve Information Block
#MNEM.UNIT      API CODE      Curve Description
#---------    -------------   ---------------------------------
 DEPT.F                   00 000 00 00: Depth (MD)
 CALI.IN                  00 001 00 00: Density Caliper
 DPLS.FRAC                00 002 00 00: DENSITY POROSITY  LIMESTONE
 DRHO.G/CM3               00 003 00 00: Density Correction
 GRD.GAPI                 00 004 00 00: Guard
 GRR.GAPI                 00 005 00 00: Gamma Ray Resistivity Device
 LLD.OHM.M                00 006 00 00: Laterolog Deep
 LLS.OHM.M                00 007 00 00: Laterolog Shallow
 MSFL.OHM.M               00 008 00 00: MICRO SFL
 NPLS.FRAC                00 009 00 00: NEUTRON POROSITY  LIMESTONE
 PEF.B/E                  00 010 00 00: Photo-Electric Factor
 RHOB.G/CM3               00 011 00 00: Bulk Density
 TENS.LB                  00 012 00 00: Tension
 XDPHI.FRAC               00 013 00 00: 
~A
# ...
    3512.412
       8.133       0.031       0.128      14.357     184.804
     201.500     173.051      72.975       0.836       3.366
       2.783    3460.000     -999.25
    3512.912
       8.132       0.031       0.130      13.747     186.762
     201.451     173.164      72.970       0.873       3.366
       2.784    3460.000     -999.25
    3513.412
       8.131       0.032       0.131      13.137     188.719
     201.402     173.277      72.965       0.985       3.366
       2.784    3460.000     -999.25
    3513.912
       8.131       0.033       0.132      13.148     190.674
     201.353     173.391      72.960       0.972       3.366
       2.785    3460.000     -999.25
    3514.412
       8.130       0.034       0.134      12.843     192.629
     201.304     173.504      72.954       0.631       3.366
       2.785    3460.000     -999.25
    3514.912
       8.130       0.034       0.135      12.535     194.582
     201.255     173.617      72.949       0.587       3.366
       2.786    3460.000     -999.25
    3515.412
       8.129       0.035       0.136      11.896     196.534
     201.206     173.731      72.944       0.523       3.366
       2.786    3460.000     -999.25
    3515.912
       8.129       0.036       0.137      10.978     198.484
     201.157     173.844      72.939       0.481       3.366
       2.787    3460.000     -999.25
    3516.412
       8.128       0.037       0.139      10.070     200.434
     201.108     173.957      72.934       0.459       3.366
       2.787    3460.000     -999.25
    3516.912
       8.127       0.037       0.140      10.130     202.382
     201.059     174.070      72.928       0.371       3.366
       2.788    3460.000     -999.25
    3517.412
       8.127       0.038       0.141      10.743     204.329
     201.010     174.183      72.923       0.354       3.366
       2.788    3460.000     -999.25
    3517.912
       8.126       0.039       0.142      11.356     206.274
     200.962     174.296      72.918       0.404       3.366
       2.789    3460.000     -999.25
    3518.412
       8.126       0.040       0.144      12.271     208.219
     200.913     174.410      72.913       0.503       3.366
       2.789    3460.000     -999.25
    3518.912
       8.125       0.040       0.145      12.264     210.162
     200.864     174.523      72.908       0.707       3.365
       2.790    3460.000     -999.25
    3519.412
       8.124       0.041       0.146      12.900     212.104
     200.815     174.636      72.903       0.710       3.365
       2.790    3460.000     -999.25
    3519.912
       8.124       0.042       0.148      13.818     214.044
     200.767     174.749      72.897       0.981       3.365
       2.790    3460.000     -999.25
    3520.412
       8.123       0.043       0.149      14.743     215.984
     200.718     174.862      72.892       0.981       3.365
       2.791    3460.000     -999.25
    3520.912
       8.123       0.043       0.150      16.545     217.922
     200.669     174.974      72.887       0.979       3.365
       2.791    3460.000     -999.25
    3521.412
       8.122       0.044       0.151      17.132     219.859
     200.621     175.087      72.882       0.973       3.365
       2.792    3460.000     -999.25
    3521.912
       8.122       0.045       0.153      17.356     221.795
     200.572     175.200      72.877       0.856       3.364
       2.792    3460.000     -999.25
    3522.412
       8.121       0.046       0.154      16.459     223.729
     200.524     175.313      72.871       0.690       3.364
       2.793    3459.915     -999.25
    3522.912
       8.120       0.046       0.155      15.560     225.662
     200.475     175.426      72.866       0.490       3.364
       2.793    3440.071     -999.25
    3523.412
       8.120       0.047       0.156      15.346     227.594
     200.427     175.538      72.861       0.718       3.364
       2.794    3440.000     -999.25
    3523.912
       8.119       0.048       0.158      16.242     229.525
     200.378     175.651      72.856       0.979       3.363
       2.794    3440.000     -999.25
    3524.412
       8.119       0.049       0.159      17.140     231.454
     200.330     175.764      72.850       0.981       3.363
       2.795    3440.000     -999.25
    3524.912
       8.118       0.049       0.160      17.710     233.383
     200.281     175.876      72.845       0.980       3.363
       2.795    3440.000     -999.25
    3525.412
       8.118       0.050       0.161      17.372     235.310
     200.233     175.989      72.840       0.907       3.363
       2.795    3440.000     -999.25
    3525.912
       8.117       0.051       0.163      16.439     237.235
     200.185     176.102      72.835       0.913       3.362
       2.796    3440.000     -999.25
    3526.412
       8.117       0.052       0.164      14.669     239.160
     200.137     176.214      72.830       0.981       3.362
       2.796    3440.000     -999.25
    3526.912
       8.116       0.052       0.165      14.053     241.083
     200.088     176.327      72.824       0.951       3.362
       2.797    3440.000     -999.25
    3527.412
       8.115       0.053       0.166      13.448     243.005
     200.040     176.439      72.819       0.900       3.362
       2.797    3440.000     -999.25
    3527.912
       8.115       0.054       0.168      13.804     244.926
     199.992     176.552      72.814       0.877       3.361
       2.798    3440.000     -999.25
    3528.412
       8.114       0.055       0.169      14.765     246.846
     199.944     176.664      72.809       0.981       3.361
       2.798    3440.000     -999.25
    3528.912
       8.114       0.055       0.170      17.188     248.764
     199.896     176.776      72.803       0.982       3.361
       2.799    3440.000     -999.25
    3529.412
       8.113       0.056       0.171      18.625     250.681
     199.847     176.889      72.798       0.982       3.360
       2.799    3440.000     -999.25
    3529.912
       8.113       0.057       0.173      18.924     252.597
     199.799     177.001      72.793       0.982       3.360
       2.800    3440.000     -999.25
    3530.412
       8.112       0.058       0.174      19.524     254.512
     199.751     177.113      72.788       0.982       3.360
       2.800    3440.000     -999.25
    3530.912
       8.112       0.059       0.175      19.797     256.425
     199.703     177.226      72.782       0.982       3.359
       2.800    3440.270     -999.25
    3531.412
       8.111       0.059       0.176      18.817     258.337
     199.655     177.338      72.777       0.979       3.359
       2.801    3460.000     -999.25
    3531.912
       8.110       0.060       0.178      17.017     260.248
     199.607     177.450      72.772       0.957       3.358
       2.801    3460.000     -999.25
    3532.412
       8.110       0.061       0.179      15.230     262.158
     199.560     177.562      72.767       0.952       3.358
       2.802    3460.000     -999.25
    3532.912
       8.109       0.062       0.180      14.338     264.066
     199.512     177.674      72.761       0.981       3.358
       2.802    3460.000     -999.25
    3533.412
       8.109       0.062       0.181      13.126     265.974
     199.464     177.786      72.756       0.981       3.357
       2.803    3460.000     -999.25
    3533.912
       8.108       0.063       0.183      13.176     267.880
     199.416     177.898      72.751       0.981       3.357
       2.803    3460.000     -999.25
    3534.412
       8.108       0.064       0.184      13.853     269.784
     199.368     178.010      72.745       0.981       3.356
       2.804    3460.000     -999.25
    3534.912
       8.107       0.065       0.185      17.700     271.688
     199.320     178.122      72.740       0.981       3.356
       2.804    3460.000     -999.25
    3535.412
       8.107       0.065       0.186      17.700     273.590
     199.273     178.234      72.735       0.981       3.356
       2.805    3460.000     -999.25
