~Version Information
 VERS.                 2.0: 
 WRAP.                 YES: 
 END.                PETRA:GeoPLUS Corporation
~Well Information Block
#MNEM.UNIT       Data Type    Information
#---------    -------------   ---------------------------------
 STRT.F           1066.8000:
 STOP.F           7799.8000:
 STEP.F              0.5000:
 NULL.              -999.25:
 COMP.                           : COMPANY
 FLD.       FLAT ROCK            : FIELD
 LOC.                            : LOCATION
 DATE.      14-OCT-2016          : DATE
 WELL.                           : Well Name
 LABL.      42461318260000                   : Well Label
 APIN.      42461318260000       : API Number
 UWI.       42461318260000       : Unique Well Number
 NUMB.      1                    : Well Number
 OPER.      KIMBARK OIL & GAS CO : Operator Name
 LEAS.      UNIVERSITY `31-3`    : Lease Name
~Parameter Block
#MNEM.UNIT           VALUE            Description
#---------    --------------------   ---------------------------------
 EKB.F                  2786.0 : KB Elevation
~Curve Information Block
#MNEM.UNIT      API CODE      Curve Description
#---------    -------------   ---------------------------------
 DEPT.F                   00 000 00 00: Depth (MD)
 CALI.IN                  00 001 00 00: Density Caliper
 DPHI.FRAC                00 002 00 00: Density Porosity
 DRHO.G/CM3               00 003 00 00: Density Correction
 GR.GAPI                  00 004 00 00: GAMMA RAY
 ILD.OHM.M                00 005 00 00: Induction Deep Resistivity
 NPHI.FRAC                00 006 00 00: Neutron Porosity
 PAY_TOC.                 00 007 00 00: TOC proxy
 SP.MV                    00 008 00 00: Spontaneous Potential
~A
# ...
    2417.300
      15.036       0.088       0.488     164.142      59.882
       0.015     -999.25     -82.071
    2417.800
      15.126       0.088       0.490     164.785      59.901
       0.012     -999.25     -82.087
    2418.300
      15.216       0.088       0.491     165.425      59.921
       0.010     -999.25     -82.103
    2418.800
      15.306       0.088       0.493     166.063      59.941
       0.008     -999.25     -82.120
    2419.300
      15.395       0.088       0.495     166.698      59.961
       0.006     -999.25     -82.136
    2419.800
      15.485       0.089       0.496     167.331      59.980
       0.004     -999.25     -82.152
    2420.300
      15.574       0.089       0.498     167.961      60.000
       0.001     -999.25     -82.169
    2420.800
      15.663       0.089       0.499     168.589      60.020
      -0.001     -999.25     -82.185
    2421.300
      15.752       0.089       0.501     169.215      60.039
      -0.003     -999.25     -82.202
    2421.800
      15.840       0.089       0.503     169.837      60.059
      -0.005     -999.25     -82.218
    2422.300
      15.928       0.089       0.504     170.458      60.078
      -0.007     -999.25     -82.235
    2422.800
      16.016       0.089       0.506     171.076      60.098
      -0.010     -999.25     -82.252
    2423.300
      16.104       0.089       0.507     171.691      60.117
      -0.012     -999.25     -82.268
    2423.800
      16.192       0.089       0.509     172.304      60.137
      -0.014     -999.25     -82.285
    2424.300
      16.280       0.089       0.510     172.915      60.156
      -0.016     -999.25     -82.302
    2424.800
      16.367       0.089       0.512     173.523      60.175
      -0.018     -999.25     -82.318
    2425.300
      16.454       0.089       0.513     174.129      60.195
      -0.020     -999.25     -82.335
    2425.800
      16.541       0.089       0.515     174.732      60.214
      -0.023     -999.25     -82.352
    2426.300
      16.628       0.089       0.516     175.333      60.233
      -0.025     -999.25     -82.369
    2426.800
      16.714       0.089       0.518     175.931      60.252
      -0.027     -999.25     -82.386
    2427.300
      16.800       0.089       0.519     176.527      60.272
      -0.029     -999.25     -82.403
    2427.800
      16.886       0.089       0.520     177.120      60.291
      -0.031     -999.25     -82.420
    2428.300
      16.972       0.089       0.522     177.711      60.310
      -0.033     -999.25     -82.437
    2428.800
      17.058       0.089       0.523     178.300      60.329
      -0.036     -999.25     -82.454
    2429.300
      17.144       0.089       0.525     178.886      60.348
      -0.038     -999.25     -82.471
    2429.800
      17.229       0.089       0.526     179.470      60.367
      -0.040     -999.25     -82.489
    2430.300
      17.314       0.089       0.527     180.051      60.386
      -0.042     -999.25     -82.506
    2430.800
      17.399       0.089       0.529     180.630      60.405
      -0.044     -999.25     -82.523
    2431.300
      17.484       0.089       0.530     181.206      60.424
      -0.046     -999.25     -82.540
    2431.800
      17.568       0.089       0.531     181.780      60.443
      -0.048     -999.25     -82.558
    2432.300
      17.652       0.089       0.533     182.352      60.462
      -0.051     -999.25     -82.575
    2432.800
      17.736       0.089       0.534     182.921      60.481
      -0.053     -999.25     -82.593
    2433.300
      17.820       0.089       0.535     183.488      60.500
      -0.055     -999.25     -82.610
    2433.800
      17.904       0.089       0.537     184.052      60.518
      -0.057     -999.25     -82.628
    2434.300
      17.988       0.089       0.538     184.614      60.537
      -0.059     -999.25     -82.645
    2434.800
      18.071       0.089       0.539     185.174      60.556
      -0.061     -999.25     -82.663
    2435.300
      18.154       0.089       0.541     185.731      60.575
      -0.063     -999.25     -82.680
    2435.800
      18.237       0.089       0.542     186.286      60.593
      -0.065     -999.25     -82.698
    2436.300
      18.320       0.089       0.543     186.838      60.612
      -0.068     -999.25     -82.716
    2436.800
      18.402       0.089       0.544     187.388      60.631
      -0.070     -999.25     -82.734
    2437.300
      18.485       0.089       0.545     187.936      60.649
      -0.072     -999.25     -82.751
    2437.800
      18.567       0.089       0.547     188.481      60.668
      -0.074     -999.25     -82.769
    2438.300
      18.649       0.089       0.548     189.024      60.686
      -0.076     -999.25     -82.787
    2438.800
      18.730       0.089       0.549     189.564      60.705
      -0.078     -999.25     -82.805
    2439.300
      18.812       0.089       0.550     190.102      60.723
      -0.080     -999.25     -82.823
    2439.800
      18.893       0.089       0.551     190.638      60.742
      -0.082     -999.25     -82.841
    2440.300
      18.974       0.089       0.553     191.171      60.760
      -0.084     -999.25     -82.859
    2440.800
      19.055       0.089       0.554     191.702      60.779
      -0.086     -999.25     -82.877
    2441.300
      19.136       0.089       0.555     192.231      60.797
      -0.088     -999.25     -82.895
    2441.800
      19.217       0.089       0.556     192.757      60.815
      -0.091     -999.25     -82.913
    2442.300
      19.297       0.089       0.557     193.281      60.834
      -0.093     -999.25     -82.932
    2442.800
      19.377       0.089       0.558     193.802      60.852
      -0.095     -999.25     -82.950
    2443.300
      19.457       0.089       0.559     194.321      60.870
      -0.097     -999.25     -82.968
    2443.800
      19.537       0.089       0.560     194.838      60.888
      -0.099     -999.25     -82.986
    2444.300
      19.617       0.089       0.561     195.352      60.906
      -0.101     -999.25     -83.005
    2444.800
      19.696       0.090       0.563     195.864      60.925
      -0.103     -999.25     -83.023
    2445.300
      19.775       0.090       0.564     196.374      60.943
      -0.105     -999.25     -83.042
    2445.800
      19.854       0.090       0.565     196.881      60.961
      -0.107     -999.25     -83.060
    2446.300
      19.933       0.090       0.566     197.386      60.979
      -0.109     -999.25     -83.078
    2446.800
      20.012       0.090       0.567     197.889      60.997
      -0.111     -999.25     -83.097
    2447.300
      20.090       0.090       0.568     198.389      61.015
      -0.113     -999.25     -83.116
    2447.800
      20.168       0.090       0.569     198.887      61.033
      -0.115     -999.25     -83.134
    2448.300
      20.246       0.090       0.570     199.383      61.051
      -0.117     -999.25     -83.153
    2448.800
      20.324       0.090       0.571     199.876      61.069
      -0.119     -999.25     -83.171
    2449.300
      20.402       0.090       0.572     200.367      61.086
      -0.121     -999.25     -83.190
    2449.800
      20.479       0.090       0.573     200.856      61.104
      -0.124     -999.25     -83.209
    2450.300
      20.557       0.090       0.574     201.342      61.122
      -0.126     -999.25     -83.228
    2450.800
      20.634       0.090       0.574     201.826      61.140
      -0.128     -999.25     -83.247
    2451.300
      20.711       0.090       0.575     202.308      61.158
      -0.130     -999.25     -83.265
    2451.800
      20.787       0.090       0.576     202.787      61.175
      -0.132     -999.25     -83.284
    2452.300
      20.864       0.090       0.577     203.265      61.193
      -0.134     -999.25     -83.303
    2452.800
      20.940       0.090       0.578     203.739      61.211
      -0.136     -999.25     -83.322
    2453.300
      21.016       0.090       0.579     204.212      61.228
      -0.138     -999.25     -83.341
