~Version Information
 VERS.                 2.0: 
 WRAP.                  NO: 
 END.                PETRA:GeoPLUS Corporation
~Well Information Block
#MNEM.UNIT       Data Type    Information
#---------    -------------   ---------------------------------
 STRT.F              0.0000:
 STOP.F          10696.1560:
 STEP.F              0.5000:
 NULL.              -999.25:
 COMP.                           : COMPANY
 FLD.       FLAT ROCK            : FIELD
 LOC.                            : LOCATION
 DATE.      14-OCT-2016          : DATE
 WELL.                           : Well Name
 LABL.      42461037730000                   : Well Label
 APIN.      42461037730000       : API Number
 UWI.       42461037730000       : Unique Well Number
 NUMB.      3                    : Well Number
 OPER.      OXY U S A INC        : Operator Name
 LEAS.      UNIVERSITY-AQ        : Lease Name
~Parameter Block
#MNEM.UNIT           VALUE            Description
#---------    --------------------   ---------------------------------
~Curve Information Block
#MNEM.UNIT      API CODE      Curve Description
#---------    -------------   ---------------------------------
 DEPT.F                   00 000 00 00: Depth (MD)
 ASN.OHM.M                00 001 00 00: AMPLIFIED SHORT NORMAL
 GR.GAPI                  00 002 00 00: GAMMA RAY
 LAT19.OHM.M              00 003 00 00: 
 LAT32.OHM.M              00 004 00 00: 
 SN.OHM.M                 00 005 00 00: 16-in Short Normal
 SP.MV                    00 006 00 00: Spontaneous Potential
 XGR.API                  00 007 00 00: gamma ray
~A        DEPT         ASN          GR       LAT19       LAT32          SN          SP         XGR
# ...
      3645.000      19.027       6.364      41.172      24.769     -999.25    -172.596      67.634
      3645.500      18.242       6.219      36.174      22.783     -999.25    -173.303      66.097
      3646.000      17.478       6.087      29.393      21.728     -999.25    -174.044      64.689
      3646.500      17.583       5.918      24.580      21.380     -999.25    -174.953      62.892
      3647.000      18.756       5.736      22.138      21.773     -999.25    -175.773      60.959
      3647.500      19.833       5.494      21.239      23.417     -999.25    -176.513      58.388
      3648.000      22.350       5.265      20.665      25.829     -999.25    -177.036      55.952
      3648.500      26.290       5.309      22.067      31.981     -999.25    -176.915      56.419
      3649.000      30.800       5.492      24.116      36.234     -999.25    -176.528      58.372
      3649.500      44.510       5.262      26.179      42.412     -999.25    -175.722      55.927
      3650.000      52.116       5.008      27.803      48.931     -999.25    -174.511      53.230
      3650.500      56.845       4.754      29.840      67.281     -999.25    -173.472      50.522
      3651.000      62.139       4.696      31.667      75.609     -999.25    -172.497      49.909
      3651.500      66.717       4.991      33.255      90.048     -999.25    -171.522      53.040
      3652.000      71.799       5.117      34.471      98.266     -999.25    -169.744      54.387
      3652.500      76.393       4.924      35.508     102.514     -999.25    -168.346      52.330
      3653.000      79.101       4.717      36.649     106.823     -999.25    -167.192      50.127
      3653.500      81.618       4.521      37.789     111.183     -999.25    -166.139      48.053
      3654.000      83.413       4.252      38.558     111.270     -999.25    -164.990      45.191
      3654.500      83.405       4.045      39.338     111.258     -999.25    -164.036      42.993
      3655.000      82.641       3.782      40.181     110.634     -999.25    -163.521      40.195
      3655.500      81.440       3.532      40.965     107.629     -999.25    -163.039      37.542
      3656.000      80.180       3.356      41.505     104.165     -999.25    -162.788      35.666
      3656.500      78.921       3.395      41.984     100.803     -999.25    -163.033      36.079
      3657.000      77.665       3.573      41.689      96.221     -999.25    -163.292      37.977
      3657.500      76.233       3.704      40.706      92.875     -999.25    -163.458      39.369
      3658.000      74.601       3.835      39.671      89.712     -999.25    -163.258      40.761
      3658.500      74.760       3.966      38.706      86.933     -999.25    -163.023      42.153
      3659.000      75.392       4.100      37.684      84.158     -999.25    -163.032      43.578
      3659.500      76.017       4.241      37.670      82.825     -999.25    -163.520      45.078
      3660.000      76.642       4.170      38.338      84.321     -999.25    -163.833      44.315
      3660.500      77.266       4.097      39.364      85.986     -999.25    -164.260      43.538
      3661.000      77.919       4.023      41.735      87.472     -999.25    -164.736      42.760
      3661.500      77.225       3.951      44.142      90.438     -999.25    -165.392      41.995
      3662.000      76.288       3.880      48.757      92.361     -999.25    -166.143      41.240
      3662.500      75.350       3.881      50.534      93.929     -999.25    -166.884      41.245
      3663.000      74.164       3.820      54.177      93.813     -999.25    -167.509      40.594
      3663.500      71.097       3.713      59.684      91.862     -999.25    -167.831      39.459
      3664.000      67.296       3.606      69.454      89.733     -999.25    -167.879      38.320
      3664.500      63.863       3.498      81.501      87.301     -999.25    -168.205      37.179
      3665.000      60.025       3.442      94.094      84.143     -999.25    -168.596      36.577
      3665.500      56.499       3.610     107.507      81.178     -999.25    -168.534      38.365
      3666.000      53.083       3.800     125.481      76.421     -999.25    -168.130      40.391
      3666.500      50.769       3.991     143.473      68.763     -999.25    -167.437      42.415
      3667.000      46.482       4.171     162.063      60.227     -999.25    -166.697      44.328
      3667.500      41.735       4.058     173.382      53.716     -999.25    -165.653      43.132
      3668.000      38.045       3.653     190.167      44.556     -999.25    -164.566      38.824
      3668.500      33.964       4.183     182.361      39.761     -999.25    -163.579      44.457
      3669.000      30.459       4.975     161.306      36.575     -999.25    -162.591      52.874
      3669.500      27.210       5.758     142.194      33.048     -999.25    -161.604      61.194
      3670.000      23.827       6.172     132.028      29.692     -999.25    -160.828      65.596
      3670.500      22.691       6.493     118.153      26.625     -999.25    -160.809      69.012
      3671.000      22.425       6.810     104.939      24.517     -999.25    -161.477      72.378
      3671.500      22.155       6.929      93.521      24.559     -999.25    -162.038      73.639
      3672.000      22.188       7.047      80.324      25.523     -999.25    -162.601      74.898
      3672.500      22.737       7.165      73.274      28.254     -999.25    -162.447      76.145
      3673.000      23.538       7.089      67.895      31.288     -999.25    -161.913      75.342
      3673.500      24.407       6.886      64.373      34.279     -999.25    -161.585      73.187
      3674.000      26.034       6.695      63.879      36.874     -999.25    -161.172      71.155
      3674.500      27.822       6.504      66.433      37.884     -999.25    -160.678      69.124
      3675.000      29.485       6.313      74.892      38.572     -999.25    -160.093      67.092
      3675.500      30.796       6.049      74.525      38.903     -999.25    -160.413      64.289
      3676.000      30.051       5.772      69.027      38.880     -999.25    -161.205      61.348
      3676.500      28.452       5.556      61.748      38.319     -999.25    -161.945      59.044
      3677.000      26.890       5.351      52.113      37.031     -999.25    -162.686      56.865
      3677.500      25.313       5.207      49.662      35.084     -999.25    -163.427      55.342
      3678.000      24.156       5.283      39.614      33.131     -999.25    -164.168      56.149
      3678.500      23.974       5.499      33.000      30.651     -999.25    -164.908      58.445
      3679.000      23.893       5.715      28.372      30.574     -999.25    -165.649      60.744
      3679.500      28.137       5.942      23.453      32.407     -999.25    -166.864      63.155
      3680.000      33.436       5.939      22.320      36.345     -999.25    -168.026      63.117
      3680.500      37.561       5.790      22.865      41.941     -999.25    -169.014      61.540
      3681.000      46.259       5.477      24.448      50.396     -999.25    -169.851      58.213
      3681.500      51.674       5.150      25.934      59.152     -999.25    -170.750      54.729
      3682.000      57.059       4.416      28.015      65.639     -999.25    -171.569      46.936
      3682.500      63.097       3.875      28.859      71.999     -999.25    -172.476      41.186
      3683.000      68.979       3.703      29.445      85.976     -999.25    -173.333      39.358
      3683.500      73.195       3.727      30.209      95.943     -999.25    -173.937      39.606
      3684.000      76.476       3.772      30.877      99.119     -999.25    -174.229      40.086
      3684.500      79.372       3.665      31.423     102.296     -999.25    -174.476      38.953
      3685.000      82.730       3.557      32.155     105.275     -999.25    -174.857      37.808
