~Version Information
 VERS.                 2.0: 
 WRAP.                  NO: 
 END.                PETRA:GeoPLUS Corporation
~Well Information Block
#MNEM.UNIT       Data Type    Information
#---------    -------------   ---------------------------------
 STRT.F           1828.6476:
 STOP.F           8230.1476:
 STEP.F              0.5000:
 NULL.              -999.25:
 COMP.                           : COMPANY
 FLD.       SPRABERRY            : FIELD
 LOC.                            : LOCATION
 DATE.      14-OCT-2016          : DATE
 WELL.                           : Well Name
 LABL.      42461324180000                   : Well Label
 APIN.      42461324180000       : API Number
 UWI.       42461324180000       : Unique Well Number
 NUMB.      3                    : Well Number
 OPER.      PIONEER NAT RES USA  : Operator Name
 LEAS.      UNIVERSITY `8`       : Lease Name
~Parameter Block
#MNEM.UNIT           VALUE            Description
#---------    --------------------   ---------------------------------
 EKB.F                  2684.0 : KB Elevation
~Curve Information Block
#MNEM.UNIT      API CODE      Curve Description
#---------    -------------   ---------------------------------
 DEPT.F                   00 000 00 00: Depth (MD)
 CALI.IN                  00 001 00 00: Density Caliper
 DPHI.FRAC                00 002 00 00: Density Porosity
 DRHO.G/CM3               00 003 00 00: Density Correction
 GR.GAPI                  00 004 00 00: GAMMA RAY
 LGRD.OHM.M               00 005 00 00: Long Guard Resistivity
 NPHI.FRAC                00 006 00 00: Neutron Porosity
~A        DEPT        CALI        DPHI        DRHO          GR        LGRD        NPHI
# ...
      8176.648       7.690       0.134       0.017     115.666     156.266       0.197
      8177.148       7.689       0.133       0.020     119.136     185.297       0.196
      8177.648       7.689       0.136       0.022     115.846     228.040       0.193
      8178.148       7.688       0.136       0.025     111.816     264.567       0.190
      8178.648       7.688       0.136       0.029     108.359     287.445       0.189
      8179.148       7.688       0.133       0.020     107.027     298.165       0.191
      8179.648       7.687       0.133       0.007     109.798     271.264       0.195
      8180.148       7.687       0.141       0.000     112.461     264.296       0.200
      8180.648       7.683       0.145       0.001     114.271     259.908       0.207
      8181.148       7.669       0.144       0.005     117.134     259.603       0.214
      8181.648       7.668       0.143       0.009     119.708     263.213       0.218
      8182.148       7.668       0.143       0.012     122.838     277.928       0.222
      8182.648       7.667       0.145       0.016     125.241     299.638       0.226
      8183.148       7.650       0.145       0.020     126.218     371.990       0.228
      8183.648       7.650       0.143       0.021     123.974     350.557       0.230
      8184.148       7.632       0.142       0.021     120.784     317.966       0.230
      8184.648       7.631       0.146       0.021     120.466     289.127       0.228
      8185.148       7.630       0.154       0.021     121.731     276.348       0.226
      8185.648       7.630       0.156       0.019     126.037     259.937       0.227
      8186.148       7.630       0.151       0.010     124.904     252.659       0.227
      8186.648       7.629       0.147       0.003     120.455     239.947       0.228
      8187.148       7.646       0.143       0.005     116.212     224.711       0.228
      8187.648       7.646       0.140       0.011     112.254     206.416       0.228
      8188.148       7.645       0.137       0.014     111.627     173.706       0.228
      8188.648       7.662       0.134       0.017     111.367     160.156       0.228
      8189.148       7.662       0.129       0.020     111.352     204.961       0.227
      8189.648       7.661       0.124       0.021     112.023     222.002       0.225
      8190.148       7.665       0.123       0.017     115.597     236.018       0.222
      8190.648       7.677       0.122       0.010     118.040     229.505       0.220
      8191.148       7.677       0.124       0.005     119.642     191.375       0.217
      8191.648       7.677       0.133       0.002     120.208     164.676       0.216
      8192.148       7.676       0.133       0.001     118.893     187.568       0.219
      8192.648       7.676       0.130       0.004     120.011     220.996       0.222
      8193.148       7.676       0.134       0.007     121.922     319.904       0.226
      8193.648       7.675       0.153       0.011     123.334     316.457       0.231
      8194.148       7.675       0.157       0.017     126.270     305.040       0.231
      8194.648       7.674       0.158       0.021     129.183     288.066       0.231
      8195.148       7.674       0.159       0.026     128.505     260.669       0.231
      8195.648       7.673       0.159       0.028     122.820     228.051       0.231
      8196.148       7.673       0.155       0.028     120.278     215.250       0.231
      8196.648       7.673       0.151       0.020     119.977     202.837       0.233
      8197.148       7.672       0.147       0.011     119.931     194.967       0.235
      8197.648       7.672       0.147       0.008     121.294     204.322       0.237
      8198.148       7.671       0.148       0.007     123.025     239.607       0.239
      8198.648       7.671       0.148       0.008     123.992     336.783       0.237
      8199.148       7.670       0.146       0.011     124.418     -999.25       0.236
      8199.648       7.670       0.143       0.014     124.891     -999.25       0.235
      8200.148       7.669       0.138       0.018     125.206     -999.25       0.236
      8200.648       7.669       0.133       0.022     124.696     -999.25       0.237
      8201.148       7.669       0.132       0.025     124.177     -999.25       0.238
      8201.648       7.668       0.137       0.029     123.908     -999.25       0.239
      8202.148       7.668       0.142       0.033     123.500     -999.25       0.240
      8202.648       7.667       0.146       0.038     123.130     -999.25       0.238
      8203.148       7.667       0.148       0.042     123.123     -999.25       0.236
      8203.648       7.667       0.145       0.045     122.858     -999.25       0.235
      8204.148       7.666       0.135       0.049     122.857     -999.25       0.234
      8204.648       7.666       0.121       0.043     122.859     -999.25       0.234
      8205.148       7.665       0.113       0.036     122.861     -999.25       0.235
      8205.648       7.665       0.102       0.039     122.864     -999.25       0.236
      8206.148       7.664       0.094       0.041     122.866     -999.25       0.236
      8206.648       7.664       0.087       0.044     122.868     -999.25       0.235
      8207.148       7.664       0.084       0.048     122.870     -999.25       0.233
      8207.648       7.663       0.084       0.053     122.872     -999.25       0.230
      8208.148       7.663       0.086       0.055     123.130     -999.25       0.227
      8208.648       7.662       0.088       0.057     123.136     -999.25       0.225
      8209.148       7.662       0.092       0.059     123.138     -999.25       0.223
      8209.648       7.649       0.103       0.051     123.140     -999.25       0.222
      8210.148       7.521       0.106       0.040     123.142     -999.25       0.223
      8210.648       7.372       0.103       0.036     123.144     -999.25       0.224
      8211.148       7.314       0.103       0.034     123.146     -999.25       0.226
      8211.648       7.314       0.107       0.030     123.148     -999.25       0.229
      8212.148       7.313       0.109       0.027     123.150     -999.25       0.234
      8212.648       7.313       0.110       0.024     123.153     -999.25       0.236
      8213.148       7.329       0.110       0.021     123.155     -999.25       0.237
      8213.648       7.329       0.107       0.020     123.157     -999.25       0.237
      8214.148       7.329       0.103       0.021     123.159     -999.25       0.238
      8214.648       7.328       0.100       0.024     123.161     -999.25       0.238
      8215.148       7.328       0.095       0.026     123.163     -999.25       0.238
      8215.648       7.327       0.092       0.029     123.165     -999.25       0.237
      8216.148       7.327       0.091       0.032     123.167     -999.25       0.237
      8216.648       7.327       0.096       0.035     123.169     -999.25       0.237
      8217.148       7.326       0.100       0.032     123.171     -999.25       0.237
      8217.648       7.326       0.102       0.024     123.173     -999.25       0.237
      8218.148       7.325       0.104       0.020     123.175     -999.25       0.237
      8218.648       7.341       0.104       0.018     123.178     -999.25       0.238
      8219.148       7.358       0.104       0.017     123.179     -999.25       0.238
      8219.648       7.359       0.105       0.018     123.182     -999.25       0.237
      8220.148       7.360       0.108       0.019     123.184     -999.25       0.238
      8220.648       7.375       0.111       0.020     123.186     -999.25       0.238
      8221.148       7.375       0.109       0.020     123.188     -999.25       0.238
      8221.648       7.374       0.107       0.023     123.190     -999.25       0.238
      8222.148       7.374       0.104       0.026     123.192     -999.25       0.238
