~Version Information
 VERS.                 2.0: 
 WRAP.                  NO: 
 END.                PETRA:GeoPLUS Corporation
~Well Information Block
#MNEM.UNIT       Data Type    Information
#---------    -------------   ---------------------------------
 STRT.F           1828.6476:
 STOP.F           8230.1476:
 STEP.F              0.5000:
 NULL.              -999.25:
 COMP.                           : COMPANY
 FLD.       SPRABERRY            : FIELD
 LOC.                            : LOCATION
 DATE.      14-OCT-2016          : DATE
 WELL.                           : Well Name
 LABL.      42461324180000                   : Well Label
 APIN.      42461324180000       : API Number
 UWI.       42461324180000       : Unique Well Number
 NUMB.      3                    : Well Number
 OPER.      PIONEER NAT RES USA  : Operator Name
 LEAS.      UNIVERSITY `8`       : Lease Name
~Parameter Block
#MNEM.UNIT           VALUE            Description
#---------    --------------------   ---------------------------------
 EKB.F                  2684.0 : KB Elevation
~Curve Information Block
#MNEM.UNIT      API CODE      Curve Description
#---------    -------------   ---------------------------------
 DEPT.F                   00 000 00 00: Depth (MD)
 CALI.IN                  00 001 00 00: Density Caliper
 DPHI.FRAC                00 002 00 00: Density Porosity
 DRHO.G/CM3               00 003 00 00: Density Correction
 GR.GAPI                  00 004 00 00: GAMMA RAY
 LGRD.OHM.M               00 005 00 00: Long Guard Resistivity
 NPHI.FRAC                00 006 00 00: Neutron Porosity
~A        DEPT        CALI        DPHI        DRHO          GR        LGRD        NPHI
# ...
      6474.648       8.930       0.134       0.026     125.987      28.280       0.218
      6475.148       8.930       0.131       0.020     123.242      30.671       0.216
      6475.648       8.931       0.128       0.014     113.958      33.676       0.217
      6476.148       8.931       0.129       0.010     117.694      39.577       0.221
      6476.648       8.948       0.133       0.006     124.009      43.810       0.225
      6477.148       8.949       0.139       0.008     128.175      47.782       0.227
      6477.648       8.966       0.145       0.012     130.942      49.850       0.228
      6478.148       8.975       0.146       0.016     132.473      51.487       0.230
      6478.648       9.002       0.145       0.021     135.311      52.621       0.231
      6479.148       9.003       0.142       0.027     141.811      46.237       0.232
      6479.648       9.003       0.138       0.032     152.309      38.746       0.241
      6480.148       9.004       0.135       0.034     159.965      35.256       0.244
      6480.648       9.004       0.132       0.030     154.443      33.752       0.240
      6481.148       9.005       0.126       0.026     149.465      33.171       0.238
      6481.648       9.005       0.120       0.022     137.559      33.519       0.237
      6482.148       9.006       0.120       0.020     124.793      37.786       0.235
      6482.648       9.027       0.120       0.019     120.882      41.007       0.235
      6483.148       9.040       0.116       0.017     127.525      42.223       0.237
      6483.648       9.063       0.123       0.016     131.552      41.375       0.234
      6484.148       9.076       0.128       0.020     134.598      36.283       0.230
      6484.648       9.076       0.128       0.025     123.885      33.990       0.225
      6485.148       9.110       0.125       0.030     117.029      33.922       0.219
      6485.648       9.136       0.124       0.034     113.482      34.719       0.215
      6486.148       9.147       0.128       0.038     111.572      35.284       0.214
      6486.648       9.200       0.132       0.044     112.054      36.652       0.219
      6487.148       9.217       0.144       0.051     115.334      38.452       0.223
      6487.648       9.217       0.170       0.063     118.420      40.627       0.229
      6488.148       9.235       0.217       0.087     118.847      42.394       0.233
      6488.648       9.235       0.312       0.112     119.566      42.258       0.234
      6489.148       9.253       0.304       0.133     119.900      39.400       0.235
      6489.648       9.254       0.236       0.149     120.850      37.336       0.232
      6490.148       9.255       0.222       0.161     121.736      38.209       0.231
      6490.648       9.221       0.199       0.167     122.909      38.979       0.235
      6491.148       9.221       0.192       0.160     124.410      40.722       0.236
      6491.648       9.221       0.182       0.113     125.995      41.253       0.234
      6492.148       9.192       0.173       0.075     129.044      42.381       0.229
      6492.648       9.155       0.157       0.055     131.983      43.795       0.221
      6493.148       9.155       0.145       0.043     133.278      45.520       0.204
      6493.648       9.121       0.149       0.031     133.470      48.149       0.191
      6494.148       9.094       0.143       0.022     131.771      52.480       0.181
      6494.648       9.085       0.136       0.021     127.582      55.448       0.169
      6495.148       9.086       0.129       0.021     103.601      63.285       0.155
      6495.648       9.086       0.117       0.026      67.792      72.682       0.141
      6496.148       9.087       0.104       0.038      61.278      88.245       0.140
      6496.648       9.087       0.104       0.048      74.216     173.632       0.152
      6497.148       9.087       0.113       0.057      88.849     137.652       0.169
      6497.648       9.097       0.121       0.074     102.108      86.300       0.191
      6498.148       9.138       0.133       0.090     117.343      56.104       0.206
      6498.648       9.156       0.149       0.109     116.561      42.605       0.221
      6499.148       9.208       0.174       0.128     115.865      44.160       0.229
      6499.648       9.232       0.192       0.145     116.126      51.127       0.232
      6500.148       9.294       0.205       0.178     117.719      54.773       0.229
      6500.648       9.328       0.229       0.216     122.921      56.609       0.225
      6501.148       9.431       0.269       0.219     126.240      56.239       0.222
      6501.648       9.580       0.276       0.207     125.616      53.333       0.219
      6502.148       9.844       0.281       0.193     125.013      50.381       0.219
      6502.648      10.546       0.315       0.175     125.933      45.447       0.224
      6503.148      10.785       0.318       0.158     122.823      40.127       0.227
      6503.648       9.477       0.314       0.164     118.966      36.804       0.229
      6504.148       9.145       0.307       0.173     116.848      35.051       0.230
      6504.648       8.966       0.285       0.184     121.055      35.096       0.229
      6505.148       8.883       0.255       0.195     124.141      43.215       0.226
      6505.648       9.361       0.236       0.207     120.818      51.435       0.223
      6506.148       9.392       0.244       0.240     118.202      55.072       0.221
      6506.648       9.485       0.265       0.288     119.819      58.954       0.219
      6507.148       9.629       0.298       0.336     124.173      66.422       0.220
      6507.648       9.846       0.322       0.355     128.167      75.495       0.221
      6508.148       9.851       0.351       0.325     127.864      83.365       0.220
      6508.648       9.641       0.392       0.051     119.872      95.504       0.217
      6509.148       9.516       0.396      -0.095     107.126     118.737       0.215
      6509.648       9.478       0.381      -0.055      98.528      95.391       0.214
      6510.148       9.575       0.361      -0.016      92.949      75.894       0.217
      6510.648       9.443       0.330       0.044      92.952      66.870       0.221
      6511.148       9.376       0.303       0.102     100.940      61.348       0.224
      6511.648       9.442       0.280       0.145     106.563      58.635       0.227
      6512.148       9.460       0.269       0.194     109.585      55.445       0.228
      6512.648       9.362       0.269       0.254     110.749      59.415       0.228
      6513.148       9.183       0.287       0.273     110.902      52.347       0.225
      6513.648       8.969       0.310       0.212     102.489      45.582       0.223
      6514.148       8.899       0.336       0.045     100.297      41.910       0.222
      6514.648       9.293       0.356      -0.076     103.675      39.734       0.222
      6515.148       9.731       0.379      -0.059     109.214      43.859       0.222
      6515.648      10.018       0.390      -0.035     113.089      45.149       0.223
      6516.148      10.008       0.384       0.048     119.754      45.164       0.224
      6516.648       9.635       0.362       0.187     124.064      45.160       0.224
      6517.148       9.450       0.334       0.272     114.736      44.171       0.223
      6517.648       9.383       0.305       0.318     103.970      41.192       0.222
      6518.148       9.389       0.277       0.348      97.869      38.581       0.220
      6518.648       9.449       0.252       0.367     103.339      35.943       0.217
      6519.148       9.440       0.232       0.381     108.441      33.958       0.214
      6519.648       9.320       0.223       0.390     117.695      31.319       0.214
      6520.148       9.300       0.217       0.401     127.405      28.122       0.223
