~Version Information
 VERS.                 2.0: 
 WRAP.                  NO: 
 END.                PETRA:GeoPLUS Corporation
~Well Information Block
#MNEM.UNIT       Data Type    Information
#---------    -------------   ---------------------------------
 STRT.F           1828.6476:
 STOP.F           8230.1476:
 STEP.F              0.5000:
 NULL.              -999.25:
 COMP.                           : COMPANY
 FLD.       SPRABERRY            : FIELD
 LOC.                            : LOCATION
 DATE.      14-OCT-2016          : DATE
 WELL.                           : Well Name
 LABL.      42461324180000                   : Well Label
 APIN.      42461324180000       : API Number
 UWI.       42461324180000       : Unique Well Number
 NUMB.      3                    : Well Number
 OPER.      PIONEER NAT RES USA  : Operator Name
 LEAS.      UNIVERSITY `8`       : Lease Name
~Parameter Block
#MNEM.UNIT           VALUE            Description
#---------    --------------------   ---------------------------------
 EKB.F                  2684.0 : KB Elevation
~Curve Information Block
#MNEM.UNIT      API CODE      Curve Description
#---------    -------------   ---------------------------------
 DEPT.F                   00 000 00 00: Depth (MD)
 CALI.IN                  00 001 00 00: Density Caliper
 DPHI.FRAC                00 002 00 00: Density Porosity
 DRHO.G/CM3               00 003 00 00: Density Correction
 GR.GAPI                  00 004 00 00: GAMMA RAY
 LGRD.OHM.M               00 005 00 00: Long Guard Resistivity
 NPHI.FRAC                00 006 00 00: Neutron Porosity
~A        DEPT        CALI        DPHI        DRHO          GR        LGRD        NPHI
# ...
      2656.648       6.991      -0.207       0.924     125.611     982.187       0.238
      2657.148       6.990      -0.209       0.927     125.613     983.786       0.238
      2657.648       6.989      -0.210       0.929     125.616     985.384       0.238
      2658.148       6.988      -0.211       0.931     125.619     986.980       0.238
      2658.648       6.986      -0.212       0.934     125.621     988.574       0.238
      2659.148       6.985      -0.214       0.936     125.624     990.167       0.238
      2659.648       6.984      -0.215       0.938     125.626     991.759       0.238
      2660.148       6.983      -0.216       0.941     125.629     993.349       0.238
      2660.648       6.982      -0.217       0.943     125.631     994.937       0.238
      2661.148       6.980      -0.218       0.945     125.634     996.524       0.238
      2661.648       6.979      -0.220       0.948     125.636     998.109       0.238
      2662.148       6.978      -0.221       0.950     125.639     999.693       0.238
      2662.648       6.977      -0.222       0.952     125.641    1001.275       0.238
      2663.148       6.975      -0.223       0.954     125.644    1002.855       0.238
      2663.648       6.974      -0.224       0.957     125.646    1004.434       0.238
      2664.148       6.973      -0.226       0.959     125.649    1006.012       0.238
      2664.648       6.972      -0.227       0.961     125.651    1007.588       0.238
      2665.148       6.971      -0.228       0.964     125.653    1009.162       0.238
      2665.648       6.969      -0.229       0.966     125.656    1010.735       0.238
      2666.148       6.968      -0.231       0.968     125.658    1012.306       0.238
      2666.648       6.967      -0.232       0.970     125.661    1013.876       0.238
      2667.148       6.966      -0.233       0.973     125.663    1015.444       0.238
      2667.648       6.964      -0.234       0.975     125.665    1017.010       0.238
      2668.148       6.963      -0.235       0.977     125.668    1018.575       0.238
      2668.648       6.962      -0.237       0.979     125.670    1020.139       0.238
      2669.148       6.961      -0.238       0.981     125.672    1021.700       0.238
      2669.648       6.960      -0.239       0.984     125.674    1023.261       0.238
      2670.148       6.958      -0.240       0.986     125.677    1024.820       0.238
      2670.648       6.957      -0.242       0.988     125.679    1026.377       0.238
      2671.148       6.956      -0.243       0.990     125.681    1027.932       0.238
      2671.648       6.955      -0.244       0.993     125.684    1029.487       0.238
      2672.148       6.954      -0.245       0.995     125.686    1031.039       0.238
      2672.648       6.952      -0.247       0.997     125.688    1032.590       0.238
      2673.148       6.951      -0.248       0.999     125.690    1034.140       0.238
      2673.648       6.950      -0.249       1.001     125.692    1035.687       0.238
      2674.148       6.949      -0.250       1.003     125.695    1037.234       0.238
      2674.648       6.948      -0.252       1.006     125.697    1038.779       0.238
      2675.148       6.946      -0.253       1.008     125.699    1040.322       0.238
      2675.648       6.945      -0.254       1.010     125.701    1041.864       0.238
      2676.148       6.944      -0.255       1.012     125.703    1043.404       0.238
      2676.648       6.943      -0.256       1.014     125.705    1044.942       0.238
      2677.148       6.941      -0.258       1.016     125.707    1046.480       0.238
      2677.648       6.940      -0.259       1.019     125.710    1048.015       0.238
      2678.148       6.939      -0.260       1.021     125.712    1049.549       0.238
      2678.648       6.938      -0.261       1.023     125.714    1051.082       0.238
      2679.148       6.937      -0.263       1.025     125.716    1052.612       0.238
      2679.648       6.935      -0.264       1.027     125.718    1054.142       0.238
      2680.148       6.934      -0.265       1.029     125.720    1055.670       0.238
      2680.648       6.933      -0.266       1.031     125.722    1057.196       0.238
      2681.148       6.932      -0.268       1.034     125.724    1058.721       0.238
      2681.648       6.931      -0.269       1.036     125.726    1060.244       0.238
      2682.148       6.929      -0.270       1.038     125.728    1061.765       0.238
      2682.648       6.928      -0.271       1.040     125.730    1063.286       0.238
      2683.148       6.927      -0.273       1.042     125.732    1064.804       0.238
      2683.648       6.926      -0.274       1.044     125.734    1066.321       0.238
      2684.148       6.925      -0.275       1.046     125.736    1067.837       0.238
      2684.648       6.923      -0.276       1.048     125.738    1069.351       0.238
      2685.148       6.922      -0.278       1.050     125.739    1070.863       0.238
      2685.648       6.921      -0.279       1.052     125.741    1072.374       0.238
      2686.148       6.920      -0.280       1.055     125.743    1073.883       0.238
      2686.648       6.919      -0.281       1.057     125.745    1075.391       0.238
      2687.148       6.917      -0.283       1.059     125.747    1076.897       0.238
      2687.648       6.916      -0.284       1.061     125.749    1078.402       0.238
      2688.148       6.915      -0.285       1.063     125.751    1079.905       0.238
      2688.648       6.914      -0.287       1.065     125.752    1081.407       0.238
      2689.148       6.913      -0.288       1.067     125.754    1082.907       0.238
      2689.648       6.911      -0.289       1.069     125.756    1084.406       0.238
      2690.148       6.910      -0.290       1.071     125.758    1085.903       0.238
      2690.648       6.909      -0.292       1.073     125.760    1087.398       0.238
      2691.148       6.908      -0.293       1.075     125.761    1088.892       0.238
      2691.648       6.907      -0.294       1.077     125.763    1090.385       0.238
      2692.148       6.905      -0.295       1.079     125.765    1091.876       0.238
      2692.648       6.904      -0.297       1.081     125.767    1093.365       0.238
      2693.148       6.903      -0.298       1.083     125.768    1094.853       0.238
      2693.648       6.902      -0.299       1.085     125.770    1096.339       0.238
      2694.148       6.901      -0.300       1.087     125.772    1097.824       0.238
      2694.648       6.899      -0.302       1.089     125.773    1099.307       0.238
      2695.148       6.898      -0.303       1.091     125.775    1100.789       0.238
      2695.648       6.897      -0.304       1.093     125.777    1102.269       0.238
      2696.148       6.896      -0.306       1.095     125.778    1103.748       0.238
      2696.648       6.895      -0.307       1.097     125.780    1105.225       0.238
      2697.148       6.893      -0.308       1.099     125.782    1106.701       0.238
      2697.648       6.892      -0.309       1.101     125.783    1108.175       0.238
      2698.148       6.891      -0.311       1.103     125.785    1109.647       0.238
      2698.648       6.890      -0.312       1.105     125.786    1111.118       0.238
      2699.148       6.889      -0.313       1.107     125.788    1112.588       0.238
      2699.648       6.887      -0.314       1.109     125.790    1114.056       0.238
      2700.148       6.886      -0.316       1.111     125.791    1115.522       0.238
      2700.648       6.885      -0.317       1.113     125.793    1116.987       0.238
      2701.148       6.884      -0.318       1.115     125.794    1118.451       0.238
      2701.648       6.883      -0.320       1.117     125.796    1119.913       0.238
      2702.148       6.881      -0.321       1.119     125.797    1121.373       0.238
