~Version Information
 VERS.                 2.0: 
 WRAP.                  NO: 
 END.                PETRA:GeoPLUS Corporation
~Well Information Block
#MNEM.UNIT       Data Type    Information
#---------    -------------   ---------------------------------
 STRT.F           1828.6476:
 STOP.F           8230.1476:
 STEP.F              0.5000:
 NULL.              -999.25:
 COMP.                           : COMPANY
 FLD.       SPRABERRY            : FIELD
 LOC.                            : LOCATION
 DATE.      14-OCT-2016          : DATE
 WELL.                           : Well Name
 LABL.      42461324180000                   : Well Label
 APIN.      42461324180000       : API Number
 UWI.       42461324180000       : Unique Well Number
 NUMB.      3                    : Well Number
 OPER.      PIONEER NAT RES USA  : Operator Name
 LEAS.      UNIVERSITY `8`       : Lease Name
~Parameter Block
#MNEM.UNIT           VALUE            Description
#---------    --------------------   ---------------------------------
 EKB.F                  2684.0 : KB Elevation
~Curve Information Block
#MNEM.UNIT      API CODE      Curve Description
#---------    -------------   ---------------------------------
 DEPT.F                   00 000 00 00: Depth (MD)
 CALI.IN                  00 001 00 00: Density Caliper
 DPHI.FRAC                00 002 00 00: Density Porosity
 DRHO.G/CM3               00 003 00 00: Density Correction
 GR.GAPI                  00 004 00 00: GAMMA RAY
 LGRD.OHM.M               00 005 00 00: Long Guard Resistivity
 NPHI.FRAC                00 006 00 00: Neutron Porosity
~A        DEPT        CALI        DPHI        DRHO          GR        LGRD        NPHI
# ...
      4772.648       5.434      -5.983      -8.117      90.112    -346.474       0.235
      4773.148       5.435      -5.983      -8.118      90.108    -347.305       0.235
      4773.648       5.435      -5.983      -8.120      90.105    -348.136       0.235
      4774.148       5.436      -5.983      -8.122      90.101    -348.966       0.235
      4774.648       5.437      -5.983      -8.123      90.097    -349.796       0.235
      4775.148       5.438      -5.983      -8.125      90.093    -350.625       0.235
      4775.648       5.438      -5.983      -8.126      90.089    -351.454       0.235
      4776.148       5.439      -5.983      -8.128      90.085    -352.283       0.235
      4776.648       5.440      -5.982      -8.130      90.082    -353.111       0.235
      4777.148       5.440      -5.982      -8.131      90.078    -353.939       0.235
      4777.648       5.441      -5.982      -8.133      90.074    -354.767       0.235
      4778.148       5.442      -5.982      -8.134      90.070    -355.594       0.235
      4778.648       5.442      -5.982      -8.136      90.066    -356.420       0.235
      4779.148       5.443      -5.982      -8.137      90.063    -357.246       0.235
      4779.648       5.444      -5.982      -8.139      90.059    -358.072       0.235
      4780.148       5.444      -5.982      -8.140      90.055    -358.897       0.235
      4780.648       5.445      -5.981      -8.142      90.052    -359.722       0.235
      4781.148       5.446      -5.981      -8.144      90.048    -360.547       0.235
      4781.648       5.446      -5.981      -8.145      90.044    -361.371       0.235
      4782.148       5.447      -5.981      -8.147      90.040    -362.194       0.235
      4782.648       5.448      -5.981      -8.148      90.037    -363.017       0.235
      4783.148       5.448      -5.981      -8.150      90.033    -363.840       0.235
      4783.648       5.449      -5.981      -8.151      90.029    -364.663       0.235
      4784.148       5.450      -5.980      -8.153      90.026    -365.485       0.235
      4784.648       5.451      -5.980      -8.154      90.022    -366.306       0.235
      4785.148       5.451      -5.980      -8.156      90.018    -367.127       0.235
      4785.648       5.452      -5.980      -8.157      90.015    -367.948       0.235
      4786.148       5.453      -5.980      -8.159      90.011    -368.768       0.235
      4786.648       5.453      -5.980      -8.160      90.008    -369.588       0.235
      4787.148       5.454      -5.979      -8.162      90.004    -370.407       0.235
      4787.648       5.455      -5.979      -8.163      90.000    -371.226       0.235
      4788.148       5.455      -5.979      -8.165      89.997    -372.044       0.235
      4788.648       5.456      -5.979      -8.166      89.993    -372.862       0.235
      4789.148       5.457      -5.979      -8.168      89.990    -373.680       0.235
      4789.648       5.457      -5.979      -8.170      89.986    -374.497       0.235
      4790.148       5.458      -5.978      -8.171      89.983    -375.314       0.235
      4790.648       5.459      -5.978      -8.173      89.979    -376.130       0.235
      4791.148       5.460      -5.978      -8.174      89.976    -376.946       0.235
      4791.648       5.460      -5.978      -8.176      89.972    -377.762       0.235
      4792.148       5.461      -5.978      -8.177      89.969    -378.577       0.235
      4792.648       5.462      -5.978      -8.178      89.965    -379.391       0.235
      4793.148       5.462      -5.977      -8.180      89.962    -380.206       0.235
      4793.648       5.463      -5.977      -8.181      89.958    -381.019       0.235
      4794.148       5.464      -5.977      -8.183      89.955    -381.833       0.235
      4794.648       5.464      -5.977      -8.184      89.951    -382.645       0.235
      4795.148       5.465      -5.977      -8.186      89.948    -383.458       0.235
      4795.648       5.466      -5.977      -8.187      89.944    -384.270       0.235
      4796.148       5.467      -5.976      -8.189      89.941    -385.081       0.235
      4796.648       5.467      -5.976      -8.190      89.937    -385.893       0.235
      4797.148       5.468      -5.976      -8.192      89.934    -386.703       0.235
      4797.648       5.469      -5.976      -8.193      89.931    -387.513       0.235
      4798.148       5.469      -5.976      -8.195      89.927    -388.323       0.235
      4798.648       5.470      -5.975      -8.196      89.924    -389.133       0.235
      4799.148       5.471      -5.975      -8.198      89.921    -389.941       0.235
      4799.648       5.472      -5.975      -8.199      89.917    -390.750       0.235
      4800.148       5.472      -5.975      -8.200      89.914    -391.558       0.235
      4800.648       5.473      -5.975      -8.202      89.911    -392.366       0.235
      4801.148       5.474      -5.974      -8.203      89.907    -393.173       0.235
      4801.648       5.474      -5.974      -8.205      89.904    -393.979       0.235
      4802.148       5.475      -5.974      -8.206      89.901    -394.786       0.235
      4802.648       5.476      -5.974      -8.208      89.897    -395.592       0.235
      4803.148       5.476      -5.974      -8.209      89.894    -396.397       0.235
      4803.648       5.477      -5.973      -8.211      89.891    -397.202       0.235
      4804.148       5.478      -5.973      -8.212      89.887    -398.006       0.235
      4804.648       5.479      -5.973      -8.213      89.884    -398.810       0.235
      4805.148       5.479      -5.973      -8.215      89.881    -399.614       0.235
      4805.648       5.480      -5.973      -8.216      89.878    -400.417       0.235
      4806.148       5.481      -5.972      -8.218      89.874    -401.220       0.235
      4806.648       5.482      -5.972      -8.219      89.871    -402.022       0.235
      4807.148       5.482      -5.972      -8.220      89.868    -402.824       0.235
      4807.648       5.483      -5.972      -8.222      89.865    -403.625       0.235
      4808.148       5.484      -5.971      -8.223      89.862    -404.426       0.235
      4808.648       5.484      -5.971      -8.225      89.858    -405.227       0.235
      4809.148       5.485      -5.971      -8.226      89.855    -406.027       0.235
      4809.648       5.486      -5.971      -8.227      89.852    -406.826       0.235
      4810.148       5.487      -5.971      -8.229      89.849    -407.625       0.235
      4810.648       5.487      -5.970      -8.230      89.846    -408.424       0.235
      4811.148       5.488      -5.970      -8.232      89.843    -409.222       0.235
      4811.648       5.489      -5.970      -8.233      89.840    -410.020       0.235
      4812.148       5.489      -5.970      -8.234      89.836    -410.817       0.235
      4812.648       5.490      -5.969      -8.236      89.833    -411.614       0.235
      4813.148       5.491      -5.969      -8.237      89.830    -412.411       0.235
      4813.648       5.492      -5.969      -8.239      89.827    -413.207       0.235
      4814.148       5.492      -5.969      -8.240      89.824    -414.002       0.235
      4814.648       5.493      -5.968      -8.241      89.821    -414.797       0.235
      4815.148       5.494      -5.968      -8.243      89.818    -415.592       0.235
      4815.648       5.494      -5.968      -8.244      89.815    -416.386       0.235
      4816.148       5.495      -5.968      -8.245      89.812    -417.180       0.235
      4816.648       5.496      -5.967      -8.247      89.809    -417.973       0.235
      4817.148       5.497      -5.967      -8.248      89.806    -418.766       0.235
      4817.648       5.497      -5.967      -8.249      89.803    -419.558       0.235
      4818.148       5.498      -5.967      -8.251      89.800    -420.350       0.235
