~Version Information
 VERS.                 2.0: 
 WRAP.                 YES: 
 END.                PETRA:GeoPLUS Corporation
~Well Information Block
#MNEM.UNIT       Data Type    Information
#---------    -------------   ---------------------------------
 STRT.F             54.8640:
 STOP.F          11443.3640:
 STEP.F              0.5000:
 NULL.              -999.25:
 COMP.                           : COMPANY
 FLD.       BENEDUM              : FIELD
 LOC.                            : LOCATION
 DATE.      14-OCT-2016          : DATE
 WELL.                           : Well Name
 LABL.      42461338640000                   : Well Label
 APIN.      42461338640000       : API Number
 UWI.       42461338640000       : Unique Well Number
 NUMB.      1                    : Well Number
 OPER.      APACHE CORP          : Operator Name
 LEAS.      UNIVERSITY `4`       : Lease Name
~Parameter Block
#MNEM.UNIT           VALUE            Description
#---------    --------------------   ---------------------------------
 EKB.F                  2672.0 : KB Elevation
~Curve Information Block
#MNEM.UNIT      API CODE      Curve Description
#---------    -------------   ---------------------------------
 DEPT.F                   00 000 00 00: Depth (MD)
 DPLS.FRAC                00 001 00 00: DENSITY POROSITY  LIMESTONE
 DT.US/FT                 00 002 00 00: Delta-T Compressional
 GR.GAPI                  00 003 00 00: GAMMA RAY
 HCAL.IN                  00 004 00 00: HIGH RESOLUTION CALIPER
 HDRA.G/CM3               00 005 00 00: HIGH RESOLUTION DENSITY CORRECTION
 LLD.OHM.M                00 006 00 00: Laterolog Deep
 LLS.OHM.M                00 007 00 00: Laterolog Shallow
 PAY_TOC.                 00 008 00 00: TOC proxy
 PEFZ.B/E                 00 009 00 00: PHOTO ELECTRIC FACTOR - HIGH RESOLUTION
 RHOZ.G/CM3               00 010 00 00: BULK DENSITY - STD RESOLUTION
 RXOZ.OHM.M               00 011 00 00: RESISTIVITY OF FLUSHED ZONE - STD RESOLU
 TENS.LB                  00 012 00 00: Tension
 TNPH.V/V                 00 013 00 00: Thermal Neutron Porosity
 XDPHI.FRAC               00 014 00 00: 
~A
# ...
    2122.864
       0.058      77.124      10.478       8.520       0.013
      31.325      40.131     -999.25       3.304       2.607
      16.788    1840.000       0.018     -999.25
    2123.364
       0.081      77.725       9.436       8.500       0.015
      34.980      42.952     -999.25       3.279       2.569
      18.445    1840.000       0.018     -999.25
    2123.864
       0.089      77.799       8.695       8.500      -0.013
      34.145      36.966     -999.25       3.264       2.564
      22.619    1840.000       0.019     -999.25
    2124.364
       0.082      78.196       8.178       8.508       0.003
      40.455      46.227     -999.25       2.972       2.563
      30.566    1840.000       0.031     -999.25
    2124.864
       0.082      77.642       9.625       8.530       0.016
      37.922      38.827     -999.25       3.114       2.577
      24.378    1840.000       0.059     -999.25
    2125.364
       0.084      76.723      11.771       8.531       0.000
      40.348      49.036     -999.25       3.180       2.593
      32.977    1840.000       0.261     -999.25
    2125.864
       0.068      69.310      12.541       8.459       0.018
      22.718      25.486     -999.25       3.215       2.602
      14.376    1840.000       0.350     -999.25
    2126.364
       0.074      75.887       8.042       8.367       0.009
      98.689     143.279     -999.25       3.712       2.598
     146.384    1840.000       0.379     -999.25
    2126.864
       0.074      79.155       7.199       8.431       0.014
      42.346      43.158     -999.25       3.406       2.589
      24.028    1840.000       0.432     -999.25
    2127.364
       0.087      66.461       8.099       8.470       0.020
      35.446      46.768     -999.25       3.247       2.556
      33.640    1840.000       0.464     -999.25
    2127.864
       0.039      75.316       8.739       8.385       0.012
      87.215      86.976     -999.25       4.001       2.625
     193.452    1840.000       0.577     -999.25
    2128.364
       0.081      77.478       9.351       8.457       0.016
      39.066      36.698     -999.25       3.468       2.597
      46.858    1840.000       0.663     -999.25
    2128.864
       0.093      77.703       9.963       8.522       0.001
      33.188      33.979     -999.25       3.307       2.554
      26.528    1840.000       0.673     -999.25
    2129.364
       0.083      78.081      10.403       8.540       0.005
      40.440      50.918     -999.25       3.091       2.568
      36.298    1840.000       0.676     -999.25
    2129.864
       0.087      78.089       8.851       8.540       0.031
      33.534      44.187     -999.25       3.150       2.563
      28.111    1840.000       0.626     -999.25
    2130.364
       0.094      76.312       8.335       8.500       0.028
      47.698      54.683     -999.25       3.240       2.556
      37.057    1840.000       0.520     -999.25
    2130.864
       0.101      68.490       8.029       8.420       0.019
      57.616      56.498     -999.25       3.246       2.549
      51.222    1840.000       0.474     -999.25
    2131.364
       0.083      73.932       7.905       8.420       0.009
     321.874     369.091     -999.25       3.796       2.562
     479.839    1840.000       0.409     -999.25
    2131.864
       0.080      75.157       8.196       8.460       0.006
      73.678      84.489     -999.25       3.478       2.579
      75.907    1840.000       0.378     -999.25
    2132.364
       0.078      77.296       8.502       8.483       0.011
      35.638      37.906     -999.25       3.350       2.570
      37.465    1840.000       0.474     -999.25
    2132.864
       0.080      78.387       9.203       8.542       0.033
      37.777      40.412     -999.25       3.329       2.569
      31.651    1840.000       0.585     -999.25
    2133.364
       0.079      77.555      11.251       8.576       0.028
      33.642      39.124     -999.25       3.261       2.573
      29.689    1840.000       0.603     -999.25
    2133.864
       0.062      74.197      15.056       8.577       0.011
      27.319      30.231     -999.25       3.409       2.596
      26.828    1840.000       0.601     -999.25
    2134.364
       0.080      77.671      21.509       8.490       0.013
      52.832      55.545     -999.25       3.365       2.553
      55.543    1840.000       0.522     -999.25
    2134.864
       0.090      71.349      32.083       8.564       0.029
      37.240      50.487     -999.25       3.291       2.552
      36.168    1840.000       0.480     -999.25
    2135.364
       0.090      67.348      33.232       8.571       0.072
      73.287      55.779     -999.25       3.316       2.595
      42.026    1840.000       0.390     -999.25
    2135.864
       0.040      74.780      33.532       8.594       0.056
      74.870      85.624     -999.25       3.596       2.626
      88.050    1840.000       0.313     -999.25
    2136.364
       0.091      75.353      24.913       8.633       0.030
      40.561      41.252     -999.25       3.135       2.587
      33.963    1840.000       0.295     -999.25
    2136.864
       0.079      72.395      12.155       8.653       0.028
      24.259      25.989     -999.25       3.111       2.559
      19.507    1840.000       0.370     -999.25
    2137.364
       0.073      73.046       9.363       8.653       0.007
      22.812      23.073     -999.25       3.163       2.573
      20.039    1840.000       0.560     -999.25
    2137.864
       0.086      77.159       7.220       8.651       0.035
      24.289      26.239     -999.25       3.047       2.586
      15.534    1840.000       0.693     -999.25
    2138.364
       0.076      69.311       6.166       8.643       0.015
      19.867      19.803     -999.25       3.664       2.605
      19.311    1840.000       0.700     -999.25
    2138.864
       0.060      71.794       5.879       8.609       0.015
      39.991      44.189     -999.25       3.504       2.592
      44.633    1840.000       0.700     -999.25
    2139.364
       0.083      75.777       5.747       8.611       0.017
      23.379      24.940     -999.25       3.159       2.558
      33.162    1840.000       0.698     -999.25
    2139.864
       0.069      68.431       7.503       8.625       0.002
      15.117      14.773     -999.25       3.230       2.574
      14.491    1840.000       0.633     -999.25
    2140.364
       0.069      75.313       8.510       8.612       0.000
     112.743     112.035     -999.25       4.062       2.600
     328.249    1840.000       0.575     -999.25
    2140.864
       0.074      79.217      10.535       8.812       0.003
      17.636      18.489     -999.25       3.501       2.568
      23.526    1840.000       0.522     -999.25
    2141.364
       0.086      77.658      12.678       8.939       0.003
      19.506      20.506     -999.25       3.200       2.534
      22.245    1840.000       0.470     -999.25
    2141.864
       0.106      76.574      14.820       8.869       0.013
      36.092      41.805     -999.25       3.289       2.534
      48.121    1840.000       0.417     -999.25
    2142.364
       0.099      77.579      17.616       8.772       0.033
      33.610      30.375     -999.25       3.397       2.535
      43.607    1840.000       0.346     -999.25
    2142.864
       0.101      77.723      20.946       8.796       0.032
      26.858      28.809     -999.25       3.038       2.540
      29.355    1840.000       0.251     -999.25
    2143.364
       0.122      78.104      24.822       8.743      -0.005
      29.995      29.992     -999.25       2.959       2.521
      34.805    1857.248       0.166     -999.25
    2143.864
       0.101      77.231      28.260       8.694       0.008
      35.082      36.556     -999.25       3.155       2.516
      59.275    1860.000       0.157     -999.25
    2144.364
       0.107      67.823      29.827       8.637       0.003
      33.591      36.005     -999.25       3.124       2.531
      38.664    1860.000       0.164     -999.25
