~Version Information
 VERS.                 2.0: 
 WRAP.                 YES: 
 END.                PETRA:GeoPLUS Corporation
~Well Information Block
#MNEM.UNIT       Data Type    Information
#---------    -------------   ---------------------------------
 STRT.F             54.8640:
 STOP.F          11443.3640:
 STEP.F              0.5000:
 NULL.              -999.25:
 COMP.                           : COMPANY
 FLD.       BENEDUM              : FIELD
 LOC.                            : LOCATION
 DATE.      14-OCT-2016          : DATE
 WELL.                           : Well Name
 LABL.      42461338640000                   : Well Label
 APIN.      42461338640000       : API Number
 UWI.       42461338640000       : Unique Well Number
 NUMB.      1                    : Well Number
 OPER.      APACHE CORP          : Operator Name
 LEAS.      UNIVERSITY `4`       : Lease Name
~Parameter Block
#MNEM.UNIT           VALUE            Description
#---------    --------------------   ---------------------------------
 EKB.F                  2672.0 : KB Elevation
~Curve Information Block
#MNEM.UNIT      API CODE      Curve Description
#---------    -------------   ---------------------------------
 DEPT.F                   00 000 00 00: Depth (MD)
 DPLS.FRAC                00 001 00 00: DENSITY POROSITY  LIMESTONE
 DT.US/FT                 00 002 00 00: Delta-T Compressional
 GR.GAPI                  00 003 00 00: GAMMA RAY
 HCAL.IN                  00 004 00 00: HIGH RESOLUTION CALIPER
 HDRA.G/CM3               00 005 00 00: HIGH RESOLUTION DENSITY CORRECTION
 LLD.OHM.M                00 006 00 00: Laterolog Deep
 LLS.OHM.M                00 007 00 00: Laterolog Shallow
 PAY_TOC.                 00 008 00 00: TOC proxy
 PEFZ.B/E                 00 009 00 00: PHOTO ELECTRIC FACTOR - HIGH RESOLUTION
 RHOZ.G/CM3               00 010 00 00: BULK DENSITY - STD RESOLUTION
 RXOZ.OHM.M               00 011 00 00: RESISTIVITY OF FLUSHED ZONE - STD RESOLU
 TENS.LB                  00 012 00 00: Tension
 TNPH.V/V                 00 013 00 00: Thermal Neutron Porosity
 XDPHI.FRAC               00 014 00 00: 
~A
# ...
    8084.864
       0.080      70.285     106.170       8.347       0.007
      22.215      26.105       0.000       2.975       2.575
      29.658    3380.000       0.157       0.079
    8085.364
       0.081      68.870      98.161       8.347       0.007
      23.241      25.820       0.000       2.853       2.578
      28.854    3380.000       0.148       0.076
    8085.864
       0.081      67.430      87.417       8.347       0.007
      24.724      26.509       0.000       2.781       2.588
      30.068    3380.000       0.134       0.070
    8086.364
       0.082      64.849      76.314       8.330       0.007
      29.763      28.369       0.000       2.754       2.600
      32.738    3380.000       0.120       0.063
    8086.864
       0.077      62.214      65.927       8.309       0.007
      46.274      44.846       0.000       2.816       2.614
      44.986    3380.000       0.102       0.055
    8087.364
       0.070      59.823      58.684       8.253       0.006
      82.427      74.502       0.000       2.995       2.642
      79.798    3417.768       0.084       0.038
    8087.864
       0.040      58.181      54.439       8.207       0.006
     150.743     122.490       0.000       3.193       2.655
     145.077    3404.133       0.078       0.031
    8088.364
       0.021      59.081      54.811       8.205       0.003
     197.906     201.533       0.000       3.447       2.666
     269.892    3386.073       0.077       0.025
    8088.864
       0.017      60.505      61.479       8.182       0.000
     196.198     239.703       0.000       3.612       2.667
     329.816    3422.214       0.084       0.025
    8089.364
       0.016      64.234      71.461       8.201      -0.004
      67.934     126.136       0.000       3.596       2.660
     157.878    3414.675       0.103       0.030
    8089.864
       0.030      66.959      81.273       8.222      -0.003
      46.257      65.332       0.000       3.445       2.646
      66.608    3415.701       0.122       0.039
    8090.364
       0.051      68.447      86.539       8.244       0.001
      31.425      39.024       0.000       3.246       2.632
      46.016    3438.088       0.140       0.047
    8090.864
       0.059      69.583      92.719       8.245       0.003
      26.986      32.945       0.000       3.056       2.616
      38.155    3440.000       0.149       0.056
    8091.364
       0.067      71.344     109.180       8.245       0.010
      33.113      39.370       0.000       2.952       2.615
      38.622    3440.000       0.155       0.056
    8091.864
       0.074      73.918     144.568       8.245       0.014
      38.165      48.261       0.000       2.850       2.602
      44.753    3440.000       0.171       0.064
    8092.364
       0.081      76.711     155.253       8.245       0.014
      38.484      49.417       0.000       2.849       2.589
      50.525    3440.000       0.204       0.072
    8092.864
       0.088      79.172     167.982       8.245       0.015
      39.875      50.336       0.000       2.925       2.580
      51.769    3440.000       0.231       0.077
    8093.364
       0.098      80.304     181.567       8.245       0.013
      44.848      52.223       0.000       3.064       2.576
      52.252    3440.000       0.242       0.079
    8093.864
       0.107      79.220     186.064       8.245       0.010
      50.568      75.294       0.000       3.147       2.571
      61.985    3440.000       0.229       0.081
    8094.364
       0.115      78.138     178.437       8.245       0.010
      70.909      98.732       0.000       3.286       2.569
      88.960    3440.000       0.209       0.083
    8094.864
       0.120      76.742     165.361       8.245       0.010
     123.768     169.475       0.000       3.351       2.565
     154.602    3440.000       0.190       0.085
    8095.364
       0.109      76.063     154.108       8.245       0.015
     166.966     196.370       0.000       3.452       2.559
     197.327    3440.000       0.189       0.089
    8095.864
       0.098      75.338     141.421       8.245       0.021
     121.398     152.751       0.000       3.464       2.553
     109.940    3440.000       0.199       0.092
    8096.364
       0.097      74.275     134.411       8.245       0.025
      76.582      92.586       0.000       3.427       2.543
      49.878    3440.000       0.199       0.098
    8096.864
       0.095      72.895     121.660       8.245       0.018
      66.425     125.186       0.001       3.367       2.533
      43.806    3422.213       0.186       0.104
    8097.364
       0.091      70.868     112.909       8.245       0.010
     128.970     172.636       1.000       3.321       2.525
      94.795    3437.666       0.171       0.109
    8097.864
       0.087      70.374     115.185       8.245       0.003
     181.717     237.396       1.000       3.320       2.521
     164.998    3440.000       0.167       0.111
    8098.364
       0.083      72.021     127.989       8.226      -0.002
     208.642     237.109       1.000       3.320       2.515
     174.047    3440.000       0.176       0.115
    8098.864
       0.080      73.415     146.493       8.225       0.007
     200.843     229.529       1.000       3.305       2.512
     178.129    3440.000       0.189       0.116
    8099.364
       0.093      75.723     151.791       8.205       0.019
     169.418     134.979       1.000       3.265       2.511
     126.849    3440.000       0.199       0.116
    8099.864
       0.103      76.588     159.878       8.223       0.027
      84.854      71.455       1.000       3.225       2.517
      69.529    3440.000       0.210       0.112
    8100.364
       0.106      76.247     167.023       8.225       0.023
      61.157      67.362      -0.004       3.214       2.523
      52.375    3440.000       0.215       0.109
    8100.864
       0.105      74.523     156.522       8.205       0.018
      74.364      97.695       0.995       3.290       2.531
      64.870    3440.000       0.203       0.104
    8101.364
       0.103      72.454     131.972       8.224       0.010
     113.502     157.723       0.000       3.355       2.541
     119.254    3440.000       0.190       0.098
    8101.864
       0.095      70.998     117.091       8.225       0.003
     162.888     192.528       0.000       3.362       2.549
     205.868    3440.000       0.174       0.093
    8102.364
       0.081      70.436     117.637       8.224       0.000
     168.178     183.334       0.000       3.345       2.559
     220.740    3422.256       0.170       0.087
    8102.864
       0.078      71.502     126.033       8.206       0.003
     150.256     181.967       0.000       3.288       2.569
     204.330    3420.000       0.178       0.081
    8103.364
       0.078      73.266     134.736       8.203       0.007
      97.936     128.885       0.000       3.244       2.578
     133.010    3420.000       0.188       0.076
    8103.864
       0.078      71.359     142.696       8.224       0.010
      67.578      74.201       0.000       3.267       2.588
      73.716    3420.000       0.194       0.070
    8104.364
       0.087      68.921     125.952       8.205       0.013
      74.541      68.864       0.000       3.445       2.599
      70.428    3420.000       0.182       0.064
    8104.864
       0.101      65.277     102.974       8.204       0.016
     121.210     111.945       0.000       3.752       2.614
     114.028    3420.000       0.141       0.055
    8105.364
       0.079      62.902      83.055       8.204       0.015
     199.724     184.641       0.000       4.187       2.622
     187.820    3420.000       0.114       0.051
    8105.864
       0.055      63.889      75.425       8.204       0.012
     331.793     334.488       0.000       4.492       2.622
     341.850    3420.000       0.105       0.051
    8106.364
       0.036      66.949      90.601       8.204       0.008
     516.660     740.485       0.000       4.588       2.616
     679.776    3420.000       0.122       0.056
