~Version Information
 VERS.                 2.0: 
 WRAP.                 YES: 
 END.                PETRA:GeoPLUS Corporation
~Well Information Block
#MNEM.UNIT       Data Type    Information
#---------    -------------   ---------------------------------
 STRT.F           1066.8000:
 STOP.F           7799.8000:
 STEP.F              0.5000:
 NULL.              -999.25:
 COMP.                           : COMPANY
 FLD.       FLAT ROCK            : FIELD
 LOC.                            : LOCATION
 DATE.      14-OCT-2016          : DATE
 WELL.                           : Well Name
 LABL.      42461318260000                   : Well Label
 APIN.      42461318260000       : API Number
 UWI.       42461318260000       : Unique Well Number
 NUMB.      1                    : Well Number
 OPER.      KIMBARK OIL & GAS CO : Operator Name
 LEAS.      UNIVERSITY `31-3`    : Lease Name
~Parameter Block
#MNEM.UNIT           VALUE            Description
#---------    --------------------   ---------------------------------
 EKB.F                  2786.0 : KB Elevation
~Curve Information Block
#MNEM.UNIT      API CODE      Curve Description
#---------    -------------   ---------------------------------
 DEPT.F                   00 000 00 00: Depth (MD)
 CALI.IN                  00 001 00 00: Density Caliper
 DPHI.FRAC                00 002 00 00: Density Porosity
 DRHO.G/CM3               00 003 00 00: Density Correction
 GR.GAPI                  00 004 00 00: GAMMA RAY
 ILD.OHM.M                00 005 00 00: Induction Deep Resistivity
 NPHI.FRAC                00 006 00 00: Neutron Porosity
 PAY_TOC.                 00 007 00 00: TOC proxy
 SP.MV                    00 008 00 00: Spontaneous Potential
~A
# ...
    6870.300
       9.188       0.089       0.019      82.291       6.042
       0.164       0.000     -97.341
    6870.800
       9.170       0.077       0.022      75.184       6.040
       0.141       0.000     -97.928
    6871.300
       9.170       0.052       0.020      67.756       6.128
       0.122       0.000     -98.654
    6871.800
       9.151       0.033       0.009      56.165       6.256
       0.106       0.000     -99.130
    6872.300
       9.152       0.020       0.009      41.760       6.545
       0.087       0.000    -100.173
    6872.800
       9.133       0.017       0.013      51.715       6.899
       0.068       0.000    -101.257
    6873.300
       9.114       0.012       0.020      60.564       7.599
       0.054       0.000    -102.123
    6873.800
       9.114       0.008       0.026      63.421       8.551
       0.051       0.000    -103.285
    6874.300
       9.094       0.050       0.029      64.471       9.221
       0.085       0.000    -104.472
    6874.800
       9.077       0.085       0.028      65.355       9.289
       0.123       0.000    -105.114
    6875.300
       9.058       0.103       0.024      66.552       9.174
       0.132       0.000    -105.769
    6875.800
       9.057       0.102       0.020      69.331       8.605
       0.137       0.000    -106.151
    6876.300
       9.053       0.099       0.013      71.538       8.128
       0.153       0.000    -106.211
    6876.800
       9.039       0.098       0.015      74.703       7.423
       0.161       0.000    -105.878
    6877.300
       9.039       0.097       0.033      76.963       6.919
       0.171       0.000    -105.360
    6877.800
       9.039       0.102       0.039      80.109       6.488
       0.181       0.000    -104.782
    6878.300
       9.039       0.107       0.039      81.929       6.192
       0.188       0.000    -104.019
    6878.800
       9.039       0.102       0.036      82.704       6.018
       0.178       0.000    -103.283
    6879.300
       9.020       0.093       0.027      81.139       5.887
       0.168       0.000    -102.656
    6879.800
       9.020       0.089       0.019      76.160       5.838
       0.163       0.000    -102.092
    6880.300
       9.008       0.087       0.011      71.192       5.930
       0.158       0.000    -102.095
    6880.800
       9.001       0.088       0.006      69.082       6.064
       0.152       0.000    -102.110
    6881.300
       9.001       0.091       0.004      69.873       6.391
       0.146       0.000    -102.126
    6881.800
       9.002       0.091       0.005      70.961       6.649
       0.139       0.000    -102.277
    6882.300
       9.002       0.092       0.008      72.155       6.980
       0.134       0.000    -102.882
    6882.800
       9.020       0.097       0.016      72.548       7.147
       0.133       0.000    -102.911
    6883.300
       9.020       0.104       0.016      72.598       7.249
       0.147       0.000    -103.339
    6883.800
       9.029       0.106       0.011      70.889       7.194
       0.162       0.000    -103.699
    6884.300
       9.039       0.104       0.009      69.854       7.008
       0.162       0.000    -104.098
    6884.800
       9.039       0.099       0.007      75.811       6.620
       0.156       0.000    -104.500
    6885.300
       9.039       0.091       0.006      81.647       6.331
       0.153       0.000    -104.475
    6885.800
       9.039       0.085       0.007      87.102       6.005
       0.155       0.000    -103.852
    6886.300
       9.039       0.081       0.010      92.775       5.856
       0.170       0.000    -103.838
    6886.800
       9.040       0.079       0.015      98.844       5.807
       0.188       0.000    -103.524
    6887.300
       9.040       0.081       0.019     102.224       5.878
       0.204       0.000    -102.643
    6887.800
       9.040       0.092       0.023     104.242       5.957
       0.213       0.000    -101.245
    6888.300
       9.040       0.094       0.025     104.348       6.135
       0.218       0.000     -99.783
    6888.800
       9.040       0.092       0.027     104.059       6.383
       0.216       0.000     -98.454
    6889.300
       9.021       0.089       0.023     104.715       6.803
       0.215       0.000     -96.486
    6889.800
       9.022       0.089       0.015     106.429       7.183
       0.215       0.000     -94.547
    6890.300
       9.002       0.090       0.011     108.459       7.801
       0.225       0.000     -92.657
    6890.800
       9.002       0.093       0.009     109.956       8.382
       0.235       0.000     -90.965
    6891.300
       9.002       0.094       0.009     110.580       9.226
       0.245       0.000     -89.193
    6891.800
       9.002       0.094       0.009     109.928      10.153
       0.243       0.000     -87.595
    6892.300
       9.002       0.093       0.009     107.194      11.260
       0.234       0.000     -86.381
    6892.800
       9.003       0.091       0.010     105.463      12.241
       0.224       0.000     -85.344
    6893.300
       9.003       0.087       0.010     104.890      13.141
       0.216       0.000     -84.480
    6893.800
       8.995       0.083       0.012     105.652      13.923
       0.208       0.000     -83.435
    6894.300
       8.984       0.080       0.013     106.558      14.405
       0.204       0.000     -83.110
    6894.800
       8.984       0.079       0.015     107.310      15.072
       0.201       0.000     -82.636
    6895.300
       8.965       0.079       0.016     107.309      15.433
       0.209       0.000     -82.455
    6895.800
       8.965       0.091       0.016     106.306      15.526
       0.223       0.000     -82.275
    6896.300
       8.965       0.111       0.015     105.066      15.536
       0.228       0.000     -82.633
    6896.800
       8.947       0.117       0.013     104.938      15.395
       0.225       0.000     -82.670
    6897.300
       8.943       0.114       0.009     105.575      15.259
       0.223       0.000     -82.689
    6897.800
       8.928       0.112       0.007     106.849      15.121
       0.223       0.000     -82.703
    6898.300
       8.921       0.121       0.004     107.913      15.086
       0.226       0.000     -83.072
    6898.800
       8.909       0.119       0.002     108.647      15.212
       0.229       0.000     -83.105
    6899.300
       8.901       0.110       0.002     107.777      15.338
       0.227       0.000     -83.490
    6899.800
       8.891       0.101       0.003     104.460      15.626
       0.220       0.000     -83.558
    6900.300
       8.890       0.093       0.006      98.088      16.093
       0.211       0.000     -83.180
    6900.800
       8.890       0.085       0.009      87.212      17.099
       0.206       0.000     -83.184
    6901.300
       8.890       0.079       0.014      85.278      18.630
       0.202       0.000     -83.201
    6901.800
       8.872       0.091       0.020      92.396      19.539
       0.203       0.000     -82.853
    6902.300
       8.872       0.087       0.027      98.279      20.079
       0.209       0.000     -82.849
    6902.800
       8.872       0.085       0.036     100.058      20.268
       0.226       0.000     -82.866
    6903.300
       8.872       0.115       0.038     101.760      20.020
       0.235       0.000     -82.882
    6903.800
       8.865       0.122       0.041     102.603      19.127
       0.241       0.000     -82.898
    6904.300
       8.854       0.124       0.042     102.803      18.595
       0.247       0.000     -82.565
    6904.800
       8.853       0.112       0.011     102.936      17.960
       0.241       0.000     -82.530
    6905.300
       8.872       0.095       0.003     102.895      17.682
       0.221       0.000     -82.206
    6905.800
       8.872       0.087       0.005      87.944      17.568
       0.201       0.000     -82.214
    6906.300
       8.891       0.084       0.006      77.206      17.863
       0.195       0.000     -81.861
